{"location": "Albany, CA", "term": "restaurant", "radius": 1210, "businesses": [{"id": "Y3W4WovUZio7kaVNCnha0A", "alias": "chez-mansour-albany", "name": "Chez Mansour", "image_url": "https://s3-media1.fl.yelpcdn.com/bphoto/3VivP80uJcMtKcWWezJiIA/o.jpg", "is_closed": false, "url": "https://www.yelp.com/biz/chez-mansour-albany?adjust_creative=R39z9kjZ-1HrCCc7SW6pcw&utm_campaign=yelp_api_v3&utm_medium=api_v3_business_search&utm_source=R39z9kjZ-1HrCCc7SW6pcw", "review_count": 13, "categories": [{"alias": "lebanese", "title": "Lebanese"}], "rating": 4.5, "coordinates": {"latitude": 37.890919, "longitude": -122.290674}, "transactions": ["restaurant_reservation"], "price": "$$", "location": {"address1": "1369 Solano Ave", "address2": null, "address3": null, "city": "Albany", "zip_code": "94706", "country": "US", "state": "CA", "display_address": ["1369 Solano Ave", "Albany, CA 94706"]}, "phone": "+15105241040", "display_phone": "(510) 524-1040", "distance": 462.9236209571327}, {"id": "g15dMYbefEL-ylCgk0MBbw", "alias": "zaytoon-mediterranean-restaurant-and-bar-albany-2", "name": "Zaytoon Mediterranean Restaurant & Bar", "image_url": "https://s3-media4.fl.yelpcdn.com/bphoto/lVeK1z9npSJ3dW7tWGg6ww/o.jpg", "is_closed": false, "url": "https://www.yelp.com/biz/zaytoon-mediterranean-restaurant-and-bar-albany-2?adjust_creative=R39z9kjZ-1HrCCc7SW6pcw&utm_campaign=yelp_api_v3&utm_medium=api_v3_business_search&utm_source=R39z9kjZ-1HrCCc7SW6pcw", "review_count": 348, "categories": [{"alias": "mediterranean", "title": "Mediterranean"}, {"alias": "mideastern", "title": "Middle Eastern"}, {"alias": "bars", "title": "Bars"}], "rating": 4.5, "coordinates": {"latitude": 37.89052, "longitude": -122.29773}, "transactions": ["restaurant_reservation"], "price": "$$", "location": {"address1": "1133 Solano Ave", "address2": "", "address3": "", "city": "Albany", "zip_code": "94706", "country": "US", "state": "CA", "display_address": ["1133 Solano Ave", "Albany, CA 94706"]}, "phone": "+15108981316", "display_phone": "(510) 898-1316", "distance": 156.95065682046155}, {"id": "1ErPhzdCaoMVSHsXc9TOmQ", "alias": "310-eatery-albany", "name": "310 Eatery", "image_url": "https://s3-media2.fl.yelpcdn.com/bphoto/RqNHGed9Jp5vFM2N5eHM8A/o.jpg", "is_closed": false, "url": "https://www.yelp.com/biz/310-eatery-albany?adjust_creative=R39z9kjZ-1HrCCc7SW6pcw&utm_campaign=yelp_api_v3&utm_medium=api_v3_business_search&utm_source=R39z9kjZ-1HrCCc7SW6pcw", "review_count": 747, "categories": [{"alias": "burgers", "title": "Burgers"}, {"alias": "asianfusion", "title": "Asian Fusion"}, {"alias": "breakfast_brunch", "title": "Breakfast & Brunch"}], "rating": 4.5, "coordinates": {"latitude": 37.89241, "longitude": -122.29927}, "transactions": [], "price": "$$", "location": {"address1": "747 San Pablo Ave", "address2": "", "address3": "", "city": "Albany", "zip_code": "94706", "country": "US", "state": "CA", "display_address": ["747 San Pablo Ave", "Albany, CA 94706"]}, "phone": "+15106973878", "display_phone": "(510) 697-3878", "distance": 354.1270878363809}, {"id": "shWuD8dJ5wbXppAzEybpgw", "alias": "wojia-hunan-cuisine-albany", "name": "Wojia Hunan Cuisine", "image_url": "https://s3-media2.fl.yelpcdn.com/bphoto/QOBPIFQVOXYDM1cdYwwatg/o.jpg", "is_closed": false, "url": "https://www.yelp.com/biz/wojia-hunan-cuisine-albany?adjust_creative=R39z9kjZ-1HrCCc7SW6pcw&utm_campaign=yelp_api_v3&utm_medium=api_v3_business_search&utm_source=R39z9kjZ-1HrCCc7SW6pcw", "review_count": 299, "categories": [{"alias": "szechuan", "title": "Szechuan"}], "rating": 4.5, "coordinates": {"latitude": 37.88954, "longitude": -122.29834}, "transactions": [], "price": "$$", "location": {"address1": "917 San Pablo Ave", "address2": "", "address3": null, "city": "Albany", "zip_code": "94706", "country": "US", "state": "CA", "display_address": ["917 San Pablo Ave", "Albany, CA 94706"]}, "phone": "+15105269088", "display_phone": "(510) 526-9088", "distance": 248.44751810355237}, {"id": "jzmCjMb4nJscElnEgtY-Pw", "alias": "juanita-and-maude-albany", "name": "Juanita & Maude", "image_url": "https://s3-media3.fl.yelpcdn.com/bphoto/P0emuaaCfv6e828Yet-3tw/o.jpg", "is_closed": false, "url": "https://www.yelp.com/biz/juanita-and-maude-albany?adjust_creative=R39z9kjZ-1HrCCc7SW6pcw&utm_campaign=yelp_api_v3&utm_medium=api_v3_business_search&utm_source=R39z9kjZ-1HrCCc7SW6pcw", "review_count": 192, "categories": [{"alias": "newamerican", "title": "American (New)"}], "rating": 4.5, "coordinates": {"latitude": 37.89099, "longitude": -122.2988}, "transactions": [], "price": "$$$", "location": {"address1": "825 San Pablo Ave", "address2": "", "address3": null, "city": "Albany", "zip_code": "94706", "country": "US", "state": "CA", "display_address": ["825 San Pablo Ave", "Albany, CA 94706"]}, "phone": "+15105262233", "display_phone": "(510) 526-2233", "distance": 265.73687857276184}, {"id": "vD0mp-ZGHixwQrdzCcxuGw", "alias": "bowld-korean-rice-bar-albany", "name": "Bowl'd Korean Rice Bar", "image_url": "https://s3-media2.fl.yelpcdn.com/bphoto/Rq5ib6UDZVzx0iuBg9pwPg/o.jpg", "is_closed": false, "url": "https://www.yelp.com/biz/bowld-korean-rice-bar-albany?adjust_creative=R39z9kjZ-1HrCCc7SW6pcw&utm_campaign=yelp_api_v3&utm_medium=api_v3_business_search&utm_source=R39z9kjZ-1HrCCc7SW6pcw", "review_count": 1125, "categories": [{"alias": "korean", "title": "Korean"}, {"alias": "vegan", "title": "Vegan"}, {"alias": "vegetarian", "title": "Vegetarian"}], "rating": 4.0, "coordinates": {"latitude": 37.8911161, "longitude": -122.2882947}, "transactions": [], "price": "$$", "location": {"address1": "1479 Solano Ave", "address2": "", "address3": "", "city": "Albany", "zip_code": "94706", "country": "US", "state": "CA", "display_address": ["1479 Solano Ave", "Albany, CA 94706"]}, "phone": "+15105266223", "display_phone": "(510) 526-6223", "distance": 672.657113003183}, {"id": "eKS3Jy9IbEEGlr8OdQLpLw", "alias": "duo-grill-house-albany-2", "name": "Duo Grill House", "image_url": "https://s3-media4.fl.yelpcdn.com/bphoto/gN4C7qtNXZxuW-OeTUZ3IA/o.jpg", "is_closed": false, "url": "https://www.yelp.com/biz/duo-grill-house-albany-2?adjust_creative=R39z9kjZ-1HrCCc7SW6pcw&utm_campaign=yelp_api_v3&utm_medium=api_v3_business_search&utm_source=R39z9kjZ-1HrCCc7SW6pcw", "review_count": 9, "categories": [{"alias": "tradamerican", "title": "American (Traditional)"}], "rating": 4.5, "coordinates": {"latitude": 37.891084, "longitude": -122.287908}, "transactions": ["delivery", "pickup"], "location": {"address1": "1491 Solano Ave", "address2": null, "address3": "", "city": "Albany", "zip_code": "94706", "country": "US", "state": "CA", "display_address": ["1491 Solano Ave", "Albany, CA 94706"]}, "phone": "+15105243860", "display_phone": "(510) 524-3860", "distance": 709.5636186618191}, {"id": "4llVHbcdMPfrZImiiF-D9w", "alias": "the-hot-shop-albany", "name": "The Hot Shop", "image_url": "https://s3-media3.fl.yelpcdn.com/bphoto/rOC6hkaeFgo2nq2rOcPfdA/o.jpg", "is_closed": false, "url": "https://www.yelp.com/biz/the-hot-shop-albany?adjust_creative=R39z9kjZ-1HrCCc7SW6pcw&utm_campaign=yelp_api_v3&utm_medium=api_v3_business_search&utm_source=R39z9kjZ-1HrCCc7SW6pcw", "review_count": 342, "categories": [{"alias": "mexican", "title": "Mexican"}, {"alias": "afghani", "title": "Afghan"}, {"alias": "halal", "title": "Halal"}], "rating": 4.5, "coordinates": {"latitude": 37.88998, "longitude": -122.29859}, "transactions": [], "price": "$", "location": {"address1": "909 San Pablo Ave", "address2": "", "address3": "", "city": "Albany", "zip_code": "94706", "country": "US", "state": "CA", "display_address": ["909 San Pablo Ave", "Albany, CA 94706"]}, "phone": "+15105289011", "display_phone": "(510) 528-9011", "distance": 247.23785466467146}, {"id": "TyIzSjcr0z0jimwLeISMQg", "alias": "da-nang-restaurant-albany", "name": "Da Nang Restaurant", "image_url": "https://s3-media2.fl.yelpcdn.com/bphoto/dSWeqweYvB9RhiSqCVQfSw/o.jpg", "is_closed": false, "url": "https://www.yelp.com/biz/da-nang-restaurant-albany?adjust_creative=R39z9kjZ-1HrCCc7SW6pcw&utm_campaign=yelp_api_v3&utm_medium=api_v3_business_search&utm_source=R39z9kjZ-1HrCCc7SW6pcw", "review_count": 69, "categories": [{"alias": "vietnamese", "title": "Vietnamese"}], "rating": 4.5, "coordinates": {"latitude": 37.89005, "longitude": -122.29862}, "transactions": [], "price": "$$", "location": {"address1": "905 San Pablo Ave", "address2": "", "address3": null, "city": "Albany", "zip_code": "94706", "country": "US", "state": "CA", "display_address": ["905 San Pablo Ave", "Albany, CA 94706"]}, "phone": "+15103564813", "display_phone": "(510) 356-4813", "distance": 252.60774701608037}, {"id": "u5-xaRYrBeeVa5VxMzOs2Q", "alias": "938-crawfish-albany", "name": "938 Crawfish", "image_url": "https://s3-media3.fl.yelpcdn.com/bphoto/PSbNbg4QMer6TLt6sqQPYA/o.jpg", "is_closed": false, "url": "https://www.yelp.com/biz/938-crawfish-albany?adjust_creative=R39z9kjZ-1HrCCc7SW6pcw&utm_campaign=yelp_api_v3&utm_medium=api_v3_business_search&utm_source=R39z9kjZ-1HrCCc7SW6pcw", "review_count": 503, "categories": [{"alias": "seafood", "title": "Seafood"}, {"alias": "cajun", "title": "Cajun/Creole"}], "rating": 4.0, "coordinates": {"latitude": 37.8889, "longitude": -122.29886}, "transactions": ["delivery"], "price": "$$", "location": {"address1": "938 San Pablo Ave", "address2": "", "address3": "", "city": "Albany", "zip_code": "94706", "country": "US", "state": "CA", "display_address": ["938 San Pablo Ave", "Albany, CA 94706"]}, "phone": "+15105252722", "display_phone": "(510) 525-2722", "distance": 321.98356370027017}, {"id": "UuC0xMHDZ3xKlbBKSvqSqQ", "alias": "oori-rice-triangles-albany-3", "name": "Oori Rice Triangles", "image_url": "https://s3-media3.fl.yelpcdn.com/bphoto/4Bd3Gpylxi2Heg-rUEFqWQ/o.jpg", "is_closed": false, "url": "https://www.yelp.com/biz/oori-rice-triangles-albany-3?adjust_creative=R39z9kjZ-1HrCCc7SW6pcw&utm_campaign=yelp_api_v3&utm_medium=api_v3_business_search&utm_source=R39z9kjZ-1HrCCc7SW6pcw", "review_count": 372, "categories": [{"alias": "japanese", "title": "Japanese"}, {"alias": "korean", "title": "Korean"}], "rating": 4.0, "coordinates": {"latitude": 37.8907327309419, "longitude": -122.293739964571}, "transactions": ["delivery", "pickup"], "price": "$", "location": {"address1": "1247 Solano Ave", "address2": "", "address3": "", "city": "Albany", "zip_code": "94706", "country": "US", "state": "CA", "display_address": ["1247 Solano Ave", "Albany, CA 94706"]}, "phone": "+15105268663", "display_phone": "(510) 526-8663", "distance": 193.28755728994886}, {"id": "cMsCzq8NsRRl5Iei5HqUxg", "alias": "delhi-diner-albany", "name": "Delhi Diner", "image_url": "https://s3-media2.fl.yelpcdn.com/bphoto/AQP_scct1ZG8vpVedLlvUw/o.jpg", "is_closed": false, "url": "https://www.yelp.com/biz/delhi-diner-albany?adjust_creative=R39z9kjZ-1HrCCc7SW6pcw&utm_campaign=yelp_api_v3&utm_medium=api_v3_business_search&utm_source=R39z9kjZ-1HrCCc7SW6pcw", "review_count": 746, "categories": [{"alias": "indpak", "title": "Indian"}], "rating": 4.5, "coordinates": {"latitude": 37.89097, "longitude": -122.29068}, "transactions": ["restaurant_reservation", "delivery", "pickup"], "price": "$$", "location": {"address1": "1373 Solano Ave", "address2": null, "address3": "", "city": "Albany", "zip_code": "94706", "country": "US", "state": "CA", "display_address": ["1373 Solano Ave", "Albany, CA 94706"]}, "phone": "+15105285000", "display_phone": "(510) 528-5000", "distance": 464.11209520635964}, {"id": "cjPsTUw0ZGoFBF1-LkkR9w", "alias": "little-star-pizza-albany-3", "name": "Little Star Pizza", "image_url": "https://s3-media3.fl.yelpcdn.com/bphoto/y2f-0aMKouK1kvEzL83mbA/o.jpg", "is_closed": false, "url": "https://www.yelp.com/biz/little-star-pizza-albany-3?adjust_creative=R39z9kjZ-1HrCCc7SW6pcw&utm_campaign=yelp_api_v3&utm_medium=api_v3_business_search&utm_source=R39z9kjZ-1HrCCc7SW6pcw", "review_count": 842, "categories": [{"alias": "pizza", "title": "Pizza"}, {"alias": "italian", "title": "Italian"}, {"alias": "bars", "title": "Bars"}], "rating": 4.0, "coordinates": {"latitude": 37.8905772, "longitude": -122.2968295}, "transactions": ["delivery", "pickup"], "price": "$$", "location": {"address1": "1181 Solano Ave", "address2": "", "address3": "", "city": "Albany", "zip_code": "94706", "country": "US", "state": "CA", "display_address": ["1181 Solano Ave", "Albany, CA 94706"]}, "phone": "+15105267827", "display_phone": "(510) 526-7827", "distance": 79.1337085422274}, {"id": "pfj2X3oGYi4Mx81ZDMg7HA", "alias": "tacos-el-autlense-albany", "name": "Tacos El Autlense", "image_url": "https://s3-media1.fl.yelpcdn.com/bphoto/ceHi0Eb5j7Y5mMf89_DrkQ/o.jpg", "is_closed": false, "url": "https://www.yelp.com/biz/tacos-el-autlense-albany?adjust_creative=R39z9kjZ-1HrCCc7SW6pcw&utm_campaign=yelp_api_v3&utm_medium=api_v3_business_search&utm_source=R39z9kjZ-1HrCCc7SW6pcw", "review_count": 406, "categories": [{"alias": "mexican", "title": "Mexican"}, {"alias": "foodtrucks", "title": "Food Trucks"}], "rating": 4.5, "coordinates": {"latitude": 37.8950005, "longitude": -122.3001022}, "transactions": [], "price": "$", "location": {"address1": "601 San Pablo Ave", "address2": "Ste 2", "address3": "", "city": "Albany", "zip_code": "94706", "country": "US", "state": "CA", "display_address": ["601 San Pablo Ave", "Ste 2", "Albany, CA 94706"]}, "phone": "+15107760701", "display_phone": "(510) 776-0701", "distance": 607.747829180672}, {"id": "smSB17tWe_xDw9TFQ3mdug", "alias": "enoteca-mediterraneo-albany", "name": "Enoteca Mediterraneo", "image_url": "https://s3-media2.fl.yelpcdn.com/bphoto/38n9o2Awk1SW5m_Zfg5BMw/o.jpg", "is_closed": false, "url": "https://www.yelp.com/biz/enoteca-mediterraneo-albany?adjust_creative=R39z9kjZ-1HrCCc7SW6pcw&utm_campaign=yelp_api_v3&utm_medium=api_v3_business_search&utm_source=R39z9kjZ-1HrCCc7SW6pcw", "review_count": 51, "categories": [{"alias": "mediterranean", "title": "Mediterranean"}, {"alias": "vegan", "title": "Vegan"}, {"alias": "vegetarian", "title": "Vegetarian"}], "rating": 4.5, "coordinates": {"latitude": 37.8909300066678, "longitude": -122.290529944003}, "transactions": [], "price": "$$", "location": {"address1": "1389 Solano Ave", "address2": "", "address3": null, "city": "Albany", "zip_code": "94706", "country": "US", "state": "CA", "display_address": ["1389 Solano Ave", "Albany, CA 94706"]}, "phone": "+15105291344", "display_phone": "(510) 529-1344", "distance": 475.61152045227414}, {"id": "IaLtMKJhPctTDN6AbQIZKg", "alias": "aangan-albany-3", "name": "Aangan", "image_url": "https://s3-media3.fl.yelpcdn.com/bphoto/oYmqZ6ZbhN3N2ODZeiUh3g/o.jpg", "is_closed": false, "url": "https://www.yelp.com/biz/aangan-albany-3?adjust_creative=R39z9kjZ-1HrCCc7SW6pcw&utm_campaign=yelp_api_v3&utm_medium=api_v3_business_search&utm_source=R39z9kjZ-1HrCCc7SW6pcw", "review_count": 590, "categories": [{"alias": "indpak", "title": "Indian"}, {"alias": "himalayan", "title": "Himalayan/Nepalese"}], "rating": 4.0, "coordinates": {"latitude": 37.89045, "longitude": -122.29928}, "transactions": ["delivery", "pickup"], "price": "$$", "location": {"address1": "856 San Pablo Ave", "address2": "", "address3": "", "city": "Albany", "zip_code": "94706", "country": "US", "state": "CA", "display_address": ["856 San Pablo Ave", "Albany, CA 94706"]}, "phone": "+15105242220", "display_phone": "(510) 524-2220", "distance": 307.21727846891525}, {"id": "SmdE8aRd4fQjqZ5n1ISvaw", "alias": "everest-kitchen-albany", "name": "Everest Kitchen", "image_url": "https://s3-media3.fl.yelpcdn.com/bphoto/Wqbp2WNxcaD97lgigXdE8w/o.jpg", "is_closed": false, "url": "https://www.yelp.com/biz/everest-kitchen-albany?adjust_creative=R39z9kjZ-1HrCCc7SW6pcw&utm_campaign=yelp_api_v3&utm_medium=api_v3_business_search&utm_source=R39z9kjZ-1HrCCc7SW6pcw", "review_count": 202, "categories": [{"alias": "himalayan", "title": "Himalayan/Nepalese"}, {"alias": "indpak", "title": "Indian"}, {"alias": "vegan", "title": "Vegan"}], "rating": 4.5, "coordinates": {"latitude": 37.8902243320071, "longitude": -122.297437302768}, "transactions": ["pickup"], "price": "$$", "location": {"address1": "1150 Solano Ave", "address2": "", "address3": "", "city": "Albany", "zip_code": "94706", "country": "US", "state": "CA", "display_address": ["1150 Solano Ave", "Albany, CA 94706"]}, "phone": "+15106795079", "display_phone": "(510) 679-5079", "distance": 141.64665013789758}, {"id": "rwInTRTt4lBePXf89uKRMQ", "alias": "symas-mexican-grill-albany", "name": "Syma's Mexican Grill", "image_url": "https://s3-media4.fl.yelpcdn.com/bphoto/QTOAEoEfwQbqGymvDp6U1A/o.jpg", "is_closed": false, "url": "https://www.yelp.com/biz/symas-mexican-grill-albany?adjust_creative=R39z9kjZ-1HrCCc7SW6pcw&utm_campaign=yelp_api_v3&utm_medium=api_v3_business_search&utm_source=R39z9kjZ-1HrCCc7SW6pcw", "review_count": 45, "categories": [{"alias": "mexican", "title": "Mexican"}, {"alias": "persian", "title": "Persian/Iranian"}, {"alias": "desserts", "title": "Desserts"}], "rating": 4.5, "coordinates": {"latitude": 37.885941, "longitude": -122.297301}, "transactions": ["delivery", "pickup"], "location": {"address1": "1019 San Pablo Ave", "address2": "", "address3": null, "city": "Albany", "zip_code": "94706", "country": "US", "state": "CA", "display_address": ["1019 San Pablo Ave", "Albany, CA 94706"]}, "phone": "+15105261185", "display_phone": "(510) 526-1185", "distance": 553.3617534359412}, {"id": "8I1IJUSC1MVdymCVAwVBKg", "alias": "china-village-albany-3", "name": "China Village", "image_url": "https://s3-media1.fl.yelpcdn.com/bphoto/URu4EHG_Q2gCGAjJUtvzfA/o.jpg", "is_closed": false, "url": "https://www.yelp.com/biz/china-village-albany-3?adjust_creative=R39z9kjZ-1HrCCc7SW6pcw&utm_campaign=yelp_api_v3&utm_medium=api_v3_business_search&utm_source=R39z9kjZ-1HrCCc7SW6pcw", "review_count": 807, "categories": [{"alias": "szechuan", "title": "Szechuan"}], "rating": 3.5, "coordinates": {"latitude": 37.890986, "longitude": -122.291229}, "transactions": [], "price": "$$", "location": {"address1": "1335 Solano Ave", "address2": "", "address3": "", "city": "Albany", "zip_code": "94706", "country": "US", "state": "CA", "display_address": ["1335 Solano Ave", "Albany, CA 94706"]}, "phone": "+15105252285", "display_phone": "(510) 525-2285", "distance": 414.78795896576025}, {"id": "xvRUWEND7CM2N1SMD7907w", "alias": "rendez-vous-cafe-bistro-albany-2", "name": "Rendez-Vous Cafe Bistro", "image_url": "https://s3-media4.fl.yelpcdn.com/bphoto/MBCd5lvvTJmbMH5olwfKVQ/o.jpg", "is_closed": false, "url": "https://www.yelp.com/biz/rendez-vous-cafe-bistro-albany-2?adjust_creative=R39z9kjZ-1HrCCc7SW6pcw&utm_campaign=yelp_api_v3&utm_medium=api_v3_business_search&utm_source=R39z9kjZ-1HrCCc7SW6pcw", "review_count": 391, "categories": [{"alias": "french", "title": "French"}, {"alias": "breakfast_brunch", "title": "Breakfast & Brunch"}], "rating": 3.5, "coordinates": {"latitude": 37.8904799, "longitude": -122.29835}, "transactions": ["restaurant_reservation", "delivery", "pickup"], "price": "$$", "location": {"address1": "1111 Solano Ave", "address2": "", "address3": "", "city": "Albany", "zip_code": "94706", "country": "US", "state": "CA", "display_address": ["1111 Solano Ave", "Albany, CA 94706"]}, "phone": "+15105274111", "display_phone": "(510) 527-4111", "distance": 222.4483528801421}, {"id": "97QeyQyyusp266BSYJHKmw", "alias": "lao-thai-kitchen-albany", "name": "Lao Thai Kitchen", "image_url": "https://s3-media3.fl.yelpcdn.com/bphoto/Ozsl6Y0vNyaeBj2obTwL6g/o.jpg", "is_closed": false, "url": "https://www.yelp.com/biz/lao-thai-kitchen-albany?adjust_creative=R39z9kjZ-1HrCCc7SW6pcw&utm_campaign=yelp_api_v3&utm_medium=api_v3_business_search&utm_source=R39z9kjZ-1HrCCc7SW6pcw", "review_count": 262, "categories": [{"alias": "thai", "title": "Thai"}, {"alias": "laotian", "title": "Laotian"}], "rating": 4.0, "coordinates": {"latitude": 37.89062, "longitude": -122.2892}, "transactions": [], "price": "$$", "location": {"address1": "1406 Solano Ave", "address2": "", "address3": "", "city": "Albany", "zip_code": "94706", "country": "US", "state": "CA", "display_address": ["1406 Solano Ave", "Albany, CA 94706"]}, "phone": "+15105588915", "display_phone": "(510) 558-8915", "distance": 593.4727290648807}, {"id": "Dq47xG_JD9wXS_4W8K5rcw", "alias": "pho-ao-sen-albany", "name": "Pho Ao Sen", "image_url": "https://s3-media2.fl.yelpcdn.com/bphoto/k_0CmAmzDFCYW4hc0H_VKA/o.jpg", "is_closed": false, "url": "https://www.yelp.com/biz/pho-ao-sen-albany?adjust_creative=R39z9kjZ-1HrCCc7SW6pcw&utm_campaign=yelp_api_v3&utm_medium=api_v3_business_search&utm_source=R39z9kjZ-1HrCCc7SW6pcw", "review_count": 335, "categories": [{"alias": "vietnamese", "title": "Vietnamese"}], "rating": 3.5, "coordinates": {"latitude": 37.8937178, "longitude": -122.2997228}, "transactions": [], "price": "$$", "location": {"address1": "665 San Pablo Ave", "address2": null, "address3": "", "city": "Albany", "zip_code": "94706", "country": "US", "state": "CA", "display_address": ["665 San Pablo Ave", "Albany, CA 94706"]}, "phone": "+15106795000", "display_phone": "(510) 679-5000", "distance": 471.49629108981827}, {"id": "UTyIbp1OWOzclHVVFlScaA", "alias": "fonda-albany", "name": "Fonda", "image_url": "https://s3-media3.fl.yelpcdn.com/bphoto/W5UaT2ZdlXRgKYHFoKCQbQ/o.jpg", "is_closed": false, "url": "https://www.yelp.com/biz/fonda-albany?adjust_creative=R39z9kjZ-1HrCCc7SW6pcw&utm_campaign=yelp_api_v3&utm_medium=api_v3_business_search&utm_source=R39z9kjZ-1HrCCc7SW6pcw", "review_count": 779, "categories": [{"alias": "mexican", "title": "Mexican"}, {"alias": "spanish", "title": "Spanish"}, {"alias": "bars", "title": "Bars"}], "rating": 3.5, "coordinates": {"latitude": 37.89116, "longitude": -122.2873}, "transactions": [], "price": "$$", "location": {"address1": "1501 Solano Ave", "address2": "", "address3": "", "city": "Albany", "zip_code": "94707", "country": "US", "state": "CA", "display_address": ["1501 Solano Ave", "Albany, CA 94707"]}, "phone": "+15105599006", "display_phone": "(510) 559-9006", "distance": 757.2062277301244}, {"id": "Un2RRt0FBMDBpFMPbuJTnA", "alias": "cafe-raj-albany", "name": "Cafe Raj", "image_url": "https://s3-media4.fl.yelpcdn.com/bphoto/QPy7u2IhfI9JIxHmIGElXw/o.jpg", "is_closed": false, "url": "https://www.yelp.com/biz/cafe-raj-albany?adjust_creative=R39z9kjZ-1HrCCc7SW6pcw&utm_campaign=yelp_api_v3&utm_medium=api_v3_business_search&utm_source=R39z9kjZ-1HrCCc7SW6pcw", "review_count": 501, "categories": [{"alias": "indpak", "title": "Indian"}, {"alias": "pakistani", "title": "Pakistani"}], "rating": 4.0, "coordinates": {"latitude": 37.89021, "longitude": -122.29682}, "transactions": ["pickup"], "price": "$", "location": {"address1": "1158 Solano Ave", "address2": "", "address3": "", "city": "Albany", "zip_code": "94706", "country": "US", "state": "CA", "display_address": ["1158 Solano Ave", "Albany, CA 94706"]}, "phone": "+15105245667", "display_phone": "(510) 524-5667", "distance": 92.23631385361445}, {"id": "2vZ9g-llVHn9uei3pwzonA", "alias": "potala-vegan-restaurant-albany", "name": "Potala Vegan Restaurant", "image_url": "https://s3-media4.fl.yelpcdn.com/bphoto/GI2vM5EGMQUayLmcO8Ho0g/o.jpg", "is_closed": false, "url": "https://www.yelp.com/biz/potala-vegan-restaurant-albany?adjust_creative=R39z9kjZ-1HrCCc7SW6pcw&utm_campaign=yelp_api_v3&utm_medium=api_v3_business_search&utm_source=R39z9kjZ-1HrCCc7SW6pcw", "review_count": 435, "categories": [{"alias": "cafes", "title": "Cafes"}, {"alias": "vegan", "title": "Vegan"}, {"alias": "vegetarian", "title": "Vegetarian"}], "rating": 4.5, "coordinates": {"latitude": 37.88503, "longitude": -122.2969}, "transactions": [], "price": "$$", "location": {"address1": "1045 San Pablo Ave", "address2": "", "address3": "", "city": "Albany", "zip_code": "94706", "country": "US", "state": "CA", "display_address": ["1045 San Pablo Ave", "Albany, CA 94706"]}, "phone": "+15105282375", "display_phone": "(510) 528-2375", "distance": 624.4777294508232}, {"id": "L2mbYRwuI1x9oOiMRXHy8w", "alias": "albany-taproom-albany", "name": "Albany Taproom", "image_url": "https://s3-media1.fl.yelpcdn.com/bphoto/X2R4ty5pET8PrJkOpD1rPQ/o.jpg", "is_closed": false, "url": "https://www.yelp.com/biz/albany-taproom-albany?adjust_creative=R39z9kjZ-1HrCCc7SW6pcw&utm_campaign=yelp_api_v3&utm_medium=api_v3_business_search&utm_source=R39z9kjZ-1HrCCc7SW6pcw", "review_count": 205, "categories": [{"alias": "burgers", "title": "Burgers"}, {"alias": "beerbar", "title": "Beer Bar"}, {"alias": "gluten_free", "title": "Gluten-Free"}], "rating": 4.0, "coordinates": {"latitude": 37.8924440953638, "longitude": -122.299353295772}, "transactions": ["pickup"], "price": "$$", "location": {"address1": "745 San Pablo Ave", "address2": null, "address3": "", "city": "Albany", "zip_code": "94706", "country": "US", "state": "CA", "display_address": ["745 San Pablo Ave", "Albany, CA 94706"]}, "phone": "+15105262998", "display_phone": "(510) 526-2998", "distance": 356.3746905722177}, {"id": "9tJYKNzQ1Rv2cc6AutlCEg", "alias": "als-big-burger-albany", "name": "Al's Big Burger", "image_url": "https://s3-media3.fl.yelpcdn.com/bphoto/qDtZ_EGhZnGd07YQAlYZwg/o.jpg", "is_closed": false, "url": "https://www.yelp.com/biz/als-big-burger-albany?adjust_creative=R39z9kjZ-1HrCCc7SW6pcw&utm_campaign=yelp_api_v3&utm_medium=api_v3_business_search&utm_source=R39z9kjZ-1HrCCc7SW6pcw", "review_count": 316, "categories": [{"alias": "burgers", "title": "Burgers"}], "rating": 4.0, "coordinates": {"latitude": 37.8970756, "longitude": -122.3009336}, "transactions": [], "price": "$$", "location": {"address1": "437 San Pablo Ave", "address2": "", "address3": "", "city": "Albany", "zip_code": "94706", "country": "US", "state": "CA", "display_address": ["437 San Pablo Ave", "Albany, CA 94706"]}, "phone": "+15105271523", "display_phone": "(510) 527-1523", "distance": 810.4717969132122}, {"id": "nYY3XkRnZW_JTG7ermk7mA", "alias": "white-lotus-thai-cuisine-albany", "name": "White Lotus Thai Cuisine", "image_url": "https://s3-media3.fl.yelpcdn.com/bphoto/JmLIiu1XpAK5BlPbzy0uxg/o.jpg", "is_closed": false, "url": "https://www.yelp.com/biz/white-lotus-thai-cuisine-albany?adjust_creative=R39z9kjZ-1HrCCc7SW6pcw&utm_campaign=yelp_api_v3&utm_medium=api_v3_business_search&utm_source=R39z9kjZ-1HrCCc7SW6pcw", "review_count": 356, "categories": [{"alias": "thai", "title": "Thai"}], "rating": 4.0, "coordinates": {"latitude": 37.8907896, "longitude": -122.2989346}, "transactions": ["delivery"], "price": "$$", "location": {"address1": "843 San Pablo Ave", "address2": "", "address3": "", "city": "Albany", "zip_code": "94706", "country": "US", "state": "CA", "display_address": ["843 San Pablo Ave", "Albany, CA 94706"]}, "phone": "+15105252791", "display_phone": "(510) 525-2791", "distance": 262.75275365648196}, {"id": "1gDIY97sSN_48PQcR3EPeg", "alias": "royal-cafe-albany", "name": "Royal Cafe", "image_url": "https://s3-media2.fl.yelpcdn.com/bphoto/q3aRR4s9Vue2qY9JC4oQvg/o.jpg", "is_closed": false, "url": "https://www.yelp.com/biz/royal-cafe-albany?adjust_creative=R39z9kjZ-1HrCCc7SW6pcw&utm_campaign=yelp_api_v3&utm_medium=api_v3_business_search&utm_source=R39z9kjZ-1HrCCc7SW6pcw", "review_count": 495, "categories": [{"alias": "breakfast_brunch", "title": "Breakfast & Brunch"}], "rating": 4.0, "coordinates": {"latitude": 37.8912963867188, "longitude": -122.298904418945}, "transactions": [], "price": "$$", "location": {"address1": "811 San Pablo Ave", "address2": "", "address3": "", "city": "Albany", "zip_code": "94706", "country": "US", "state": "CA", "display_address": ["811 San Pablo Ave", "Albany, CA 94706"]}, "phone": "+15105256066", "display_phone": "(510) 525-6066", "distance": 274.017846401005}, {"id": "8CUQ7mqoIjlWnZf6ycHmUQ", "alias": "suzette-crepe-cafe-albany", "name": "Suzette Crepe Cafe", "image_url": "https://s3-media3.fl.yelpcdn.com/bphoto/-jyY6qEd6Cy2ec2Cg_f2Lw/o.jpg", "is_closed": false, "url": "https://www.yelp.com/biz/suzette-crepe-cafe-albany?adjust_creative=R39z9kjZ-1HrCCc7SW6pcw&utm_campaign=yelp_api_v3&utm_medium=api_v3_business_search&utm_source=R39z9kjZ-1HrCCc7SW6pcw", "review_count": 220, "categories": [{"alias": "french", "title": "French"}, {"alias": "desserts", "title": "Desserts"}, {"alias": "creperies", "title": "Creperies"}], "rating": 4.5, "coordinates": {"latitude": 37.8904233539924, "longitude": -122.294924898067}, "transactions": ["pickup"], "price": "$", "location": {"address1": "1226 Solano Ave", "address2": "", "address3": "", "city": "Albany", "zip_code": "94706", "country": "US", "state": "CA", "display_address": ["1226 Solano Ave", "Albany, CA 94706"]}, "phone": "+15102204956", "display_phone": "(510) 220-4956", "distance": 94.60204825237797}, {"id": "nMW8B5uWHzM_LRR11EmplA", "alias": "boss-burgers-albany-3", "name": "Boss Burgers", "image_url": "https://s3-media2.fl.yelpcdn.com/bphoto/fOj_o-89TMHEeFIGRUv32g/o.jpg", "is_closed": false, "url": "https://www.yelp.com/biz/boss-burgers-albany-3?adjust_creative=R39z9kjZ-1HrCCc7SW6pcw&utm_campaign=yelp_api_v3&utm_medium=api_v3_business_search&utm_source=R39z9kjZ-1HrCCc7SW6pcw", "review_count": 358, "categories": [{"alias": "burgers", "title": "Burgers"}], "rating": 3.5, "coordinates": {"latitude": 37.89059, "longitude": -122.29648}, "transactions": ["delivery", "pickup"], "price": "$$", "location": {"address1": "1187 Solano Ave", "address2": "", "address3": "", "city": "Albany", "zip_code": "94706", "country": "US", "state": "CA", "display_address": ["1187 Solano Ave", "Albany, CA 94706"]}, "phone": "+15105262677", "display_phone": "(510) 526-2677", "distance": 55.26664439721041}, {"id": "Sm1-F2_UuV2RTz7ImQ6YWA", "alias": "kims-cafe-and-sandwiches-albany-2", "name": "Kim's Cafe & Sandwiches", "image_url": "https://s3-media2.fl.yelpcdn.com/bphoto/t21N_6QkUGgO9lyAnCQ_VA/o.jpg", "is_closed": false, "url": "https://www.yelp.com/biz/kims-cafe-and-sandwiches-albany-2?adjust_creative=R39z9kjZ-1HrCCc7SW6pcw&utm_campaign=yelp_api_v3&utm_medium=api_v3_business_search&utm_source=R39z9kjZ-1HrCCc7SW6pcw", "review_count": 274, "categories": [{"alias": "sandwiches", "title": "Sandwiches"}, {"alias": "vietnamese", "title": "Vietnamese"}], "rating": 4.0, "coordinates": {"latitude": 37.8909, "longitude": -122.29228}, "transactions": ["pickup"], "price": "$", "location": {"address1": "1309 Solano Ave", "address2": "Ste F", "address3": "", "city": "Albany", "zip_code": "94706", "country": "US", "state": "CA", "display_address": ["1309 Solano Ave", "Ste F", "Albany, CA 94706"]}, "phone": "+15105252538", "display_phone": "(510) 525-2538", "distance": 319.92181551059537}, {"id": "azhFhRfwvR07qUs6R0apwQ", "alias": "islice-albany-3", "name": "iSlice", "image_url": "https://s3-media4.fl.yelpcdn.com/bphoto/VPOUaisyGwu5ho2cZ0d9vw/o.jpg", "is_closed": false, "url": "https://www.yelp.com/biz/islice-albany-3?adjust_creative=R39z9kjZ-1HrCCc7SW6pcw&utm_campaign=yelp_api_v3&utm_medium=api_v3_business_search&utm_source=R39z9kjZ-1HrCCc7SW6pcw", "review_count": 101, "categories": [{"alias": "pizza", "title": "Pizza"}], "rating": 4.0, "coordinates": {"latitude": 37.8903, "longitude": -122.2949}, "transactions": ["delivery", "pickup"], "price": "$", "location": {"address1": "1230 Solano Ave", "address2": null, "address3": "", "city": "Albany", "zip_code": "94706", "country": "US", "state": "CA", "display_address": ["1230 Solano Ave", "Albany, CA 94706"]}, "phone": "+15109906456", "display_phone": "(510) 990-6456", "distance": 90.37236346764149}, {"id": "sRo38ncieIz_Riz3nax5rg", "alias": "mr-dewies-cashew-creamery-albany", "name": "Mr Dewie's Cashew Creamery", "image_url": "https://s3-media2.fl.yelpcdn.com/bphoto/iiXN7aTdlHNZTncFFxUFEQ/o.jpg", "is_closed": false, "url": "https://www.yelp.com/biz/mr-dewies-cashew-creamery-albany?adjust_creative=R39z9kjZ-1HrCCc7SW6pcw&utm_campaign=yelp_api_v3&utm_medium=api_v3_business_search&utm_source=R39z9kjZ-1HrCCc7SW6pcw", "review_count": 453, "categories": [{"alias": "desserts", "title": "Desserts"}, {"alias": "icecream", "title": "Ice Cream & Frozen Yogurt"}, {"alias": "vegan", "title": "Vegan"}], "rating": 4.5, "coordinates": {"latitude": 37.89027, "longitude": -122.2980396}, "transactions": [], "price": "$", "location": {"address1": "1116 Solano Ave", "address2": null, "address3": "", "city": "Albany", "zip_code": "94706", "country": "US", "state": "CA", "display_address": ["1116 Solano Ave", "Albany, CA 94706"]}, "phone": "+15102259534", "display_phone": "(510) 225-9534", "distance": 190.28518232811675}, {"id": "sFR0Wn2GD9TmzJpKirHPfg", "alias": "sams-log-cabin-albany", "name": "Sam's Log Cabin", "image_url": "https://s3-media2.fl.yelpcdn.com/bphoto/1zb8pvwso2ds3MoNkcHFTg/o.jpg", "is_closed": false, "url": "https://www.yelp.com/biz/sams-log-cabin-albany?adjust_creative=R39z9kjZ-1HrCCc7SW6pcw&utm_campaign=yelp_api_v3&utm_medium=api_v3_business_search&utm_source=R39z9kjZ-1HrCCc7SW6pcw", "review_count": 625, "categories": [{"alias": "breakfast_brunch", "title": "Breakfast & Brunch"}, {"alias": "sandwiches", "title": "Sandwiches"}, {"alias": "soup", "title": "Soup"}], "rating": 4.0, "coordinates": {"latitude": 37.8887635261312, "longitude": -122.298331964761}, "transactions": [], "price": "$$", "location": {"address1": "945 San Pablo Ave", "address2": "", "address3": "", "city": "Albany", "zip_code": "94706", "country": "US", "state": "CA", "display_address": ["945 San Pablo Ave", "Albany, CA 94706"]}, "phone": "+15105580502", "display_phone": "(510) 558-0502", "distance": 300.9387442666047}, {"id": "E1I7lqbwr8NEb5mmc81pRQ", "alias": "little-js-albany-2", "name": "Little J's", "image_url": "https://s3-media3.fl.yelpcdn.com/bphoto/nCpTSMr9fBP6DpxSxDBjog/o.jpg", "is_closed": false, "url": "https://www.yelp.com/biz/little-js-albany-2?adjust_creative=R39z9kjZ-1HrCCc7SW6pcw&utm_campaign=yelp_api_v3&utm_medium=api_v3_business_search&utm_source=R39z9kjZ-1HrCCc7SW6pcw", "review_count": 22, "categories": [{"alias": "tradamerican", "title": "American (Traditional)"}, {"alias": "hotdog", "title": "Hot Dogs"}], "rating": 4.0, "coordinates": {"latitude": 37.896305, "longitude": -122.301349}, "transactions": [], "price": "$", "location": {"address1": "540 San Pablo Ave", "address2": null, "address3": "", "city": "Albany", "zip_code": "94706", "country": "US", "state": "CA", "display_address": ["540 San Pablo Ave", "Albany, CA 94706"]}, "phone": "+15106478579", "display_phone": "(510) 647-8579", "distance": 782.866560871482}, {"id": "ERGUhaY9PQWq8EXAid4QdA", "alias": "noodles-fresh-el-cerrito", "name": "Noodles Fresh", "image_url": "https://s3-media2.fl.yelpcdn.com/bphoto/_3B5-3PJKa9HZICURe5Z0Q/o.jpg", "is_closed": false, "url": "https://www.yelp.com/biz/noodles-fresh-el-cerrito?adjust_creative=R39z9kjZ-1HrCCc7SW6pcw&utm_campaign=yelp_api_v3&utm_medium=api_v3_business_search&utm_source=R39z9kjZ-1HrCCc7SW6pcw", "review_count": 450, "categories": [{"alias": "tea", "title": "Tea Rooms"}, {"alias": "chinese", "title": "Chinese"}, {"alias": "noodles", "title": "Noodles"}], "rating": 4.0, "coordinates": {"latitude": 37.901541, "longitude": -122.302555}, "transactions": [], "price": "$$", "location": {"address1": "10042 San Pablo Ave", "address2": null, "address3": "", "city": "El Cerrito", "zip_code": "94530", "country": "US", "state": "CA", "display_address": ["10042 San Pablo Ave", "El Cerrito, CA 94530"]}, "phone": "+15108981710", "display_phone": "(510) 898-1710", "distance": 1337.3746341130804}, {"id": "c6zwGcEhlenDxGcDRfXRtA", "alias": "rivoli-restaurant-berkeley", "name": "Rivoli Restaurant", "image_url": "https://s3-media1.fl.yelpcdn.com/bphoto/NGwbyyZqGwO2o6oRpjmaHA/o.jpg", "is_closed": false, "url": "https://www.yelp.com/biz/rivoli-restaurant-berkeley?adjust_creative=R39z9kjZ-1HrCCc7SW6pcw&utm_campaign=yelp_api_v3&utm_medium=api_v3_business_search&utm_source=R39z9kjZ-1HrCCc7SW6pcw", "review_count": 829, "categories": [{"alias": "newamerican", "title": "American (New)"}, {"alias": "desserts", "title": "Desserts"}, {"alias": "cocktailbars", "title": "Cocktail Bars"}], "rating": 4.0, "coordinates": {"latitude": 37.89121, "longitude": -122.2863}, "transactions": [], "price": "$$$", "location": {"address1": "1539 Solano Ave", "address2": "", "address3": "", "city": "Berkeley", "zip_code": "94707", "country": "US", "state": "CA", "display_address": ["1539 Solano Ave", "Berkeley, CA 94707"]}, "phone": "+15105262542", "display_phone": "(510) 526-2542", "distance": 845.7810897328332}, {"id": "7l5_e-OODbHQ4jkJ5C8YKw", "alias": "eunice-gourmet-cafe-albany", "name": "Eunice Gourmet Cafe", "image_url": "https://s3-media2.fl.yelpcdn.com/bphoto/HcZ-sA4XpOJQeFNZSUoq7Q/o.jpg", "is_closed": false, "url": "https://www.yelp.com/biz/eunice-gourmet-cafe-albany?adjust_creative=R39z9kjZ-1HrCCc7SW6pcw&utm_campaign=yelp_api_v3&utm_medium=api_v3_business_search&utm_source=R39z9kjZ-1HrCCc7SW6pcw", "review_count": 135, "categories": [{"alias": "sandwiches", "title": "Sandwiches"}, {"alias": "bakeries", "title": "Bakeries"}, {"alias": "coffee", "title": "Coffee & Tea"}], "rating": 4.5, "coordinates": {"latitude": 37.89023, "longitude": -122.29669}, "transactions": [], "price": "$", "location": {"address1": "1162 Solano Ave", "address2": "", "address3": "", "city": "Albany", "zip_code": "94706", "country": "US", "state": "CA", "display_address": ["1162 Solano Ave", "Albany, CA 94706"]}, "phone": "+15105256340", "display_phone": "(510) 525-6340", "distance": 90.01233999827416}, {"id": "09-gwGjE95-eTI-I0p6Oeg", "alias": "sumo-sushi-albany", "name": "Sumo Sushi", "image_url": "https://s3-media1.fl.yelpcdn.com/bphoto/htxgo1loxiuHDzP-zqRqeQ/o.jpg", "is_closed": false, "url": "https://www.yelp.com/biz/sumo-sushi-albany?adjust_creative=R39z9kjZ-1HrCCc7SW6pcw&utm_campaign=yelp_api_v3&utm_medium=api_v3_business_search&utm_source=R39z9kjZ-1HrCCc7SW6pcw", "review_count": 234, "categories": [{"alias": "japanese", "title": "Japanese"}, {"alias": "sushi", "title": "Sushi Bars"}], "rating": 4.0, "coordinates": {"latitude": 37.887539, "longitude": -122.297834}, "transactions": ["delivery", "pickup"], "price": "$$", "location": {"address1": "977 San Pablo Ave", "address2": "", "address3": "", "city": "Albany", "zip_code": "94706", "country": "US", "state": "CA", "display_address": ["977 San Pablo Ave", "Albany, CA 94706"]}, "phone": "+15105244700", "display_phone": "(510) 524-4700", "distance": 389.186002056879}, {"id": "ZiTSgLC0dNT4wl9po8B4kw", "alias": "la-calle-10-berkeley-2", "name": "La Calle 10", "image_url": "https://s3-media4.fl.yelpcdn.com/bphoto/30B4OelNpxtUgA_E2O5qiw/o.jpg", "is_closed": false, "url": "https://www.yelp.com/biz/la-calle-10-berkeley-2?adjust_creative=R39z9kjZ-1HrCCc7SW6pcw&utm_campaign=yelp_api_v3&utm_medium=api_v3_business_search&utm_source=R39z9kjZ-1HrCCc7SW6pcw", "review_count": 453, "categories": [{"alias": "latin", "title": "Latin American"}, {"alias": "bbq", "title": "Barbeque"}, {"alias": "cocktailbars", "title": "Cocktail Bars"}], "rating": 4.5, "coordinates": {"latitude": 37.87994, "longitude": -122.29714}, "transactions": ["delivery", "pickup"], "price": "$$", "location": {"address1": "1300 10th St", "address2": null, "address3": "", "city": "Berkeley", "zip_code": "94710", "country": "US", "state": "CA", "display_address": ["1300 10th St", "Berkeley, CA 94710"]}, "phone": "+15105270099", "display_phone": "(510) 527-0099", "distance": 1192.3107762394397}, {"id": "zub6pgnoXv_PdwYi2KBDLw", "alias": "gordo-taqueria-albany", "name": "Gordo Taqueria", "image_url": "https://s3-media3.fl.yelpcdn.com/bphoto/8KtKjN43eQDE5k_3eXuoqg/o.jpg", "is_closed": false, "url": "https://www.yelp.com/biz/gordo-taqueria-albany?adjust_creative=R39z9kjZ-1HrCCc7SW6pcw&utm_campaign=yelp_api_v3&utm_medium=api_v3_business_search&utm_source=R39z9kjZ-1HrCCc7SW6pcw", "review_count": 606, "categories": [{"alias": "mexican", "title": "Mexican"}], "rating": 3.5, "coordinates": {"latitude": 37.89098, "longitude": -122.28949}, "transactions": [], "price": "$", "location": {"address1": "1423 Solano Ave", "address2": "", "address3": "", "city": "Albany", "zip_code": "94706", "country": "US", "state": "CA", "display_address": ["1423 Solano Ave", "Albany, CA 94706"]}, "phone": "+15105288226", "display_phone": "(510) 528-8226", "distance": 568.4628519982202}, {"id": "VSmI_-zIXd9LPSuYmZDJYg", "alias": "zarris-delicatessen-albany", "name": "Zarri's Delicatessen", "image_url": "https://s3-media3.fl.yelpcdn.com/bphoto/ICbitl1Cwgm-YUaWNRxGNw/o.jpg", "is_closed": false, "url": "https://www.yelp.com/biz/zarris-delicatessen-albany?adjust_creative=R39z9kjZ-1HrCCc7SW6pcw&utm_campaign=yelp_api_v3&utm_medium=api_v3_business_search&utm_source=R39z9kjZ-1HrCCc7SW6pcw", "review_count": 121, "categories": [{"alias": "delis", "title": "Delis"}, {"alias": "convenience", "title": "Convenience Stores"}], "rating": 4.0, "coordinates": {"latitude": 37.8903465270996, "longitude": -122.294082641602}, "transactions": ["delivery", "pickup"], "price": "$", "location": {"address1": "1244 Solano Ave", "address2": "", "address3": "", "city": "Albany", "zip_code": "94706", "country": "US", "state": "CA", "display_address": ["1244 Solano Ave", "Albany, CA 94706"]}, "phone": "+15105255405", "display_phone": "(510) 525-5405", "distance": 160.18536604727717}, {"id": "NfVMkjClR9DwgiRWA73SvQ", "alias": "taqueria-talavera-berkeley-2", "name": "Taqueria Talavera", "image_url": "https://s3-media1.fl.yelpcdn.com/bphoto/BJi_YNPP6MtrOC7w-DcRcQ/o.jpg", "is_closed": false, "url": "https://www.yelp.com/biz/taqueria-talavera-berkeley-2?adjust_creative=R39z9kjZ-1HrCCc7SW6pcw&utm_campaign=yelp_api_v3&utm_medium=api_v3_business_search&utm_source=R39z9kjZ-1HrCCc7SW6pcw", "review_count": 427, "categories": [{"alias": "mexican", "title": "Mexican"}], "rating": 4.0, "coordinates": {"latitude": 37.8911548, "longitude": -122.2854571}, "transactions": [], "price": "$$", "location": {"address1": "1561 Solano Ave", "address2": null, "address3": "", "city": "Berkeley", "zip_code": "94702", "country": "US", "state": "CA", "display_address": ["1561 Solano Ave", "Berkeley, CA 94702"]}, "phone": "+15105588565", "display_phone": "(510) 558-8565", "distance": 927.2575046882409}, {"id": "heEeC3p1Q1RhTn7MqBAmIw", "alias": "the-junket-el-cerrito", "name": "The Junket", "image_url": "https://s3-media2.fl.yelpcdn.com/bphoto/vMiQpEVEmYg2nj7mO8oEig/o.jpg", "is_closed": false, "url": "https://www.yelp.com/biz/the-junket-el-cerrito?adjust_creative=R39z9kjZ-1HrCCc7SW6pcw&utm_campaign=yelp_api_v3&utm_medium=api_v3_business_search&utm_source=R39z9kjZ-1HrCCc7SW6pcw", "review_count": 216, "categories": [{"alias": "delis", "title": "Delis"}, {"alias": "german", "title": "German"}, {"alias": "british", "title": "British"}], "rating": 4.0, "coordinates": {"latitude": 37.899026, "longitude": -122.299142}, "transactions": [], "price": "$", "location": {"address1": "235 El Cerrito Plz", "address2": "", "address3": "", "city": "El Cerrito", "zip_code": "94530", "country": "US", "state": "CA", "display_address": ["235 El Cerrito Plz", "El Cerrito, CA 94530"]}, "phone": "+15105244622", "display_phone": "(510) 524-4622", "distance": 966.9489757199261}, {"id": "oCIeijgdgX0htJz4nHecGw", "alias": "house-of-curries-albany", "name": "House of Curries", "image_url": "https://s3-media2.fl.yelpcdn.com/bphoto/Sw-DDI2xGrFZfIXSb1R09Q/o.jpg", "is_closed": false, "url": "https://www.yelp.com/biz/house-of-curries-albany?adjust_creative=R39z9kjZ-1HrCCc7SW6pcw&utm_campaign=yelp_api_v3&utm_medium=api_v3_business_search&utm_source=R39z9kjZ-1HrCCc7SW6pcw", "review_count": 336, "categories": [{"alias": "indpak", "title": "Indian"}, {"alias": "pakistani", "title": "Pakistani"}], "rating": 3.5, "coordinates": {"latitude": 37.8910361, "longitude": -122.2876702}, "transactions": ["delivery", "pickup"], "price": "$", "location": {"address1": "1497 Solano Ave", "address2": "", "address3": "", "city": "Albany", "zip_code": "94706", "country": "US", "state": "CA", "display_address": ["1497 Solano Ave", "Albany, CA 94706"]}, "phone": "+15105598477", "display_phone": "(510) 559-8477", "distance": 726.8365310879965}, {"id": "FKnjK2rwOdXoZwWi5q_11w", "alias": "pho-le-berkeley", "name": "Pho Le", "image_url": "https://s3-media2.fl.yelpcdn.com/bphoto/V-71zCZRTx769qb0cDm8wQ/o.jpg", "is_closed": false, "url": "https://www.yelp.com/biz/pho-le-berkeley?adjust_creative=R39z9kjZ-1HrCCc7SW6pcw&utm_campaign=yelp_api_v3&utm_medium=api_v3_business_search&utm_source=R39z9kjZ-1HrCCc7SW6pcw", "review_count": 75, "categories": [{"alias": "chinese", "title": "Chinese"}, {"alias": "vietnamese", "title": "Vietnamese"}, {"alias": "noodles", "title": "Noodles"}], "rating": 4.5, "coordinates": {"latitude": 37.8804, "longitude": -122.29542}, "transactions": ["delivery", "pickup"], "price": "$$", "location": {"address1": "1301 San Pablo Ave", "address2": null, "address3": "", "city": "Berkeley", "zip_code": "94702", "country": "US", "state": "CA", "display_address": ["1301 San Pablo Ave", "Berkeley, CA 94702"]}, "phone": "+15105588367", "display_phone": "(510) 558-8367", "distance": 1147.7673631690413}, {"id": "4TLXC48J-fImY0vIxW_ZZQ", "alias": "the-habit-burger-grill-albany-2", "name": "The Habit Burger Grill", "image_url": "https://s3-media1.fl.yelpcdn.com/bphoto/W2W5WpqO6lvHIyK-SnktFQ/o.jpg", "is_closed": false, "url": "https://www.yelp.com/biz/the-habit-burger-grill-albany-2?adjust_creative=R39z9kjZ-1HrCCc7SW6pcw&utm_campaign=yelp_api_v3&utm_medium=api_v3_business_search&utm_source=R39z9kjZ-1HrCCc7SW6pcw", "review_count": 83, "categories": [{"alias": "burgers", "title": "Burgers"}, {"alias": "tradamerican", "title": "American (Traditional)"}, {"alias": "sandwiches", "title": "Sandwiches"}], "rating": 3.5, "coordinates": {"latitude": 37.8843241, "longitude": -122.2978354}, "transactions": [], "price": "$", "location": {"address1": "1080 Monroe St", "address2": "", "address3": null, "city": "Albany", "zip_code": "94706", "country": "US", "state": "CA", "display_address": ["1080 Monroe St", "Albany, CA 94706"]}, "phone": "+15105265560", "display_phone": "(510) 526-5560", "distance": 728.5244866963288}, {"id": "YvQCUgrxQcpqdsE7ai0pvA", "alias": "burgerim-el-cerrito-3", "name": "Burgerim", "image_url": "https://s3-media4.fl.yelpcdn.com/bphoto/clDtsOiJpWz_CqEESqzHZg/o.jpg", "is_closed": false, "url": "https://www.yelp.com/biz/burgerim-el-cerrito-3?adjust_creative=R39z9kjZ-1HrCCc7SW6pcw&utm_campaign=yelp_api_v3&utm_medium=api_v3_business_search&utm_source=R39z9kjZ-1HrCCc7SW6pcw", "review_count": 76, "categories": [{"alias": "burgers", "title": "Burgers"}], "rating": 4.0, "coordinates": {"latitude": 37.8988755899263, "longitude": -122.299947850406}, "transactions": [], "price": "$$", "location": {"address1": "174 El Cerrito Plz", "address2": "", "address3": null, "city": "El Cerrito", "zip_code": "94530", "country": "US", "state": "CA", "display_address": ["174 El Cerrito Plz", "El Cerrito, CA 94530"]}, "phone": "+15108332156", "display_phone": "(510) 833-2156", "distance": 974.1801934500758}, {"id": "poLIKeCPmXT4NupQphaBpQ", "alias": "sugata-japanese-restaurant-albany", "name": "Sugata Japanese Restaurant", "image_url": "https://s3-media1.fl.yelpcdn.com/bphoto/ktLHC8z30n_1ak32XfHG4A/o.jpg", "is_closed": false, "url": "https://www.yelp.com/biz/sugata-japanese-restaurant-albany?adjust_creative=R39z9kjZ-1HrCCc7SW6pcw&utm_campaign=yelp_api_v3&utm_medium=api_v3_business_search&utm_source=R39z9kjZ-1HrCCc7SW6pcw", "review_count": 222, "categories": [{"alias": "japanese", "title": "Japanese"}, {"alias": "sushi", "title": "Sushi Bars"}], "rating": 3.5, "coordinates": {"latitude": 37.8904799, "longitude": -122.29861}, "transactions": ["delivery", "pickup"], "price": "$$", "location": {"address1": "1105 Solano Ave", "address2": "", "address3": "", "city": "Albany", "zip_code": "94706", "country": "US", "state": "CA", "display_address": ["1105 Solano Ave", "Albany, CA 94706"]}, "phone": "+15105294027", "display_phone": "(510) 529-4027", "distance": 240.92878746678966}, {"id": "y00iu8IcjJzhzMg_6_xZ3w", "alias": "yo-sushi-albany", "name": "Yo Sushi", "image_url": "https://s3-media4.fl.yelpcdn.com/bphoto/h16e3qyZVLMvRLEPgdgEtw/o.jpg", "is_closed": false, "url": "https://www.yelp.com/biz/yo-sushi-albany?adjust_creative=R39z9kjZ-1HrCCc7SW6pcw&utm_campaign=yelp_api_v3&utm_medium=api_v3_business_search&utm_source=R39z9kjZ-1HrCCc7SW6pcw", "review_count": 184, "categories": [{"alias": "sushi", "title": "Sushi Bars"}, {"alias": "japanese", "title": "Japanese"}], "rating": 3.5, "coordinates": {"latitude": 37.88374, "longitude": -122.2965}, "transactions": [], "price": "$$", "location": {"address1": "1107 San Pablo Ave", "address2": "", "address3": "", "city": "Albany", "zip_code": "94706", "country": "US", "state": "CA", "display_address": ["1107 San Pablo Ave", "Albany, CA 94706"]}, "phone": "+15105589500", "display_phone": "(510) 558-9500", "distance": 768.7602666551329}, {"id": "zDT_IqRpV01A6Q-wvxlzSA", "alias": "kcs-bbq-berkeley-2", "name": "KC'S BBQ", "image_url": "https://s3-media1.fl.yelpcdn.com/bphoto/tTW7m0abYIYltJwO25k5BA/o.jpg", "is_closed": false, "url": "https://www.yelp.com/biz/kcs-bbq-berkeley-2?adjust_creative=R39z9kjZ-1HrCCc7SW6pcw&utm_campaign=yelp_api_v3&utm_medium=api_v3_business_search&utm_source=R39z9kjZ-1HrCCc7SW6pcw", "review_count": 330, "categories": [{"alias": "bbq", "title": "Barbeque"}], "rating": 3.5, "coordinates": {"latitude": 37.8808772294118, "longitude": -122.295603118037}, "transactions": [], "price": "$$", "location": {"address1": "1235 San Pablo Ave", "address2": null, "address3": "", "city": "Berkeley", "zip_code": "94706", "country": "US", "state": "CA", "display_address": ["1235 San Pablo Ave", "Berkeley, CA 94706"]}, "phone": "+15105266325", "display_phone": "(510) 526-6325", "distance": 1093.1651421547563}, {"id": "9IOch5KWzTGMoCrQVweCZA", "alias": "benchmark-pizzeria-kensington-2", "name": "Benchmark Pizzeria", "image_url": "https://s3-media3.fl.yelpcdn.com/bphoto/XORC6JGK_c_Tu-OjAbJrJA/o.jpg", "is_closed": false, "url": "https://www.yelp.com/biz/benchmark-pizzeria-kensington-2?adjust_creative=R39z9kjZ-1HrCCc7SW6pcw&utm_campaign=yelp_api_v3&utm_medium=api_v3_business_search&utm_source=R39z9kjZ-1HrCCc7SW6pcw", "review_count": 217, "categories": [{"alias": "pizza", "title": "Pizza"}, {"alias": "italian", "title": "Italian"}], "rating": 4.0, "coordinates": {"latitude": 37.899448653153, "longitude": -122.287299937272}, "transactions": ["pickup"], "price": "$$", "location": {"address1": "1568 Oak View Ave", "address2": "", "address3": "", "city": "Kensington", "zip_code": "94706", "country": "US", "state": "CA", "display_address": ["1568 Oak View Ave", "Kensington, CA 94706"]}, "phone": "+15106479724", "display_phone": "(510) 647-9724", "distance": 1233.0590776551378}, {"id": "5ZcTtPneqIk3BfPcpRBJnw", "alias": "kathmandu-restaurant-albany", "name": "Kathmandu Restaurant", "image_url": "https://s3-media1.fl.yelpcdn.com/bphoto/RbgEgmDGZ0knlhjDt4_uEw/o.jpg", "is_closed": false, "url": "https://www.yelp.com/biz/kathmandu-restaurant-albany?adjust_creative=R39z9kjZ-1HrCCc7SW6pcw&utm_campaign=yelp_api_v3&utm_medium=api_v3_business_search&utm_source=R39z9kjZ-1HrCCc7SW6pcw", "review_count": 154, "categories": [{"alias": "himalayan", "title": "Himalayan/Nepalese"}, {"alias": "vegan", "title": "Vegan"}, {"alias": "indpak", "title": "Indian"}], "rating": 4.0, "coordinates": {"latitude": 37.890644, "longitude": -122.288963}, "transactions": ["pickup"], "price": "$$", "location": {"address1": "1410 Solano Ave", "address2": "", "address3": "", "city": "Albany", "zip_code": "94706", "country": "US", "state": "CA", "display_address": ["1410 Solano Ave", "Albany, CA 94706"]}, "phone": "+15105263222", "display_phone": "(510) 526-3222", "distance": 610.9176594556337}, {"id": "FhGKKVOflf7Q9o9l1tBDmQ", "alias": "sabuy-sabuy-ii-berkeley", "name": "Sabuy Sabuy II", "image_url": "https://s3-media3.fl.yelpcdn.com/bphoto/aBpQD2-h8_tndGL1MJ1uzQ/o.jpg", "is_closed": false, "url": "https://www.yelp.com/biz/sabuy-sabuy-ii-berkeley?adjust_creative=R39z9kjZ-1HrCCc7SW6pcw&utm_campaign=yelp_api_v3&utm_medium=api_v3_business_search&utm_source=R39z9kjZ-1HrCCc7SW6pcw", "review_count": 371, "categories": [{"alias": "thai", "title": "Thai"}, {"alias": "noodles", "title": "Noodles"}, {"alias": "soup", "title": "Soup"}], "rating": 4.0, "coordinates": {"latitude": 37.88115, "longitude": -122.29565}, "transactions": ["pickup"], "price": "$$", "location": {"address1": "1233 San Pablo Ave", "address2": "", "address3": "", "city": "Berkeley", "zip_code": "94706", "country": "US", "state": "CA", "display_address": ["1233 San Pablo Ave", "Berkeley, CA 94706"]}, "phone": "+15105283932", "display_phone": "(510) 528-3932", "distance": 1062.6495223608927}, {"id": "tK_MNhtVNCyPlI2X7yr3AA", "alias": "the-pearl-house-albany", "name": "The Pearl House", "image_url": "https://s3-media4.fl.yelpcdn.com/bphoto/G-qWKRs6D0_mnbHnaPofIg/o.jpg", "is_closed": false, "url": "https://www.yelp.com/biz/the-pearl-house-albany?adjust_creative=R39z9kjZ-1HrCCc7SW6pcw&utm_campaign=yelp_api_v3&utm_medium=api_v3_business_search&utm_source=R39z9kjZ-1HrCCc7SW6pcw", "review_count": 133, "categories": [{"alias": "chinese", "title": "Chinese"}], "rating": 3.5, "coordinates": {"latitude": 37.8915328979492, "longitude": -122.298965454102}, "transactions": ["delivery", "pickup"], "price": "$", "location": {"address1": "809 San Pablo Ave", "address2": "", "address3": "", "city": "Albany", "zip_code": "94706", "country": "US", "state": "CA", "display_address": ["809 San Pablo Ave", "Albany, CA 94706"]}, "phone": "+15105288968", "display_phone": "(510) 528-8968", "distance": 286.63498720773555}, {"id": "75-kYdxSiATGEXnY7xEbZA", "alias": "bua-luang-thai-albany", "name": "Bua Luang Thai", "image_url": "https://s3-media3.fl.yelpcdn.com/bphoto/QTGuHq9VSQER7oH3HMSJgQ/o.jpg", "is_closed": false, "url": "https://www.yelp.com/biz/bua-luang-thai-albany?adjust_creative=R39z9kjZ-1HrCCc7SW6pcw&utm_campaign=yelp_api_v3&utm_medium=api_v3_business_search&utm_source=R39z9kjZ-1HrCCc7SW6pcw", "review_count": 256, "categories": [{"alias": "thai", "title": "Thai"}], "rating": 3.5, "coordinates": {"latitude": 37.8902244567871, "longitude": -122.296417236328}, "transactions": ["delivery", "pickup"], "price": "$$", "location": {"address1": "1166 Solano Ave", "address2": "", "address3": "", "city": "Albany", "zip_code": "94706", "country": "US", "state": "CA", "display_address": ["1166 Solano Ave", "Albany, CA 94706"]}, "phone": "+15105278288", "display_phone": "(510) 527-8288", "distance": 72.46275203632958}, {"id": "gIBX3sTfOYnGclJjIKtQlg", "alias": "kiku-sushi-berkeley", "name": "Kiku Sushi", "image_url": "https://s3-media3.fl.yelpcdn.com/bphoto/wyU5UX_0dVrqLalGEupvRg/o.jpg", "is_closed": false, "url": "https://www.yelp.com/biz/kiku-sushi-berkeley?adjust_creative=R39z9kjZ-1HrCCc7SW6pcw&utm_campaign=yelp_api_v3&utm_medium=api_v3_business_search&utm_source=R39z9kjZ-1HrCCc7SW6pcw", "review_count": 509, "categories": [{"alias": "japanese", "title": "Japanese"}, {"alias": "sushi", "title": "Sushi Bars"}, {"alias": "vegan", "title": "Vegan"}], "rating": 4.0, "coordinates": {"latitude": 37.8811523888908, "longitude": -122.289304600604}, "transactions": ["pickup"], "price": "$$", "location": {"address1": "1316 Gilman St", "address2": "", "address3": "", "city": "Berkeley", "zip_code": "94706", "country": "US", "state": "CA", "display_address": ["1316 Gilman St", "Berkeley, CA 94706"]}, "phone": "+15105255458", "display_phone": "(510) 525-5458", "distance": 1211.4114181791008}, {"id": "h4dqYWhspI1-yKyEAU92_g", "alias": "lalimes-berkeley", "name": "Lalime's", "image_url": "https://s3-media4.fl.yelpcdn.com/bphoto/36dV1k1yZcUmQfjYV7XL0g/o.jpg", "is_closed": false, "url": "https://www.yelp.com/biz/lalimes-berkeley?adjust_creative=R39z9kjZ-1HrCCc7SW6pcw&utm_campaign=yelp_api_v3&utm_medium=api_v3_business_search&utm_source=R39z9kjZ-1HrCCc7SW6pcw", "review_count": 413, "categories": [{"alias": "tradamerican", "title": "American (Traditional)"}, {"alias": "wine_bars", "title": "Wine Bars"}, {"alias": "venues", "title": "Venues & Event Spaces"}], "rating": 3.5, "coordinates": {"latitude": 37.88134, "longitude": -122.28857}, "transactions": [], "price": "$$$", "location": {"address1": "1329 Gilman St", "address2": "", "address3": "", "city": "Berkeley", "zip_code": "94706", "country": "US", "state": "CA", "display_address": ["1329 Gilman St", "Berkeley, CA 94706"]}, "phone": "+15105279838", "display_phone": "(510) 527-9838", "distance": 1228.172516922077}, {"id": "3idiey_l2TeoE3WpgbBnYg", "alias": "renees-place-albany", "name": "Renee's Place", "image_url": "https://s3-media2.fl.yelpcdn.com/bphoto/y16c6mn8hgjoYYpkBr2VyA/o.jpg", "is_closed": false, "url": "https://www.yelp.com/biz/renees-place-albany?adjust_creative=R39z9kjZ-1HrCCc7SW6pcw&utm_campaign=yelp_api_v3&utm_medium=api_v3_business_search&utm_source=R39z9kjZ-1HrCCc7SW6pcw", "review_count": 245, "categories": [{"alias": "chinese", "title": "Chinese"}, {"alias": "vegetarian", "title": "Vegetarian"}], "rating": 4.0, "coordinates": {"latitude": 37.8909863, "longitude": -122.2884361}, "transactions": [], "price": "$$", "location": {"address1": "1477 Solano Ave", "address2": "", "address3": "", "city": "Albany", "zip_code": "94706", "country": "US", "state": "CA", "display_address": ["1477 Solano Ave", "Albany, CA 94706"]}, "phone": "+15105252330", "display_phone": "(510) 525-2330", "distance": 662.6492640222706}, {"id": "SYE9d0rANMN0OXLSSCV5nA", "alias": "thai-corner-berkeley", "name": "Thai Corner", "image_url": "https://s3-media2.fl.yelpcdn.com/bphoto/51iJ7wrLCCI8iH_UyyS9Sw/o.jpg", "is_closed": false, "url": "https://www.yelp.com/biz/thai-corner-berkeley?adjust_creative=R39z9kjZ-1HrCCc7SW6pcw&utm_campaign=yelp_api_v3&utm_medium=api_v3_business_search&utm_source=R39z9kjZ-1HrCCc7SW6pcw", "review_count": 26, "categories": [{"alias": "thai", "title": "Thai"}], "rating": 4.0, "coordinates": {"latitude": 37.881671, "longitude": -122.290506}, "transactions": [], "price": "$$", "location": {"address1": "1277 Gilman St", "address2": "", "address3": null, "city": "Berkeley", "zip_code": "94706", "country": "US", "state": "CA", "display_address": ["1277 Gilman St", "Berkeley, CA 94706"]}, "phone": "+15106479300", "display_phone": "(510) 647-9300", "distance": 1112.034566976818}, {"id": "2mTtT5OCKQB69Uf2KKDYVQ", "alias": "caspers-albany-albany-2", "name": "Caspers Albany", "image_url": "https://s3-media3.fl.yelpcdn.com/bphoto/rLDbu9S7s7MHXm61JC86tQ/o.jpg", "is_closed": false, "url": "https://www.yelp.com/biz/caspers-albany-albany-2?adjust_creative=R39z9kjZ-1HrCCc7SW6pcw&utm_campaign=yelp_api_v3&utm_medium=api_v3_business_search&utm_source=R39z9kjZ-1HrCCc7SW6pcw", "review_count": 60, "categories": [{"alias": "hotdog", "title": "Hot Dogs"}], "rating": 4.0, "coordinates": {"latitude": 37.8958740234375, "longitude": -122.300384521484}, "transactions": [], "price": "$", "location": {"address1": "545 San Pablo Ave", "address2": "", "address3": "", "city": "Albany", "zip_code": "94706", "country": "US", "state": "CA", "display_address": ["545 San Pablo Ave", "Albany, CA 94706"]}, "phone": "+15105276611", "display_phone": "(510) 527-6611", "distance": 697.2216675755046}, {"id": "lr7QNXQCoLWSx3NNFC-ZRg", "alias": "tay-tah-cafe-albany", "name": "Tay Tah Cafe", "image_url": "https://s3-media1.fl.yelpcdn.com/bphoto/e_XGpCRlgZx2ffDEBGk3nA/o.jpg", "is_closed": false, "url": "https://www.yelp.com/biz/tay-tah-cafe-albany?adjust_creative=R39z9kjZ-1HrCCc7SW6pcw&utm_campaign=yelp_api_v3&utm_medium=api_v3_business_search&utm_source=R39z9kjZ-1HrCCc7SW6pcw", "review_count": 133, "categories": [{"alias": "icecream", "title": "Ice Cream & Frozen Yogurt"}, {"alias": "cafes", "title": "Cafes"}], "rating": 4.0, "coordinates": {"latitude": 37.89023, "longitude": -122.29626}, "transactions": [], "price": "$", "location": {"address1": "1182 Solano Ave", "address2": "", "address3": "", "city": "Albany", "zip_code": "94706", "country": "US", "state": "CA", "display_address": ["1182 Solano Ave", "Albany, CA 94706"]}, "phone": "+15105278104", "display_phone": "(510) 527-8104", "distance": 56.82644980532678}, {"id": "TQ_VJ8NQ2YKTHwCsGVHiRw", "alias": "royal-ground-coffee-albany", "name": "Royal Ground Coffee", "image_url": "https://s3-media3.fl.yelpcdn.com/bphoto/XUJgei5CEDsxa-5Tr1BXRg/o.jpg", "is_closed": false, "url": "https://www.yelp.com/biz/royal-ground-coffee-albany?adjust_creative=R39z9kjZ-1HrCCc7SW6pcw&utm_campaign=yelp_api_v3&utm_medium=api_v3_business_search&utm_source=R39z9kjZ-1HrCCc7SW6pcw", "review_count": 81, "categories": [{"alias": "cafes", "title": "Cafes"}], "rating": 3.5, "coordinates": {"latitude": 37.89051, "longitude": -122.2979}, "transactions": [], "price": "$", "location": {"address1": "1127 Solano Ave", "address2": "", "address3": "", "city": "Albany", "zip_code": "94706", "country": "US", "state": "CA", "display_address": ["1127 Solano Ave", "Albany, CA 94706"]}, "phone": "+15105250953", "display_phone": "(510) 525-0953", "distance": 171.0809079426718}, {"id": "P4UFuahCKwa7aNlYv_eFDg", "alias": "kensington-circus-pub-kensington", "name": "Kensington Circus Pub", "image_url": "https://s3-media4.fl.yelpcdn.com/bphoto/GrClLcF5x2LUBSaSgSoSVA/o.jpg", "is_closed": false, "url": "https://www.yelp.com/biz/kensington-circus-pub-kensington?adjust_creative=R39z9kjZ-1HrCCc7SW6pcw&utm_campaign=yelp_api_v3&utm_medium=api_v3_business_search&utm_source=R39z9kjZ-1HrCCc7SW6pcw", "review_count": 216, "categories": [{"alias": "british", "title": "British"}, {"alias": "pubs", "title": "Pubs"}], "rating": 3.5, "coordinates": {"latitude": 37.899779316375, "longitude": -122.287227877301}, "transactions": [], "price": "$$", "location": {"address1": "389 Colusa Ave", "address2": "", "address3": "", "city": "Kensington", "zip_code": "94707", "country": "US", "state": "CA", "display_address": ["389 Colusa Ave", "Kensington, CA 94707"]}, "phone": "+15105248814", "display_phone": "(510) 524-8814", "distance": 1266.0617213917756}, {"id": "-PwY1ZT9je93elUni6zhIQ", "alias": "albany-pizza-company-albany", "name": "Albany Pizza Company", "image_url": "https://s3-media3.fl.yelpcdn.com/bphoto/EedhdblV9B5bkGIT7SPA0g/o.jpg", "is_closed": false, "url": "https://www.yelp.com/biz/albany-pizza-company-albany?adjust_creative=R39z9kjZ-1HrCCc7SW6pcw&utm_campaign=yelp_api_v3&utm_medium=api_v3_business_search&utm_source=R39z9kjZ-1HrCCc7SW6pcw", "review_count": 161, "categories": [{"alias": "pizza", "title": "Pizza"}], "rating": 3.5, "coordinates": {"latitude": 37.89574, "longitude": -122.30106}, "transactions": ["delivery", "pickup"], "price": "$", "location": {"address1": "600 San Pablo Ave", "address2": null, "address3": "", "city": "Albany", "zip_code": "94706", "country": "US", "state": "CA", "display_address": ["600 San Pablo Ave", "Albany, CA 94706"]}, "phone": "+15105243824", "display_phone": "(510) 524-3824", "distance": 717.6313973837945}, {"id": "ELqCoYN46ICRUU_DWvVXoA", "alias": "sunny-side-up-albany-2", "name": "Sunny Side Up", "image_url": "https://s3-media2.fl.yelpcdn.com/bphoto/z_T-8gaWxb6NxL7ZGDnTdA/o.jpg", "is_closed": false, "url": "https://www.yelp.com/biz/sunny-side-up-albany-2?adjust_creative=R39z9kjZ-1HrCCc7SW6pcw&utm_campaign=yelp_api_v3&utm_medium=api_v3_business_search&utm_source=R39z9kjZ-1HrCCc7SW6pcw", "review_count": 152, "categories": [{"alias": "breakfast_brunch", "title": "Breakfast & Brunch"}], "rating": 3.0, "coordinates": {"latitude": 37.8911078, "longitude": -122.2875882}, "transactions": [], "price": "$$", "location": {"address1": "1499 Solano Ave", "address2": "", "address3": "", "city": "Albany", "zip_code": "94706", "country": "US", "state": "CA", "display_address": ["1499 Solano Ave", "Albany, CA 94706"]}, "phone": "+15105275383", "display_phone": "(510) 527-5383", "distance": 734.4662056766008}, {"id": "rysw2EEiLHD76N3r5xX3yQ", "alias": "waikiki-hawaiian-bbq-el-cerrito-2", "name": "Waikiki Hawaiian BBQ", "image_url": "https://s3-media3.fl.yelpcdn.com/bphoto/ak1y9CzQ_N3cxNrHeNvwxQ/o.jpg", "is_closed": false, "url": "https://www.yelp.com/biz/waikiki-hawaiian-bbq-el-cerrito-2?adjust_creative=R39z9kjZ-1HrCCc7SW6pcw&utm_campaign=yelp_api_v3&utm_medium=api_v3_business_search&utm_source=R39z9kjZ-1HrCCc7SW6pcw", "review_count": 202, "categories": [{"alias": "burgers", "title": "Burgers"}, {"alias": "hawaiian", "title": "Hawaiian"}, {"alias": "bbq", "title": "Barbeque"}], "rating": 3.5, "coordinates": {"latitude": 37.89931, "longitude": -122.30255}, "transactions": [], "price": "$", "location": {"address1": "9935 San Pablo Ave", "address2": "", "address3": "", "city": "El Cerrito", "zip_code": "94530", "country": "US", "state": "CA", "display_address": ["9935 San Pablo Ave", "El Cerrito, CA 94530"]}, "phone": "+15105586928", "display_phone": "(510) 558-6928", "distance": 1110.9453626624907}, {"id": "7hoR85ZbJVRQ98Q14OlQZQ", "alias": "cosa-nostra-pasta-truck-berkeley", "name": "Cosa Nostra Pasta Truck", "image_url": "https://s3-media1.fl.yelpcdn.com/bphoto/kJNRKi9NzgsPf3KmTr_fAg/o.jpg", "is_closed": false, "url": "https://www.yelp.com/biz/cosa-nostra-pasta-truck-berkeley?adjust_creative=R39z9kjZ-1HrCCc7SW6pcw&utm_campaign=yelp_api_v3&utm_medium=api_v3_business_search&utm_source=R39z9kjZ-1HrCCc7SW6pcw", "review_count": 31, "categories": [{"alias": "foodtrucks", "title": "Food Trucks"}, {"alias": "italian", "title": "Italian"}], "rating": 5.0, "coordinates": {"latitude": 37.8760173212886, "longitude": -122.303487025201}, "transactions": [], "price": "$$", "location": {"address1": "701 Page St", "address2": null, "address3": null, "city": "Berkeley", "zip_code": "94710", "country": "US", "state": "CA", "display_address": ["701 Page St", "Berkeley, CA 94710"]}, "phone": "+15102448782", "display_phone": "(510) 244-8782", "distance": 1762.2789883087657}, {"id": "Hou9Dn4bd74ATJLYjFP2og", "alias": "chefs-chinese-food-el-cerrito", "name": "Chefs Chinese Food", "image_url": "https://s3-media3.fl.yelpcdn.com/bphoto/VWTRxewdr1ZdUxE_k4cbYQ/o.jpg", "is_closed": false, "url": "https://www.yelp.com/biz/chefs-chinese-food-el-cerrito?adjust_creative=R39z9kjZ-1HrCCc7SW6pcw&utm_campaign=yelp_api_v3&utm_medium=api_v3_business_search&utm_source=R39z9kjZ-1HrCCc7SW6pcw", "review_count": 171, "categories": [{"alias": "chinese", "title": "Chinese"}], "rating": 3.5, "coordinates": {"latitude": 37.899021, "longitude": -122.299278}, "transactions": [], "price": "$", "location": {"address1": "233 El Cerrito Plz", "address2": "", "address3": "", "city": "El Cerrito", "zip_code": "94530", "country": "US", "state": "CA", "display_address": ["233 El Cerrito Plz", "El Cerrito, CA 94530"]}, "phone": "+15105258737", "display_phone": "(510) 525-8737", "distance": 969.9512309712995}, {"id": "M40Btpln7W2vTIEXlQeH5Q", "alias": "romanos-macaroni-grill-el-cerrito", "name": "Romano's Macaroni Grill", "image_url": "https://s3-media3.fl.yelpcdn.com/bphoto/mC6ipTa3oiJ6kdCSMFWk1A/o.jpg", "is_closed": false, "url": "https://www.yelp.com/biz/romanos-macaroni-grill-el-cerrito?adjust_creative=R39z9kjZ-1HrCCc7SW6pcw&utm_campaign=yelp_api_v3&utm_medium=api_v3_business_search&utm_source=R39z9kjZ-1HrCCc7SW6pcw", "review_count": 517, "categories": [{"alias": "italian", "title": "Italian"}], "rating": 3.0, "coordinates": {"latitude": 37.898659, "longitude": -122.301338}, "transactions": ["delivery", "pickup"], "price": "$$", "location": {"address1": "8000 El Cerrito Plz", "address2": "", "address3": "", "city": "El Cerrito", "zip_code": "94530", "country": "US", "state": "CA", "display_address": ["8000 El Cerrito Plz", "El Cerrito, CA 94530"]}, "phone": "+15105249336", "display_phone": "(510) 524-9336", "distance": 1003.2316254850614}, {"id": "_TNxH7fW4o5YriEefhDnLw", "alias": "black-orchid-bakery-berkeley", "name": "Black Orchid Bakery", "image_url": "https://s3-media4.fl.yelpcdn.com/bphoto/AMOs6ihPAY7wLVDuX0MUtA/o.jpg", "is_closed": false, "url": "https://www.yelp.com/biz/black-orchid-bakery-berkeley?adjust_creative=R39z9kjZ-1HrCCc7SW6pcw&utm_campaign=yelp_api_v3&utm_medium=api_v3_business_search&utm_source=R39z9kjZ-1HrCCc7SW6pcw", "review_count": 1, "categories": [{"alias": "bakeries", "title": "Bakeries"}, {"alias": "desserts", "title": "Desserts"}, {"alias": "vegan", "title": "Vegan"}], "rating": 5.0, "coordinates": {"latitude": 37.88924, "longitude": -122.29965}, "transactions": [], "price": "$", "location": {"address1": "", "address2": "", "address3": "", "city": "Berkeley", "zip_code": "94706", "country": "US", "state": "CA", "display_address": ["Berkeley, CA 94706"]}, "phone": "+15102142253", "display_phone": "(510) 214-2253", "distance": 262.78606817810027}, {"id": "Rj47kV41JZTiMEnwgNOyQg", "alias": "pizza-la-vals-albany", "name": "Pizza La Vals", "image_url": "https://s3-media3.fl.yelpcdn.com/bphoto/VtLS5RwDyRM6GXhYSLtJlQ/o.jpg", "is_closed": false, "url": "https://www.yelp.com/biz/pizza-la-vals-albany?adjust_creative=R39z9kjZ-1HrCCc7SW6pcw&utm_campaign=yelp_api_v3&utm_medium=api_v3_business_search&utm_source=R39z9kjZ-1HrCCc7SW6pcw", "review_count": 127, "categories": [{"alias": "pizza", "title": "Pizza"}, {"alias": "desserts", "title": "Desserts"}, {"alias": "sandwiches", "title": "Sandwiches"}], "rating": 3.5, "coordinates": {"latitude": 37.8922143, "longitude": -122.2993981}, "transactions": ["delivery", "pickup"], "price": "$$", "location": {"address1": "751 San Pablo Ave", "address2": "", "address3": "", "city": "Albany", "zip_code": "94706", "country": "US", "state": "CA", "display_address": ["751 San Pablo Ave", "Albany, CA 94706"]}, "phone": "+15105286100", "display_phone": "(510) 528-6100", "distance": 346.61348170248476}, {"id": "I--V1bk5X9db-HEuw6KFUA", "alias": "mod-pizza-el-cerrito", "name": "MOD Pizza", "image_url": "https://s3-media3.fl.yelpcdn.com/bphoto/wT791TCv_HJbglVqgMsVXQ/o.jpg", "is_closed": false, "url": "https://www.yelp.com/biz/mod-pizza-el-cerrito?adjust_creative=R39z9kjZ-1HrCCc7SW6pcw&utm_campaign=yelp_api_v3&utm_medium=api_v3_business_search&utm_source=R39z9kjZ-1HrCCc7SW6pcw", "review_count": 175, "categories": [{"alias": "hotdogs", "title": "Fast Food"}, {"alias": "pizza", "title": "Pizza"}], "rating": 3.5, "coordinates": {"latitude": 37.9003616, "longitude": -122.299973}, "transactions": [], "price": "$", "location": {"address1": "5040 El Cerrito Plaza", "address2": "Suite E004", "address3": null, "city": "El Cerrito", "zip_code": "94530", "country": "US", "state": "CA", "display_address": ["5040 El Cerrito Plaza", "Suite E004", "El Cerrito, CA 94530"]}, "phone": "+15103994960", "display_phone": "(510) 399-4960", "distance": 1130.5485437540483}, {"id": "ZfOhmGll5uLsO0cfmqKzWg", "alias": "taco-bell-albany-2", "name": "Taco Bell", "image_url": "https://s3-media3.fl.yelpcdn.com/bphoto/kVLWv-a0gbO0Lrnn5Fj__A/o.jpg", "is_closed": false, "url": "https://www.yelp.com/biz/taco-bell-albany-2?adjust_creative=R39z9kjZ-1HrCCc7SW6pcw&utm_campaign=yelp_api_v3&utm_medium=api_v3_business_search&utm_source=R39z9kjZ-1HrCCc7SW6pcw", "review_count": 90, "categories": [{"alias": "hotdogs", "title": "Fast Food"}, {"alias": "tacos", "title": "Tacos"}], "rating": 2.5, "coordinates": {"latitude": 37.894035, "longitude": -122.299968}, "transactions": ["delivery"], "price": "$", "location": {"address1": "635 San Pablo Ave", "address2": "", "address3": "", "city": "Albany", "zip_code": "94706", "country": "US", "state": "CA", "display_address": ["635 San Pablo Ave", "Albany, CA 94706"]}, "phone": "+15105275090", "display_phone": "(510) 527-5090", "distance": 511.78701864448874}, {"id": "W_Axy3yVBHQYzeXs7aKJ9w", "alias": "holy-cow-coffee-company-albany", "name": "Holy Cow Coffee Company", "image_url": "https://s3-media3.fl.yelpcdn.com/bphoto/HOeXBDPDincPJLYbOfTf4g/o.jpg", "is_closed": false, "url": "https://www.yelp.com/biz/holy-cow-coffee-company-albany?adjust_creative=R39z9kjZ-1HrCCc7SW6pcw&utm_campaign=yelp_api_v3&utm_medium=api_v3_business_search&utm_source=R39z9kjZ-1HrCCc7SW6pcw", "review_count": 11, "categories": [{"alias": "coffee", "title": "Coffee & Tea"}, {"alias": "foodstands", "title": "Food Stands"}], "rating": 4.0, "coordinates": {"latitude": 37.8927374237415, "longitude": -122.297058105469}, "transactions": [], "price": "$", "location": {"address1": "Walnut Creek Farmers Market", "address2": "", "address3": "", "city": "Albany", "zip_code": "94706", "country": "US", "state": "CA", "display_address": ["Walnut Creek Farmers Market", "Albany, CA 94706"]}, "phone": "+15108306818", "display_phone": "(510) 830-6818", "distance": 246.32823878622136}, {"id": "zQODd4XnX3rYMMTSmixt3w", "alias": "dominos-pizza-albany-5", "name": "Domino's Pizza", "image_url": "https://s3-media2.fl.yelpcdn.com/bphoto/-tyIs2s4J2_mqDHKqtqNYA/o.jpg", "is_closed": false, "url": "https://www.yelp.com/biz/dominos-pizza-albany-5?adjust_creative=R39z9kjZ-1HrCCc7SW6pcw&utm_campaign=yelp_api_v3&utm_medium=api_v3_business_search&utm_source=R39z9kjZ-1HrCCc7SW6pcw", "review_count": 48, "categories": [{"alias": "pizza", "title": "Pizza"}, {"alias": "chicken_wings", "title": "Chicken Wings"}, {"alias": "sandwiches", "title": "Sandwiches"}], "rating": 3.0, "coordinates": {"latitude": 37.89097, "longitude": -122.28956}, "transactions": [], "price": "$", "location": {"address1": "1421 Solano Ave", "address2": "", "address3": "", "city": "Albany", "zip_code": "94706", "country": "US", "state": "CA", "display_address": ["1421 Solano Ave", "Albany, CA 94706"]}, "phone": "+15105269346", "display_phone": "(510) 526-9346", "distance": 562.821723495803}, {"id": "wsuiW8zqhMSRfMzDWpXldA", "alias": "semifreddis-bakery-kensington", "name": "Semifreddi's Bakery", "image_url": "https://s3-media4.fl.yelpcdn.com/bphoto/W7iLYnSJNMKtdtAEl0GQXA/o.jpg", "is_closed": false, "url": "https://www.yelp.com/biz/semifreddis-bakery-kensington?adjust_creative=R39z9kjZ-1HrCCc7SW6pcw&utm_campaign=yelp_api_v3&utm_medium=api_v3_business_search&utm_source=R39z9kjZ-1HrCCc7SW6pcw", "review_count": 90, "categories": [{"alias": "bakeries", "title": "Bakeries"}, {"alias": "coffee", "title": "Coffee & Tea"}, {"alias": "sandwiches", "title": "Sandwiches"}], "rating": 4.5, "coordinates": {"latitude": 37.899698, "longitude": -122.287728}, "transactions": [], "price": "$", "location": {"address1": "372 Colusa Ave", "address2": "", "address3": "", "city": "Kensington", "zip_code": "94707", "country": "US", "state": "CA", "display_address": ["372 Colusa Ave", "Kensington, CA 94707"]}, "phone": "+15105969935", "display_phone": "(510) 596-9935", "distance": 1232.7036116359213}, {"id": "OniZLrz_G-EQt2_Hk-fs8w", "alias": "wingstop-el-cerrito-2", "name": "Wingstop", "image_url": "https://s3-media1.fl.yelpcdn.com/bphoto/_bgnMSbJSj2S0vIfoT-Xdw/o.jpg", "is_closed": false, "url": "https://www.yelp.com/biz/wingstop-el-cerrito-2?adjust_creative=R39z9kjZ-1HrCCc7SW6pcw&utm_campaign=yelp_api_v3&utm_medium=api_v3_business_search&utm_source=R39z9kjZ-1HrCCc7SW6pcw", "review_count": 162, "categories": [{"alias": "chicken_wings", "title": "Chicken Wings"}], "rating": 2.0, "coordinates": {"latitude": 37.899492, "longitude": -122.298479}, "transactions": [], "price": "$$", "location": {"address1": "340 El Cerrito Plz", "address2": "", "address3": "", "city": "El Cerrito", "zip_code": "94530", "country": "US", "state": "CA", "display_address": ["340 El Cerrito Plz", "El Cerrito, CA 94530"]}, "phone": "+15105289464", "display_phone": "(510) 528-9464", "distance": 1002.138787798664}, {"id": "6YdpqcSN3ySxE7bHyFXbbg", "alias": "tacos-el-rey-berkeley-2", "name": "Tacos El Rey", "image_url": "https://s3-media4.fl.yelpcdn.com/bphoto/7-frNE8WKa1pCAcYmLgDuw/o.jpg", "is_closed": false, "url": "https://www.yelp.com/biz/tacos-el-rey-berkeley-2?adjust_creative=R39z9kjZ-1HrCCc7SW6pcw&utm_campaign=yelp_api_v3&utm_medium=api_v3_business_search&utm_source=R39z9kjZ-1HrCCc7SW6pcw", "review_count": 108, "categories": [{"alias": "mexican", "title": "Mexican"}, {"alias": "foodtrucks", "title": "Food Trucks"}], "rating": 4.5, "coordinates": {"latitude": 37.851009, "longitude": -122.292444}, "transactions": [], "price": "$", "location": {"address1": "Ashby Ave 7th St", "address2": null, "address3": "", "city": "Berkeley", "zip_code": "94701", "country": "US", "state": "CA", "display_address": ["Ashby Ave 7th St", "Berkeley, CA 94701"]}, "phone": "+15105931020", "display_phone": "(510) 593-1020", "distance": 4424.6199298248475}, {"id": "ZQnaLQ4Hf_IKzOrjWzzgFA", "alias": "rubios-el-cerrito", "name": "Rubio's", "image_url": "https://s3-media4.fl.yelpcdn.com/bphoto/U5RIVvMthpuFWsJU29nKkQ/o.jpg", "is_closed": false, "url": "https://www.yelp.com/biz/rubios-el-cerrito?adjust_creative=R39z9kjZ-1HrCCc7SW6pcw&utm_campaign=yelp_api_v3&utm_medium=api_v3_business_search&utm_source=R39z9kjZ-1HrCCc7SW6pcw", "review_count": 198, "categories": [{"alias": "mexican", "title": "Mexican"}, {"alias": "salad", "title": "Salad"}, {"alias": "seafood", "title": "Seafood"}], "rating": 3.5, "coordinates": {"latitude": 37.9004774, "longitude": -122.2998849}, "transactions": ["delivery"], "price": "$", "location": {"address1": "5010 El Cerrito Plz", "address2": "", "address3": "", "city": "El Cerrito", "zip_code": "94530", "country": "US", "state": "CA", "display_address": ["5010 El Cerrito Plz", "El Cerrito, CA 94530"]}, "phone": "+15105276990", "display_phone": "(510) 527-6990", "distance": 1174.7047960757723}, {"id": "MS0sZySGZh4i1VggMJ8HWQ", "alias": "9-julio-empanada-kitchen-oakland-2", "name": "9 Julio Empanada Kitchen", "image_url": "https://s3-media3.fl.yelpcdn.com/bphoto/ZkEL30RuJROglV6sCpRLeA/o.jpg", "is_closed": false, "url": "https://www.yelp.com/biz/9-julio-empanada-kitchen-oakland-2?adjust_creative=R39z9kjZ-1HrCCc7SW6pcw&utm_campaign=yelp_api_v3&utm_medium=api_v3_business_search&utm_source=R39z9kjZ-1HrCCc7SW6pcw", "review_count": 26, "categories": [{"alias": "latin", "title": "Latin American"}, {"alias": "foodstands", "title": "Food Stands"}, {"alias": "salad", "title": "Salad"}], "rating": 5.0, "coordinates": {"latitude": 37.7917976379395, "longitude": -122.173988342285}, "transactions": [], "price": "$", "location": {"address1": "", "address2": null, "address3": "", "city": "Oakland", "zip_code": "94619", "country": "US", "state": "CA", "display_address": ["Oakland, CA 94619"]}, "phone": "+15106989535", "display_phone": "(510) 698-9535", "distance": 17007.169652720506}, {"id": "eDhArhIMQlcLZDZQbX9tBw", "alias": "round-table-pizza-albany", "name": "Round Table Pizza", "image_url": "https://s3-media2.fl.yelpcdn.com/bphoto/XyFRX2Edq0b110cR4Q_Iuw/o.jpg", "is_closed": false, "url": "https://www.yelp.com/biz/round-table-pizza-albany?adjust_creative=R39z9kjZ-1HrCCc7SW6pcw&utm_campaign=yelp_api_v3&utm_medium=api_v3_business_search&utm_source=R39z9kjZ-1HrCCc7SW6pcw", "review_count": 131, "categories": [{"alias": "pizza", "title": "Pizza"}, {"alias": "buffets", "title": "Buffets"}], "rating": 2.0, "coordinates": {"latitude": 37.88841, "longitude": -122.29877}, "transactions": ["delivery", "pickup"], "price": "$$", "location": {"address1": "962 San Pablo Ave", "address2": "", "address3": "", "city": "Albany", "zip_code": "94706", "country": "US", "state": "CA", "display_address": ["962 San Pablo Ave", "Albany, CA 94706"]}, "phone": "+15105243272", "display_phone": "(510) 524-3272", "distance": 369.3176376062184}, {"id": "57JEgOV07c13q2rtByrKMg", "alias": "subway-restaurants-albany-23", "name": "Subway Restaurants", "image_url": "https://s3-media2.fl.yelpcdn.com/bphoto/as-Y7oXyzBPcASOgTtQwog/o.jpg", "is_closed": false, "url": "https://www.yelp.com/biz/subway-restaurants-albany-23?adjust_creative=R39z9kjZ-1HrCCc7SW6pcw&utm_campaign=yelp_api_v3&utm_medium=api_v3_business_search&utm_source=R39z9kjZ-1HrCCc7SW6pcw", "review_count": 21, "categories": [{"alias": "sandwiches", "title": "Sandwiches"}], "rating": 3.0, "coordinates": {"latitude": 37.8900999, "longitude": -122.2992}, "transactions": ["delivery", "pickup"], "price": "$", "location": {"address1": "900 San Pablo Ave", "address2": "", "address3": "", "city": "Albany", "zip_code": "94706", "country": "US", "state": "CA", "display_address": ["900 San Pablo Ave", "Albany, CA 94706"]}, "phone": "+15105287827", "display_phone": "(510) 528-7827", "distance": 286.4874265237654}, {"id": "CUwBAy6lrFi4x6Neu9eRVw", "alias": "mini-street-burger-alameda-3", "name": "Mini Street Burger", "image_url": "https://s3-media2.fl.yelpcdn.com/bphoto/Kh-OQKBIclWY1dCeIuu57w/o.jpg", "is_closed": false, "url": "https://www.yelp.com/biz/mini-street-burger-alameda-3?adjust_creative=R39z9kjZ-1HrCCc7SW6pcw&utm_campaign=yelp_api_v3&utm_medium=api_v3_business_search&utm_source=R39z9kjZ-1HrCCc7SW6pcw", "review_count": 28, "categories": [{"alias": "foodtrucks", "title": "Food Trucks"}, {"alias": "burgers", "title": "Burgers"}], "rating": 4.0, "coordinates": {"latitude": 37.82628, "longitude": -122.25101}, "transactions": [], "location": {"address1": null, "address2": null, "address3": null, "city": "Alameda", "zip_code": "94611", "country": "US", "state": "CA", "display_address": ["Alameda, CA 94611"]}, "phone": "+15108278982", "display_phone": "(510) 827-8982", "distance": 10338.04358875183}, {"id": "jCcAuXhCpeJP2n-8ol7mxg", "alias": "kolobok-russian-soul-food-truck-oakland", "name": "Kolobok Russian Soul Food Truck", "image_url": "https://s3-media1.fl.yelpcdn.com/bphoto/k8s1Bfc05Iw7SJXE6VJ74Q/o.jpg", "is_closed": false, "url": "https://www.yelp.com/biz/kolobok-russian-soul-food-truck-oakland?adjust_creative=R39z9kjZ-1HrCCc7SW6pcw&utm_campaign=yelp_api_v3&utm_medium=api_v3_business_search&utm_source=R39z9kjZ-1HrCCc7SW6pcw", "review_count": 47, "categories": [{"alias": "foodtrucks", "title": "Food Trucks"}, {"alias": "russian", "title": "Russian"}], "rating": 4.5, "coordinates": {"latitude": 37.7883087690458, "longitude": -122.309032460882}, "transactions": [], "price": "$$", "location": {"address1": null, "address2": null, "address3": "", "city": "Oakland", "zip_code": "94577", "country": "US", "state": "CA", "display_address": ["Oakland, CA 94577"]}, "phone": "+15105996542", "display_phone": "(510) 599-6542", "distance": 11443.770189748404}, {"id": "wkk0t3KkLVD8hhOczFnAeQ", "alias": "albany-little-league-snack-shack-at-the-village-albany", "name": "Albany Little League Snack Shack At the Village", "image_url": "https://s3-media3.fl.yelpcdn.com/bphoto/-u7KoaxkLFcT6OLOjGi16g/o.jpg", "is_closed": false, "url": "https://www.yelp.com/biz/albany-little-league-snack-shack-at-the-village-albany?adjust_creative=R39z9kjZ-1HrCCc7SW6pcw&utm_campaign=yelp_api_v3&utm_medium=api_v3_business_search&utm_source=R39z9kjZ-1HrCCc7SW6pcw", "review_count": 2, "categories": [{"alias": "hotdog", "title": "Hot Dogs"}], "rating": 4.5, "coordinates": {"latitude": 37.8834056345323, "longitude": -122.299241237573}, "transactions": [], "location": {"address1": "10TH And Monroe", "address2": "", "address3": "", "city": "Albany", "zip_code": "94706", "country": "US", "state": "CA", "display_address": ["10TH And Monroe", "Albany, CA 94706"]}, "phone": "", "display_phone": "", "distance": 861.7026134994943}, {"id": "40DtuR_HxNuBVf_uSoy66Q", "alias": "keeku-da-dhaba-fremont-2", "name": "Keeku da Dhaba", "image_url": "https://s3-media2.fl.yelpcdn.com/bphoto/8x2WS8oGXINIKI6pNnQYBw/o.jpg", "is_closed": false, "url": "https://www.yelp.com/biz/keeku-da-dhaba-fremont-2?adjust_creative=R39z9kjZ-1HrCCc7SW6pcw&utm_campaign=yelp_api_v3&utm_medium=api_v3_business_search&utm_source=R39z9kjZ-1HrCCc7SW6pcw", "review_count": 115, "categories": [{"alias": "indpak", "title": "Indian"}, {"alias": "foodtrucks", "title": "Food Trucks"}, {"alias": "kebab", "title": "Kebab"}], "rating": 4.5, "coordinates": {"latitude": 37.551938, "longitude": -121.985058}, "transactions": [], "location": {"address1": "3400 Mowry Ave", "address2": "", "address3": "Bharat Bazaar Parking Space", "city": "Fremont", "zip_code": "94538", "country": "US", "state": "CA", "display_address": ["3400 Mowry Ave", "Bharat Bazaar Parking Space", "Fremont, CA 94538"]}, "phone": "+15107893437", "display_phone": "(510) 789-3437", "distance": 46539.60608625361}, {"id": "j3RUrxPMJJYTre7o7uRGEQ", "alias": "panda-express-el-cerrito", "name": "Panda Express", "image_url": "https://s3-media1.fl.yelpcdn.com/bphoto/JmyXu3HXrCTsoh0whEbcjg/o.jpg", "is_closed": false, "url": "https://www.yelp.com/biz/panda-express-el-cerrito?adjust_creative=R39z9kjZ-1HrCCc7SW6pcw&utm_campaign=yelp_api_v3&utm_medium=api_v3_business_search&utm_source=R39z9kjZ-1HrCCc7SW6pcw", "review_count": 94, "categories": [{"alias": "chinese", "title": "Chinese"}, {"alias": "hotdogs", "title": "Fast Food"}], "rating": 3.0, "coordinates": {"latitude": 37.9006659378973, "longitude": -122.299986869492}, "transactions": [], "price": "$", "location": {"address1": "5020 El Cerrito Plz", "address2": "", "address3": "", "city": "El Cerrito", "zip_code": "94530", "country": "US", "state": "CA", "display_address": ["5020 El Cerrito Plz", "El Cerrito, CA 94530"]}, "phone": "+15105269989", "display_phone": "(510) 526-9989", "distance": 1163.1094500501433}, {"id": "rM6pPB_qmQ3de5yGpfLT1g", "alias": "lomo-libre-san-francisco-2", "name": "Lomo Libre", "image_url": "https://s3-media1.fl.yelpcdn.com/bphoto/vjnO-EUjFHKoLMy2_JQYvg/o.jpg", "is_closed": false, "url": "https://www.yelp.com/biz/lomo-libre-san-francisco-2?adjust_creative=R39z9kjZ-1HrCCc7SW6pcw&utm_campaign=yelp_api_v3&utm_medium=api_v3_business_search&utm_source=R39z9kjZ-1HrCCc7SW6pcw", "review_count": 8, "categories": [{"alias": "foodtrucks", "title": "Food Trucks"}, {"alias": "peruvian", "title": "Peruvian"}], "rating": 5.0, "coordinates": {"latitude": 37.799634, "longitude": -122.436301}, "transactions": [], "location": {"address1": "2101 Lombard St", "address2": "", "address3": null, "city": "San Francisco", "zip_code": "94123", "country": "US", "state": "CA", "display_address": ["2101 Lombard St", "San Francisco, CA 94123"]}, "phone": "+14156198149", "display_phone": "(415) 619-8149", "distance": 15951.337779586549}, {"id": "PxzM_zNIOy7jdtwT-fbB0w", "alias": "minnie-bells-san-francisco-2", "name": "Minnie Bells", "image_url": "https://s3-media2.fl.yelpcdn.com/bphoto/5YNxEigMmu8anIwGkIsEzg/o.jpg", "is_closed": false, "url": "https://www.yelp.com/biz/minnie-bells-san-francisco-2?adjust_creative=R39z9kjZ-1HrCCc7SW6pcw&utm_campaign=yelp_api_v3&utm_medium=api_v3_business_search&utm_source=R39z9kjZ-1HrCCc7SW6pcw", "review_count": 15, "categories": [{"alias": "soulfood", "title": "Soul Food"}, {"alias": "foodtrucks", "title": "Food Trucks"}, {"alias": "comfortfood", "title": "Comfort Food"}], "rating": 4.5, "coordinates": {"latitude": 37.7769775466477, "longitude": -122.416963241994}, "transactions": [], "location": {"address1": "", "address2": "", "address3": null, "city": "San Francisco", "zip_code": "94103", "country": "US", "state": "CA", "display_address": ["San Francisco, CA 94103"]}, "phone": "+14152739340", "display_phone": "(415) 273-9340", "distance": 16518.947262840516}, {"id": "DC42MrpWtqEeWRmMsn6Z8w", "alias": "the-everest-momo-fremont-2", "name": "The Everest Momo", "image_url": "https://s3-media2.fl.yelpcdn.com/bphoto/T2f7tUQ1c104otx9oSdqYw/o.jpg", "is_closed": false, "url": "https://www.yelp.com/biz/the-everest-momo-fremont-2?adjust_creative=R39z9kjZ-1HrCCc7SW6pcw&utm_campaign=yelp_api_v3&utm_medium=api_v3_business_search&utm_source=R39z9kjZ-1HrCCc7SW6pcw", "review_count": 23, "categories": [{"alias": "foodtrucks", "title": "Food Trucks"}, {"alias": "indpak", "title": "Indian"}, {"alias": "himalayan", "title": "Himalayan/Nepalese"}], "rating": 4.5, "coordinates": {"latitude": 37.54643, "longitude": -121.98512}, "transactions": [], "price": "$", "location": {"address1": "39233 Fremont Blvd", "address2": null, "address3": null, "city": "Fremont", "zip_code": "94538", "country": "US", "state": "CA", "display_address": ["39233 Fremont Blvd", "Fremont, CA 94538"]}, "phone": "+14088406369", "display_phone": "(408) 840-6369", "distance": 47038.02148245874}, {"id": "XCC2GEmWwwsb6LoeZLaqXA", "alias": "momolicious-san-francisco-2", "name": "MOMOlicious", "image_url": "https://s3-media1.fl.yelpcdn.com/bphoto/3yNgEihH74gOY8BSlXWZtg/o.jpg", "is_closed": false, "url": "https://www.yelp.com/biz/momolicious-san-francisco-2?adjust_creative=R39z9kjZ-1HrCCc7SW6pcw&utm_campaign=yelp_api_v3&utm_medium=api_v3_business_search&utm_source=R39z9kjZ-1HrCCc7SW6pcw", "review_count": 100, "categories": [{"alias": "foodtrucks", "title": "Food Trucks"}, {"alias": "himalayan", "title": "Himalayan/Nepalese"}, {"alias": "noodles", "title": "Noodles"}], "rating": 4.5, "coordinates": {"latitude": 37.7945413, "longitude": -122.3949711}, "transactions": [], "price": "$$", "location": {"address1": "10 Market St", "address2": null, "address3": "", "city": "San Francisco", "zip_code": "94105", "country": "US", "state": "CA", "display_address": ["10 Market St", "San Francisco, CA 94105"]}, "phone": "+15102876606", "display_phone": "(510) 287-6606", "distance": 13756.07879506259}, {"id": "HvGnobytgg6MMpqunSaxKg", "alias": "chipotle-mexican-grill-el-cerrito", "name": "Chipotle Mexican Grill", "image_url": "https://s3-media4.fl.yelpcdn.com/bphoto/MnQY1qpYP-8IDHNI3Bc3_g/o.jpg", "is_closed": false, "url": "https://www.yelp.com/biz/chipotle-mexican-grill-el-cerrito?adjust_creative=R39z9kjZ-1HrCCc7SW6pcw&utm_campaign=yelp_api_v3&utm_medium=api_v3_business_search&utm_source=R39z9kjZ-1HrCCc7SW6pcw", "review_count": 127, "categories": [{"alias": "mexican", "title": "Mexican"}, {"alias": "hotdogs", "title": "Fast Food"}], "rating": 2.5, "coordinates": {"latitude": 37.8991, "longitude": -122.30236}, "transactions": [], "price": "$", "location": {"address1": "9901 San Pablo Ave", "address2": "", "address3": "", "city": "El Cerrito", "zip_code": "94530", "country": "US", "state": "CA", "display_address": ["9901 San Pablo Ave", "El Cerrito, CA 94530"]}, "phone": "+15109002658", "display_phone": "(510) 900-2658", "distance": 1094.6796581971698}, {"id": "84Irk5lNFXfWCvLmz2llLg", "alias": "rodericks-restaurant-and-mobile-catering-oakland", "name": "Roderick's Restaurant & Mobile Catering", "image_url": "https://s3-media3.fl.yelpcdn.com/bphoto/OiqF8ctxchXEXUqOl_jbSg/o.jpg", "is_closed": false, "url": "https://www.yelp.com/biz/rodericks-restaurant-and-mobile-catering-oakland?adjust_creative=R39z9kjZ-1HrCCc7SW6pcw&utm_campaign=yelp_api_v3&utm_medium=api_v3_business_search&utm_source=R39z9kjZ-1HrCCc7SW6pcw", "review_count": 128, "categories": [{"alias": "foodtrucks", "title": "Food Trucks"}, {"alias": "southern", "title": "Southern"}], "rating": 4.5, "coordinates": {"latitude": 37.751577, "longitude": -122.153708}, "transactions": [], "price": "$", "location": {"address1": "2708 98th Ave", "address2": "", "address3": "", "city": "Oakland", "zip_code": "94605", "country": "US", "state": "CA", "display_address": ["2708 98th Ave", "Oakland, CA 94605"]}, "phone": "+15105644648", "display_phone": "(510) 564-4648", "distance": 19884.953997743803}, {"id": "93Kmm2_HZh9rK58xpEXgSQ", "alias": "yammy-sushi-el-cerrito", "name": "Yammy Sushi", "image_url": "https://s3-media4.fl.yelpcdn.com/bphoto/ZnXQ_j17gUFDLxHqCu4mKQ/o.jpg", "is_closed": false, "url": "https://www.yelp.com/biz/yammy-sushi-el-cerrito?adjust_creative=R39z9kjZ-1HrCCc7SW6pcw&utm_campaign=yelp_api_v3&utm_medium=api_v3_business_search&utm_source=R39z9kjZ-1HrCCc7SW6pcw", "review_count": 221, "categories": [{"alias": "japanese", "title": "Japanese"}, {"alias": "sushi", "title": "Sushi Bars"}], "rating": 2.5, "coordinates": {"latitude": 37.898721, "longitude": -122.300068}, "transactions": ["pickup"], "price": "$$", "location": {"address1": "195 El Cerrito Plz", "address2": "", "address3": "", "city": "El Cerrito", "zip_code": "94530", "country": "US", "state": "CA", "display_address": ["195 El Cerrito Plz", "El Cerrito, CA 94530"]}, "phone": "+15105259570", "display_phone": "(510) 525-9570", "distance": 962.0860093715077}, {"id": "BGbg2gHg3lKXvhoC35X49g", "alias": "albany-bowl-albany-3", "name": "Albany Bowl", "image_url": "https://s3-media1.fl.yelpcdn.com/bphoto/ooRNLj7eg_ae11AOJYvA-Q/o.jpg", "is_closed": false, "url": "https://www.yelp.com/biz/albany-bowl-albany-3?adjust_creative=R39z9kjZ-1HrCCc7SW6pcw&utm_campaign=yelp_api_v3&utm_medium=api_v3_business_search&utm_source=R39z9kjZ-1HrCCc7SW6pcw", "review_count": 10, "categories": [{"alias": "burgers", "title": "Burgers"}, {"alias": "sandwiches", "title": "Sandwiches"}], "rating": 3.0, "coordinates": {"latitude": 37.89634, "longitude": -122.30142}, "transactions": [], "price": "$", "location": {"address1": "540 San Pablo Ave", "address2": "", "address3": "", "city": "Albany", "zip_code": "94706", "country": "US", "state": "CA", "display_address": ["540 San Pablo Ave", "Albany, CA 94706"]}, "phone": "+15105268818", "display_phone": "(510) 526-8818", "distance": 792.2263524317967}, {"id": "ZwMYagQH_8aXT8g9EAeUKw", "alias": "noodle-girl-san-francisco-2", "name": "Noodle Girl", "image_url": "https://s3-media3.fl.yelpcdn.com/bphoto/AZ3jiGiDY47U8QlXEJOGiA/o.jpg", "is_closed": false, "url": "https://www.yelp.com/biz/noodle-girl-san-francisco-2?adjust_creative=R39z9kjZ-1HrCCc7SW6pcw&utm_campaign=yelp_api_v3&utm_medium=api_v3_business_search&utm_source=R39z9kjZ-1HrCCc7SW6pcw", "review_count": 4, "categories": [{"alias": "noodles", "title": "Noodles"}, {"alias": "foodstands", "title": "Food Stands"}, {"alias": "catering", "title": "Caterers"}], "rating": 3.5, "coordinates": {"latitude": 37.7485824, "longitude": -122.4184108}, "transactions": [], "location": {"address1": "", "address2": "", "address3": null, "city": "San Francisco", "zip_code": "94110", "country": "US", "state": "CA", "display_address": ["San Francisco, CA 94110"]}, "phone": "", "display_phone": "", "distance": 19117.10005214645}, {"id": "q3ZOtUofqg7e3qAiA9gs9w", "alias": "taqueria-la-estrella-richmond", "name": "Taqueria La Estrella", "image_url": "https://s3-media3.fl.yelpcdn.com/bphoto/uj_8OLGuFKDGF_nOsVRcOw/o.jpg", "is_closed": false, "url": "https://www.yelp.com/biz/taqueria-la-estrella-richmond?adjust_creative=R39z9kjZ-1HrCCc7SW6pcw&utm_campaign=yelp_api_v3&utm_medium=api_v3_business_search&utm_source=R39z9kjZ-1HrCCc7SW6pcw", "review_count": 117, "categories": [{"alias": "mexican", "title": "Mexican"}, {"alias": "vegetarian", "title": "Vegetarian"}, {"alias": "foodtrucks", "title": "Food Trucks"}], "rating": 4.0, "coordinates": {"latitude": 37.93622, "longitude": -122.34797}, "transactions": [], "price": "$", "location": {"address1": "325 23rd St", "address2": "", "address3": "", "city": "Richmond", "zip_code": "94804", "country": "US", "state": "CA", "display_address": ["325 23rd St", "Richmond, CA 94804"]}, "phone": "+15102326955", "display_phone": "(510) 232-6955", "distance": 6806.688772573264}, {"id": "RsgxKM4y5V_po23Iy3lTww", "alias": "fiya-spice-caribbean-pittsburg", "name": "Fiya Spice Caribbean", "image_url": "https://s3-media1.fl.yelpcdn.com/bphoto/7NBUdJXMLVWdJqIumy-GBg/o.jpg", "is_closed": false, "url": "https://www.yelp.com/biz/fiya-spice-caribbean-pittsburg?adjust_creative=R39z9kjZ-1HrCCc7SW6pcw&utm_campaign=yelp_api_v3&utm_medium=api_v3_business_search&utm_source=R39z9kjZ-1HrCCc7SW6pcw", "review_count": 1, "categories": [{"alias": "foodtrucks", "title": "Food Trucks"}, {"alias": "caribbean", "title": "Caribbean"}, {"alias": "catering", "title": "Caterers"}], "rating": 5.0, "coordinates": {"latitude": 38.011279, "longitude": -121.876098}, "transactions": [], "location": {"address1": "", "address2": null, "address3": "", "city": "Pittsburg", "zip_code": "94565", "country": "US", "state": "CA", "display_address": ["Pittsburg, CA 94565"]}, "phone": "+15106863325", "display_phone": "(510) 686-3325", "distance": 39177.899351780085}, {"id": "i6ZwMjYIbmFZ8EGYz6x5Bw", "alias": "phat-salads-and-wraps-napa", "name": "Phat Salads and Wraps", "image_url": "https://s3-media2.fl.yelpcdn.com/bphoto/FbrUwtrVIx2cLXiPdBhHkw/o.jpg", "is_closed": false, "url": "https://www.yelp.com/biz/phat-salads-and-wraps-napa?adjust_creative=R39z9kjZ-1HrCCc7SW6pcw&utm_campaign=yelp_api_v3&utm_medium=api_v3_business_search&utm_source=R39z9kjZ-1HrCCc7SW6pcw", "review_count": 48, "categories": [{"alias": "foodtrucks", "title": "Food Trucks"}, {"alias": "wraps", "title": "Wraps"}], "rating": 4.0, "coordinates": {"latitude": 38.3234491, "longitude": -122.3023962}, "transactions": [], "price": "$", "location": {"address1": "", "address2": "", "address3": "", "city": "Napa", "zip_code": "94558", "country": "US", "state": "CA", "display_address": ["Napa, CA 94558"]}, "phone": "+17073639658", "display_phone": "(707) 363-9658", "distance": 48122.24544893424}, {"id": "-arrRYJYGEejjYaBa8gJ5Q", "alias": "la-flamme-oakland-2", "name": "La Flamme", "image_url": "https://s3-media1.fl.yelpcdn.com/bphoto/RnuD-0Cj1J9SYQIuky76mQ/o.jpg", "is_closed": false, "url": "https://www.yelp.com/biz/la-flamme-oakland-2?adjust_creative=R39z9kjZ-1HrCCc7SW6pcw&utm_campaign=yelp_api_v3&utm_medium=api_v3_business_search&utm_source=R39z9kjZ-1HrCCc7SW6pcw", "review_count": 20, "categories": [{"alias": "pizza", "title": "Pizza"}, {"alias": "foodtrucks", "title": "Food Trucks"}], "rating": 4.0, "coordinates": {"latitude": 37.8089442, "longitude": -122.2652352}, "transactions": ["delivery", "pickup"], "price": "$$", "location": {"address1": "344 Thomas L Berkeley Way -", "address2": "Ste 310", "address3": "", "city": "OAKLAND", "zip_code": "94612", "country": "US", "state": "CA", "display_address": ["344 Thomas L Berkeley Way -", "Ste 310", "OAKLAND, CA 94612"]}, "phone": "+14153168541", "display_phone": "(415) 316-8541", "distance": 9482.700602481791}, {"id": "C0l7945777u6EW-BCxrjag", "alias": "mcdonalds-berkeley-4", "name": "McDonald's", "image_url": "https://s3-media4.fl.yelpcdn.com/bphoto/yOvLED_68WPxm-ud39p_kg/o.jpg", "is_closed": false, "url": "https://www.yelp.com/biz/mcdonalds-berkeley-4?adjust_creative=R39z9kjZ-1HrCCc7SW6pcw&utm_campaign=yelp_api_v3&utm_medium=api_v3_business_search&utm_source=R39z9kjZ-1HrCCc7SW6pcw", "review_count": 67, "categories": [{"alias": "hotdogs", "title": "Fast Food"}, {"alias": "burgers", "title": "Burgers"}, {"alias": "coffee", "title": "Coffee & Tea"}], "rating": 2.0, "coordinates": {"latitude": 37.882503, "longitude": -122.296925}, "transactions": [], "price": "$", "location": {"address1": "1198 San Pablo Ave", "address2": "", "address3": "", "city": "Berkeley", "zip_code": "94706", "country": "US", "state": "CA", "display_address": ["1198 San Pablo Ave", "Berkeley, CA 94706"]}, "phone": "+15105251411", "display_phone": "(510) 525-1411", "distance": 916.0509697072902}, {"id": "1V13WJDi2BWuTiKOhnOSwA", "alias": "muangthai-restaurant-albany", "name": "Muangthai Restaurant", "image_url": "", "is_closed": false, "url": "https://www.yelp.com/biz/muangthai-restaurant-albany?adjust_creative=R39z9kjZ-1HrCCc7SW6pcw&utm_campaign=yelp_api_v3&utm_medium=api_v3_business_search&utm_source=R39z9kjZ-1HrCCc7SW6pcw", "review_count": 4, "categories": [{"alias": "thai", "title": "Thai"}], "rating": 3.5, "coordinates": {"latitude": 37.89005, "longitude": -122.29862}, "transactions": [], "location": {"address1": "905 San Pablo Ave", "address2": null, "address3": null, "city": "Albany", "zip_code": "94706", "country": "US", "state": "CA", "display_address": ["905 San Pablo Ave", "Albany, CA 94706"]}, "phone": "+15105246837", "display_phone": "(510) 524-6837", "distance": 252.60774701608037}, {"id": "8SNGFcMWZkvS4GWDUL8w1Q", "alias": "noon-o-kabob-san-jose-4", "name": "Noon O Kabob", "image_url": "https://s3-media2.fl.yelpcdn.com/bphoto/5GmY5FRw0m0XEWC5XXbVlA/o.jpg", "is_closed": false, "url": "https://www.yelp.com/biz/noon-o-kabob-san-jose-4?adjust_creative=R39z9kjZ-1HrCCc7SW6pcw&utm_campaign=yelp_api_v3&utm_medium=api_v3_business_search&utm_source=R39z9kjZ-1HrCCc7SW6pcw", "review_count": 29, "categories": [{"alias": "foodtrucks", "title": "Food Trucks"}, {"alias": "kebab", "title": "Kebab"}, {"alias": "persian", "title": "Persian/Iranian"}], "rating": 4.5, "coordinates": {"latitude": 37.3940232, "longitude": -122.0288052}, "transactions": [], "price": "$$", "location": {"address1": null, "address2": null, "address3": null, "city": "San Jose", "zip_code": "95101", "country": "US", "state": "CA", "display_address": ["San Jose, CA 95101"]}, "phone": "+14083346777", "display_phone": "(408) 334-6777", "distance": 60028.3423512629}, {"id": "C8QSWh3j0xkXwiWC8h-7ag", "alias": "three-amigos-market-and-deli-oakland", "name": "Three Amigos Market & Deli", "image_url": "https://s3-media1.fl.yelpcdn.com/bphoto/B4LNxfyWsiyHibJqkrK1gQ/o.jpg", "is_closed": false, "url": "https://www.yelp.com/biz/three-amigos-market-and-deli-oakland?adjust_creative=R39z9kjZ-1HrCCc7SW6pcw&utm_campaign=yelp_api_v3&utm_medium=api_v3_business_search&utm_source=R39z9kjZ-1HrCCc7SW6pcw", "review_count": 9, "categories": [{"alias": "grocery", "title": "Grocery"}, {"alias": "sandwiches", "title": "Sandwiches"}, {"alias": "delis", "title": "Delis"}], "rating": 4.5, "coordinates": {"latitude": 37.791048, "longitude": -122.245431}, "transactions": [], "price": "$", "location": {"address1": "1554 13th Ave", "address2": "", "address3": "", "city": "Oakland", "zip_code": "94606", "country": "US", "state": "CA", "display_address": ["1554 13th Ave", "Oakland, CA 94606"]}, "phone": "+15102612353", "display_phone": "(510) 261-2353", "distance": 11936.043588990504}, {"id": "lgheXsHqe66AEZwoPDIEpw", "alias": "taco-coma-newark", "name": "Taco Coma", "image_url": "https://s3-media3.fl.yelpcdn.com/bphoto/DDz5lZDL5lDiRR_Ph0L4Sg/o.jpg", "is_closed": false, "url": "https://www.yelp.com/biz/taco-coma-newark?adjust_creative=R39z9kjZ-1HrCCc7SW6pcw&utm_campaign=yelp_api_v3&utm_medium=api_v3_business_search&utm_source=R39z9kjZ-1HrCCc7SW6pcw", "review_count": 3, "categories": [{"alias": "foodstands", "title": "Food Stands"}, {"alias": "tacos", "title": "Tacos"}], "rating": 5.0, "coordinates": {"latitude": 37.53453, "longitude": -122.03284}, "transactions": [], "location": {"address1": "", "address2": null, "address3": "", "city": "Newark", "zip_code": "94560", "country": "US", "state": "CA", "display_address": ["Newark, CA 94560"]}, "phone": "+15106971448", "display_phone": "(510) 697-1448", "distance": 46067.06896112135}, {"id": "XTJJ_PUQoJKIh31ZIzsFzw", "alias": "cochinita-food-truck-san-francisco-6", "name": "Cochinita Food Truck", "image_url": "https://s3-media2.fl.yelpcdn.com/bphoto/w77SOd2jVJjOh1lwuYQ42w/o.jpg", "is_closed": false, "url": "https://www.yelp.com/biz/cochinita-food-truck-san-francisco-6?adjust_creative=R39z9kjZ-1HrCCc7SW6pcw&utm_campaign=yelp_api_v3&utm_medium=api_v3_business_search&utm_source=R39z9kjZ-1HrCCc7SW6pcw", "review_count": 49, "categories": [{"alias": "foodtrucks", "title": "Food Trucks"}, {"alias": "mexican", "title": "Mexican"}], "rating": 4.5, "coordinates": {"latitude": 37.770753, "longitude": -122.3916722}, "transactions": [], "price": "$", "location": {"address1": "601 Mission Blvd N", "address2": null, "address3": "", "city": "San Francisco", "zip_code": "94103", "country": "US", "state": "CA", "display_address": ["601 Mission Blvd N", "San Francisco, CA 94103"]}, "phone": "+14159883663", "display_phone": "(415) 988-3663", "distance": 15766.64840460357}, {"id": "uuouQQIFQ1B9mkmcxaAKFA", "alias": "tacos-el-rey-oakland", "name": "Tacos El Rey", "image_url": "https://s3-media2.fl.yelpcdn.com/bphoto/DblyFrtT9uyPCQAUfPbYbQ/o.jpg", "is_closed": false, "url": "https://www.yelp.com/biz/tacos-el-rey-oakland?adjust_creative=R39z9kjZ-1HrCCc7SW6pcw&utm_campaign=yelp_api_v3&utm_medium=api_v3_business_search&utm_source=R39z9kjZ-1HrCCc7SW6pcw", "review_count": 9, "categories": [{"alias": "foodtrucks", "title": "Food Trucks"}, {"alias": "mexican", "title": "Mexican"}], "rating": 4.0, "coordinates": {"latitude": 37.8294034, "longitude": -122.2875758}, "transactions": [], "price": "$", "location": {"address1": "40th & Horton", "address2": "", "address3": null, "city": "Oakland", "zip_code": "94608", "country": "US", "state": "CA", "display_address": ["40th & Horton", "Oakland, CA 94608"]}, "phone": "+15108130232", "display_phone": "(510) 813-0232", "distance": 6855.840188324089}, {"id": "jW66693LVPlyDtzAoeb7KQ", "alias": "travelin-joe-espresso-berkeley", "name": "Travelin Joe Espresso", "image_url": "https://s3-media2.fl.yelpcdn.com/bphoto/XiqMQnnnbGe4g2SzU4Wm-A/o.jpg", "is_closed": false, "url": "https://www.yelp.com/biz/travelin-joe-espresso-berkeley?adjust_creative=R39z9kjZ-1HrCCc7SW6pcw&utm_campaign=yelp_api_v3&utm_medium=api_v3_business_search&utm_source=R39z9kjZ-1HrCCc7SW6pcw", "review_count": 33, "categories": [{"alias": "coffee", "title": "Coffee & Tea"}, {"alias": "foodstands", "title": "Food Stands"}, {"alias": "waffles", "title": "Waffles"}], "rating": 4.5, "coordinates": {"latitude": 37.85571, "longitude": -122.2893}, "transactions": [], "price": "$$", "location": {"address1": "1016 Grayson St", "address2": "", "address3": "", "city": "Berkeley", "zip_code": "94710", "country": "US", "state": "CA", "display_address": ["1016 Grayson St", "Berkeley, CA 94710"]}, "phone": "+15109197279", "display_phone": "(510) 919-7279", "distance": 3930.552487092654}, {"id": "xomxVUXe8Sy5R2nt7qBxxg", "alias": "fired-mobile-pizza-oven-stockton", "name": "FIRED Mobile Pizza Oven", "image_url": "https://s3-media4.fl.yelpcdn.com/bphoto/JV4MGBFFrJGZQbmtdoOLFQ/o.jpg", "is_closed": false, "url": "https://www.yelp.com/biz/fired-mobile-pizza-oven-stockton?adjust_creative=R39z9kjZ-1HrCCc7SW6pcw&utm_campaign=yelp_api_v3&utm_medium=api_v3_business_search&utm_source=R39z9kjZ-1HrCCc7SW6pcw", "review_count": 8, "categories": [{"alias": "pizza", "title": "Pizza"}, {"alias": "catering", "title": "Caterers"}, {"alias": "foodtrucks", "title": "Food Trucks"}], "rating": 5.0, "coordinates": {"latitude": 38.0521138, "longitude": -121.3484448}, "transactions": [], "location": {"address1": null, "address2": null, "address3": "", "city": "Stockton", "zip_code": "95209", "country": "US", "state": "CA", "display_address": ["Stockton, CA 95209"]}, "phone": "+12092424105", "display_phone": "(209) 242-4105", "distance": 84971.33422180408}, {"id": "S9MYGapWK7T7oKUEYLz6Iw", "alias": "the-boneyard-san-bruno-3", "name": "The Boneyard", "image_url": "https://s3-media3.fl.yelpcdn.com/bphoto/uG6EEbOomy5tsXTsHGodxg/o.jpg", "is_closed": false, "url": "https://www.yelp.com/biz/the-boneyard-san-bruno-3?adjust_creative=R39z9kjZ-1HrCCc7SW6pcw&utm_campaign=yelp_api_v3&utm_medium=api_v3_business_search&utm_source=R39z9kjZ-1HrCCc7SW6pcw", "review_count": 87, "categories": [{"alias": "foodtrucks", "title": "Food Trucks"}, {"alias": "bbq", "title": "Barbeque"}, {"alias": "catering", "title": "Caterers"}], "rating": 3.5, "coordinates": {"latitude": 37.7939188282826, "longitude": -122.400518522289}, "transactions": ["delivery", "pickup"], "price": "$$", "location": {"address1": "1225 San Mateo Ave", "address2": null, "address3": "", "city": "San Bruno", "zip_code": "94066", "country": "US", "state": "CA", "display_address": ["1225 San Mateo Ave", "San Bruno, CA 94066"]}, "phone": "+14159350696", "display_phone": "(415) 935-0696", "distance": 14147.379460080623}, {"id": "ZlLnkOJzKQx_QbZf5p2_lw", "alias": "yummysticks-richmond-2", "name": "YummySticks", "image_url": "https://s3-media1.fl.yelpcdn.com/bphoto/7Nfbaqr5CYkV6XM9IfLO9Q/o.jpg", "is_closed": false, "url": "https://www.yelp.com/biz/yummysticks-richmond-2?adjust_creative=R39z9kjZ-1HrCCc7SW6pcw&utm_campaign=yelp_api_v3&utm_medium=api_v3_business_search&utm_source=R39z9kjZ-1HrCCc7SW6pcw", "review_count": 3, "categories": [{"alias": "foodtrucks", "title": "Food Trucks"}, {"alias": "newamerican", "title": "American (New)"}, {"alias": "catering", "title": "Caterers"}], "rating": 3.5, "coordinates": {"latitude": 37.921329498291, "longitude": -122.341423034668}, "transactions": [], "location": {"address1": "", "address2": null, "address3": null, "city": "Richmond", "zip_code": "94804", "country": "US", "state": "CA", "display_address": ["Richmond, CA 94804"]}, "phone": "+15109923876", "display_phone": "(510) 992-3876", "distance": 4704.261186486596}, {"id": "sR0Wy3LYGdYV9HLszRlMmw", "alias": "tacos-la-palmita-stockton", "name": "Tacos La Palmita", "image_url": "https://s3-media2.fl.yelpcdn.com/bphoto/pzYoRmZjUQqxZ7qOyU7hUQ/o.jpg", "is_closed": false, "url": "https://www.yelp.com/biz/tacos-la-palmita-stockton?adjust_creative=R39z9kjZ-1HrCCc7SW6pcw&utm_campaign=yelp_api_v3&utm_medium=api_v3_business_search&utm_source=R39z9kjZ-1HrCCc7SW6pcw", "review_count": 90, "categories": [{"alias": "tacos", "title": "Tacos"}, {"alias": "foodtrucks", "title": "Food Trucks"}], "rating": 4.5, "coordinates": {"latitude": 38.008129, "longitude": -121.320219}, "transactions": ["delivery", "pickup"], "price": "$", "location": {"address1": "6393 Pacific Ave", "address2": null, "address3": null, "city": "Stockton", "zip_code": "95207", "country": "US", "state": "CA", "display_address": ["6393 Pacific Ave", "Stockton, CA 95207"]}, "phone": "+12093026825", "display_phone": "(209) 302-6825", "distance": 86544.63690843446}, {"id": "C9uewBH5505NV0EWYBIJAA", "alias": "lady-and-l-aperitivo-san-jose", "name": "Lady & L'Aperitivo", "image_url": "https://s3-media4.fl.yelpcdn.com/bphoto/3nz0sRE9MlOq_4xVRQRt9w/o.jpg", "is_closed": false, "url": "https://www.yelp.com/biz/lady-and-l-aperitivo-san-jose?adjust_creative=R39z9kjZ-1HrCCc7SW6pcw&utm_campaign=yelp_api_v3&utm_medium=api_v3_business_search&utm_source=R39z9kjZ-1HrCCc7SW6pcw", "review_count": 1, "categories": [{"alias": "bakeries", "title": "Bakeries"}, {"alias": "desserts", "title": "Desserts"}, {"alias": "cheesesteaks", "title": "Cheesesteaks"}], "rating": 5.0, "coordinates": {"latitude": 37.2208938598633, "longitude": -121.861633300781}, "transactions": [], "location": {"address1": null, "address2": null, "address3": "", "city": "San Jose", "zip_code": "95120", "country": "US", "state": "CA", "display_address": ["San Jose, CA 95120"]}, "phone": "", "display_phone": "", "distance": 89496.30070247962}, {"id": "Mij1ZvLLpqvNmJFWNz9IsQ", "alias": "paquitas-mexican-grill-sacramento-2", "name": "Paquitas Mexican Grill", "image_url": "https://s3-media2.fl.yelpcdn.com/bphoto/Onav96dKMe8cWeFXMNFcyQ/o.jpg", "is_closed": false, "url": "https://www.yelp.com/biz/paquitas-mexican-grill-sacramento-2?adjust_creative=R39z9kjZ-1HrCCc7SW6pcw&utm_campaign=yelp_api_v3&utm_medium=api_v3_business_search&utm_source=R39z9kjZ-1HrCCc7SW6pcw", "review_count": 73, "categories": [{"alias": "foodtrucks", "title": "Food Trucks"}, {"alias": "mexican", "title": "Mexican"}], "rating": 4.0, "coordinates": {"latitude": 38.549732, "longitude": -121.406281}, "transactions": [], "price": "$", "location": {"address1": "49 Bicentennial Cir", "address2": null, "address3": "", "city": "Sacramento", "zip_code": "95826", "country": "US", "state": "CA", "display_address": ["49 Bicentennial Cir", "Sacramento, CA 95826"]}, "phone": "+15308484666", "display_phone": "(530) 848-4666", "distance": 106818.34652034678}, {"id": "SbjAjfh2riT7rWxo2OITJA", "alias": "candies-kitchen-sacramento", "name": "Candies Kitchen", "image_url": "https://s3-media1.fl.yelpcdn.com/bphoto/wZehoZn9-gQLuWPX4QIOLA/o.jpg", "is_closed": false, "url": "https://www.yelp.com/biz/candies-kitchen-sacramento?adjust_creative=R39z9kjZ-1HrCCc7SW6pcw&utm_campaign=yelp_api_v3&utm_medium=api_v3_business_search&utm_source=R39z9kjZ-1HrCCc7SW6pcw", "review_count": 2, "categories": [{"alias": "cajun", "title": "Cajun/Creole"}, {"alias": "soulfood", "title": "Soul Food"}, {"alias": "foodtrucks", "title": "Food Trucks"}], "rating": 3.5, "coordinates": {"latitude": 38.59429, "longitude": -121.48536}, "transactions": [], "location": {"address1": "1100 Richards Blvd", "address2": null, "address3": "", "city": "Sacramento", "zip_code": "95811", "country": "US", "state": "CA", "display_address": ["1100 Richards Blvd", "Sacramento, CA 95811"]}, "phone": "+19164399922", "display_phone": "(916) 439-9922", "distance": 105515.05912016737}, {"id": "7ETh5878KSnGQnLxLE_yaQ", "alias": "gyrostop-sacramento", "name": "GyroStop", "image_url": "https://s3-media1.fl.yelpcdn.com/bphoto/xQsct4YKnW0qSJOmK_gsxw/o.jpg", "is_closed": false, "url": "https://www.yelp.com/biz/gyrostop-sacramento?adjust_creative=R39z9kjZ-1HrCCc7SW6pcw&utm_campaign=yelp_api_v3&utm_medium=api_v3_business_search&utm_source=R39z9kjZ-1HrCCc7SW6pcw", "review_count": 74, "categories": [{"alias": "mediterranean", "title": "Mediterranean"}, {"alias": "foodtrucks", "title": "Food Trucks"}], "rating": 4.0, "coordinates": {"latitude": 38.6621589660645, "longitude": -121.336738586426}, "transactions": [], "price": "$$", "location": {"address1": "", "address2": "", "address3": "", "city": "Sacramento", "zip_code": "95841", "country": "US", "state": "CA", "display_address": ["Sacramento, CA 95841"]}, "phone": "+19163044976", "display_phone": "(916) 304-4976", "distance": 119102.97204459601}]}