{"location": "Atherton, CA", "term": "restaurant", "radius": 2034, "businesses": [{"id": "ZrSkPsN7rslObYRl7cZWzg", "alias": "black-pepper-restaurant-menlo-park", "name": "Black Pepper Restaurant", "image_url": "https://s3-media3.fl.yelpcdn.com/bphoto/fmUybAUJbRAtXX0Vlmg9Wg/o.jpg", "is_closed": false, "url": "https://www.yelp.com/biz/black-pepper-restaurant-menlo-park?adjust_creative=R39z9kjZ-1HrCCc7SW6pcw&utm_campaign=yelp_api_v3&utm_medium=api_v3_business_search&utm_source=R39z9kjZ-1HrCCc7SW6pcw", "review_count": 498, "categories": [{"alias": "asianfusion", "title": "Asian Fusion"}, {"alias": "thai", "title": "Thai"}, {"alias": "malaysian", "title": "Malaysian"}], "rating": 4.0, "coordinates": {"latitude": 37.45288, "longitude": -122.18222}, "transactions": ["pickup", "restaurant_reservation"], "price": "$$", "location": {"address1": "1029 El Camino Real", "address2": "", "address3": null, "city": "Menlo Park", "zip_code": "94025", "country": "US", "state": "CA", "display_address": ["1029 El Camino Real", "Menlo Park, CA 94025"]}, "phone": "+16504852345", "display_phone": "(650) 485-2345", "distance": 1388.0048061888103}, {"id": "OffLCgxDrOE9t2OfIb9Svw", "alias": "galata-bistro-menlo-park", "name": "Galata Bistro", "image_url": "https://s3-media2.fl.yelpcdn.com/bphoto/zNJ9stLoA0oVeyHYczWjag/o.jpg", "is_closed": false, "url": "https://www.yelp.com/biz/galata-bistro-menlo-park?adjust_creative=R39z9kjZ-1HrCCc7SW6pcw&utm_campaign=yelp_api_v3&utm_medium=api_v3_business_search&utm_source=R39z9kjZ-1HrCCc7SW6pcw", "review_count": 229, "categories": [{"alias": "mediterranean", "title": "Mediterranean"}, {"alias": "turkish", "title": "Turkish"}, {"alias": "kebab", "title": "Kebab"}], "rating": 4.0, "coordinates": {"latitude": 37.450462, "longitude": -122.185127}, "transactions": ["delivery", "pickup", "restaurant_reservation"], "price": "$$", "location": {"address1": "827 Santa Cruz Ave", "address2": "", "address3": "", "city": "Menlo Park", "zip_code": "94025", "country": "US", "state": "CA", "display_address": ["827 Santa Cruz Ave", "Menlo Park, CA 94025"]}, "phone": "+16503257900", "display_phone": "(650) 325-7900", "distance": 1402.318257439528}, {"id": "6i3eOYhboqTPEHThTOxgfg", "alias": "the-refuge-menlo-park", "name": "The Refuge", "image_url": "https://s3-media4.fl.yelpcdn.com/bphoto/NWP_Wvws8KPgnVtuwJH5Jg/o.jpg", "is_closed": false, "url": "https://www.yelp.com/biz/the-refuge-menlo-park?adjust_creative=R39z9kjZ-1HrCCc7SW6pcw&utm_campaign=yelp_api_v3&utm_medium=api_v3_business_search&utm_source=R39z9kjZ-1HrCCc7SW6pcw", "review_count": 775, "categories": [{"alias": "sandwiches", "title": "Sandwiches"}, {"alias": "burgers", "title": "Burgers"}, {"alias": "gastropubs", "title": "Gastropubs"}], "rating": 4.0, "coordinates": {"latitude": 37.451286315918, "longitude": -122.185943603516}, "transactions": [], "price": "$$", "location": {"address1": "1143 Crane St", "address2": "", "address3": "", "city": "Menlo Park", "zip_code": "94025", "country": "US", "state": "CA", "display_address": ["1143 Crane St", "Menlo Park, CA 94025"]}, "phone": "+16503198197", "display_phone": "(650) 319-8197", "distance": 1286.9122610824634}, {"id": "clV0aKY87pWK5sykEu6T6w", "alias": "oak-violet-menlo-park", "name": "Oak + Violet", "image_url": "https://s3-media1.fl.yelpcdn.com/bphoto/pEDqYxpFXj-oIezGUWpOoA/o.jpg", "is_closed": false, "url": "https://www.yelp.com/biz/oak-violet-menlo-park?adjust_creative=R39z9kjZ-1HrCCc7SW6pcw&utm_campaign=yelp_api_v3&utm_medium=api_v3_business_search&utm_source=R39z9kjZ-1HrCCc7SW6pcw", "review_count": 138, "categories": [{"alias": "newamerican", "title": "American (New)"}], "rating": 3.5, "coordinates": {"latitude": 37.45633, "longitude": -122.18775}, "transactions": [], "location": {"address1": "1400 El Camino Real", "address2": null, "address3": "", "city": "Menlo Park", "zip_code": "94025", "country": "US", "state": "CA", "display_address": ["1400 El Camino Real", "Menlo Park, CA 94025"]}, "phone": "+16503043880", "display_phone": "(650) 304-3880", "distance": 790.4043461942357}, {"id": "hlbaFJAuSiKYVlCD-0jzlw", "alias": "piccolo-ristorante-italiano-menlo-park", "name": "Piccolo Ristorante Italiano", "image_url": "https://s3-media4.fl.yelpcdn.com/bphoto/ERU440LZ-mx0jEqItl-ISQ/o.jpg", "is_closed": false, "url": "https://www.yelp.com/biz/piccolo-ristorante-italiano-menlo-park?adjust_creative=R39z9kjZ-1HrCCc7SW6pcw&utm_campaign=yelp_api_v3&utm_medium=api_v3_business_search&utm_source=R39z9kjZ-1HrCCc7SW6pcw", "review_count": 233, "categories": [{"alias": "italian", "title": "Italian"}], "rating": 4.0, "coordinates": {"latitude": 37.453672766057, "longitude": -122.18456432402}, "transactions": ["pickup"], "price": "$$", "location": {"address1": "651 Oak Grove Ave", "address2": "Ste H", "address3": "", "city": "Menlo Park", "zip_code": "94025", "country": "US", "state": "CA", "display_address": ["651 Oak Grove Ave", "Ste H", "Menlo Park, CA 94025"]}, "phone": "+16503261314", "display_phone": "(650) 326-1314", "distance": 1182.0283935348232}, {"id": "pOmCDrTKrl3SnsWT4MLMGw", "alias": "kyosho-menlo-park-5", "name": "Kyosho", "image_url": "https://s3-media4.fl.yelpcdn.com/bphoto/wFpvWy7l3xUc_X4bxBES5w/o.jpg", "is_closed": false, "url": "https://www.yelp.com/biz/kyosho-menlo-park-5?adjust_creative=R39z9kjZ-1HrCCc7SW6pcw&utm_campaign=yelp_api_v3&utm_medium=api_v3_business_search&utm_source=R39z9kjZ-1HrCCc7SW6pcw", "review_count": 256, "categories": [{"alias": "japanese", "title": "Japanese"}, {"alias": "sushi", "title": "Sushi Bars"}], "rating": 4.0, "coordinates": {"latitude": 37.4533486924546, "longitude": -122.183094496672}, "transactions": [], "price": "$$$", "location": {"address1": "605 Santa Cruz Ave", "address2": "", "address3": null, "city": "Menlo Park", "zip_code": "94025", "country": "US", "state": "CA", "display_address": ["605 Santa Cruz Ave", "Menlo Park, CA 94025"]}, "phone": "+16506568181", "display_phone": "(650) 656-8181", "distance": 1306.335368502757}, {"id": "JANM5KuO8r1MiXY9kU3LRg", "alias": "shiok-singapore-kitchen-menlo-park", "name": "Shiok Singapore Kitchen", "image_url": "https://s3-media4.fl.yelpcdn.com/bphoto/HMnjn2tJD4zD9pRxv1D5gQ/o.jpg", "is_closed": false, "url": "https://www.yelp.com/biz/shiok-singapore-kitchen-menlo-park?adjust_creative=R39z9kjZ-1HrCCc7SW6pcw&utm_campaign=yelp_api_v3&utm_medium=api_v3_business_search&utm_source=R39z9kjZ-1HrCCc7SW6pcw", "review_count": 514, "categories": [{"alias": "chinese", "title": "Chinese"}, {"alias": "fooddeliveryservices", "title": "Food Delivery Services"}, {"alias": "catering", "title": "Caterers"}], "rating": 3.5, "coordinates": {"latitude": 37.4519739, "longitude": -122.1853542}, "transactions": ["pickup", "restaurant_reservation"], "price": "$$", "location": {"address1": "1137 Chestnut St", "address2": "", "address3": "", "city": "Menlo Park", "zip_code": "94025", "country": "US", "state": "CA", "display_address": ["1137 Chestnut St", "Menlo Park, CA 94025"]}, "phone": "+16508389448", "display_phone": "(650) 838-9448", "distance": 1262.325123642247}, {"id": "zg83ulOQw1m18kLoNHcXUA", "alias": "phils-kitchen-menlo-park", "name": "Phil's Kitchen", "image_url": "https://s3-media1.fl.yelpcdn.com/bphoto/pgXL7anudwixb-n01GWkwA/o.jpg", "is_closed": false, "url": "https://www.yelp.com/biz/phils-kitchen-menlo-park?adjust_creative=R39z9kjZ-1HrCCc7SW6pcw&utm_campaign=yelp_api_v3&utm_medium=api_v3_business_search&utm_source=R39z9kjZ-1HrCCc7SW6pcw", "review_count": 464, "categories": [{"alias": "chinese", "title": "Chinese"}, {"alias": "hawaiian", "title": "Hawaiian"}, {"alias": "bbq", "title": "Barbeque"}], "rating": 3.5, "coordinates": {"latitude": 37.4536749590389, "longitude": -122.184342294931}, "transactions": ["delivery", "pickup"], "price": "$", "location": {"address1": "625 Oak Grove Ave", "address2": "Unit B", "address3": "", "city": "Menlo Park", "zip_code": "94025", "country": "US", "state": "CA", "display_address": ["625 Oak Grove Ave", "Unit B", "Menlo Park, CA 94025"]}, "phone": "+16505614296", "display_phone": "(650) 561-4296", "distance": 1197.0948432531384}, {"id": "-X_yv6nSurDp-5V5iEC2tQ", "alias": "mama-coco-menlo-park-2", "name": "Mama Coco", "image_url": "https://s3-media1.fl.yelpcdn.com/bphoto/IITGLcovBddqIXjElm5f7A/o.jpg", "is_closed": false, "url": "https://www.yelp.com/biz/mama-coco-menlo-park-2?adjust_creative=R39z9kjZ-1HrCCc7SW6pcw&utm_campaign=yelp_api_v3&utm_medium=api_v3_business_search&utm_source=R39z9kjZ-1HrCCc7SW6pcw", "review_count": 339, "categories": [{"alias": "mexican", "title": "Mexican"}], "rating": 4.0, "coordinates": {"latitude": 37.4532811196003, "longitude": -122.182742026942}, "transactions": ["pickup"], "price": "$$", "location": {"address1": "1081 El Camino Real", "address2": "", "address3": "", "city": "Menlo Park", "zip_code": "94025", "country": "US", "state": "CA", "display_address": ["1081 El Camino Real", "Menlo Park, CA 94025"]}, "phone": "+16502726634", "display_phone": "(650) 272-6634", "distance": 1335.7728492930678}, {"id": "fI4WfPv44WvmpvaQlJciUw", "alias": "cooks-seafood-restaurant-and-market-menlo-park-2", "name": "Cook's Seafood Restaurant & Market", "image_url": "https://s3-media3.fl.yelpcdn.com/bphoto/-sN21Cl71OjB3wT3XOl9OA/o.jpg", "is_closed": false, "url": "https://www.yelp.com/biz/cooks-seafood-restaurant-and-market-menlo-park-2?adjust_creative=R39z9kjZ-1HrCCc7SW6pcw&utm_campaign=yelp_api_v3&utm_medium=api_v3_business_search&utm_source=R39z9kjZ-1HrCCc7SW6pcw", "review_count": 512, "categories": [{"alias": "seafood", "title": "Seafood"}, {"alias": "seafoodmarkets", "title": "Seafood Markets"}, {"alias": "fishnchips", "title": "Fish & Chips"}], "rating": 4.0, "coordinates": {"latitude": 37.45141, "longitude": -122.17966}, "transactions": ["delivery"], "price": "$$", "location": {"address1": "751 El Camino Real", "address2": "", "address3": "", "city": "Menlo Park", "zip_code": "94025", "country": "US", "state": "CA", "display_address": ["751 El Camino Real", "Menlo Park, CA 94025"]}, "phone": "+16503250604", "display_phone": "(650) 325-0604", "distance": 1682.3528519312129}, {"id": "Tuq1Ht5QoISVViAlAnyrZg", "alias": "cafe-borrone-menlo-park", "name": "Cafe Borrone", "image_url": "https://s3-media3.fl.yelpcdn.com/bphoto/jKOuPFIcqdtG47gRHqv1WQ/o.jpg", "is_closed": false, "url": "https://www.yelp.com/biz/cafe-borrone-menlo-park?adjust_creative=R39z9kjZ-1HrCCc7SW6pcw&utm_campaign=yelp_api_v3&utm_medium=api_v3_business_search&utm_source=R39z9kjZ-1HrCCc7SW6pcw", "review_count": 1697, "categories": [{"alias": "breakfast_brunch", "title": "Breakfast & Brunch"}, {"alias": "italian", "title": "Italian"}, {"alias": "cafes", "title": "Cafes"}], "rating": 4.0, "coordinates": {"latitude": 37.45368, "longitude": -122.18205}, "transactions": [], "price": "$$", "location": {"address1": "1010 El Camino Real", "address2": "", "address3": "", "city": "Menlo Park", "zip_code": "94025", "country": "US", "state": "CA", "display_address": ["1010 El Camino Real", "Menlo Park, CA 94025"]}, "phone": "+16503270830", "display_phone": "(650) 327-0830", "distance": 1371.8792854144788}, {"id": "rv7A5iaj4C-eIAe-j7av0A", "alias": "selbys-redwood-city-2", "name": "Selby's", "image_url": "https://s3-media2.fl.yelpcdn.com/bphoto/BloC_Z-B4Byfvfq53tyRnA/o.jpg", "is_closed": false, "url": "https://www.yelp.com/biz/selbys-redwood-city-2?adjust_creative=R39z9kjZ-1HrCCc7SW6pcw&utm_campaign=yelp_api_v3&utm_medium=api_v3_business_search&utm_source=R39z9kjZ-1HrCCc7SW6pcw", "review_count": 57, "categories": [{"alias": "steak", "title": "Steakhouses"}, {"alias": "desserts", "title": "Desserts"}, {"alias": "burgers", "title": "Burgers"}], "rating": 4.0, "coordinates": {"latitude": 37.46857, "longitude": -122.21037}, "transactions": [], "price": "$$$$", "location": {"address1": "3001 El Camino Real", "address2": "", "address3": null, "city": "Redwood City", "zip_code": "94061", "country": "US", "state": "CA", "display_address": ["3001 El Camino Real", "Redwood City, CA 94061"]}, "phone": "+16505467700", "display_phone": "(650) 546-7700", "distance": 1639.5862858681203}, {"id": "4ZuYcSaKrYi1524imY8KLw", "alias": "cuco-s-burritos-redwood-city", "name": "Cuco\u2019s Burritos", "image_url": "https://s3-media4.fl.yelpcdn.com/bphoto/jfno2k0nXI5xVIzvnd-hbQ/o.jpg", "is_closed": false, "url": "https://www.yelp.com/biz/cuco-s-burritos-redwood-city?adjust_creative=R39z9kjZ-1HrCCc7SW6pcw&utm_campaign=yelp_api_v3&utm_medium=api_v3_business_search&utm_source=R39z9kjZ-1HrCCc7SW6pcw", "review_count": 154, "categories": [{"alias": "mexican", "title": "Mexican"}, {"alias": "breakfast_brunch", "title": "Breakfast & Brunch"}], "rating": 5.0, "coordinates": {"latitude": 37.47551, "longitude": -122.20925}, "transactions": ["delivery", "pickup"], "location": {"address1": "2855 Middlefield Rd", "address2": null, "address3": "", "city": "Redwood City", "zip_code": "94063", "country": "US", "state": "CA", "display_address": ["2855 Middlefield Rd", "Redwood City, CA 94063"]}, "phone": "+16503623474", "display_phone": "(650) 362-3474", "distance": 2102.2234870813213}, {"id": "0k58IxlG1h3FYJN_T9mLGw", "alias": "camper-menlo-park", "name": "Camper", "image_url": "https://s3-media2.fl.yelpcdn.com/bphoto/ws6QLm-ewgSSMe47d0Wc-g/o.jpg", "is_closed": false, "url": "https://www.yelp.com/biz/camper-menlo-park?adjust_creative=R39z9kjZ-1HrCCc7SW6pcw&utm_campaign=yelp_api_v3&utm_medium=api_v3_business_search&utm_source=R39z9kjZ-1HrCCc7SW6pcw", "review_count": 151, "categories": [{"alias": "newamerican", "title": "American (New)"}, {"alias": "cocktailbars", "title": "Cocktail Bars"}], "rating": 4.0, "coordinates": {"latitude": 37.4501599, "longitude": -122.18613}, "transactions": [], "price": "$$$", "location": {"address1": "898 Santa Cruz Ave", "address2": null, "address3": null, "city": "Menlo Park", "zip_code": "94025", "country": "US", "state": "CA", "display_address": ["898 Santa Cruz Ave", "Menlo Park, CA 94025"]}, "phone": "+16503218980", "display_phone": "(650) 321-8980", "distance": 1379.232592612705}, {"id": "BJhWbsmZBrPXfBStk-nuHA", "alias": "sultana-mediterranean-menlo-park-2", "name": "Sultana Mediterranean", "image_url": "https://s3-media1.fl.yelpcdn.com/bphoto/EV0fWkUB6FtFIS5rUpYpEw/o.jpg", "is_closed": false, "url": "https://www.yelp.com/biz/sultana-mediterranean-menlo-park-2?adjust_creative=R39z9kjZ-1HrCCc7SW6pcw&utm_campaign=yelp_api_v3&utm_medium=api_v3_business_search&utm_source=R39z9kjZ-1HrCCc7SW6pcw", "review_count": 560, "categories": [{"alias": "turkish", "title": "Turkish"}, {"alias": "mediterranean", "title": "Mediterranean"}, {"alias": "wine_bars", "title": "Wine Bars"}], "rating": 4.0, "coordinates": {"latitude": 37.4537669520235, "longitude": -122.183570187746}, "transactions": ["delivery", "pickup"], "price": "$$", "location": {"address1": "1149 El Camino Real", "address2": null, "address3": "", "city": "Menlo Park", "zip_code": "94025", "country": "US", "state": "CA", "display_address": ["1149 El Camino Real", "Menlo Park, CA 94025"]}, "phone": "+16503224343", "display_phone": "(650) 322-4343", "distance": 1239.874582107417}, {"id": "TmyzjqWM3_8tKveVaB--Mg", "alias": "gombei-japanese-restaurant-menlo-park", "name": "Gombei Japanese Restaurant", "image_url": "https://s3-media1.fl.yelpcdn.com/bphoto/hxFMx9_2FOWZnRtnUpIFCg/o.jpg", "is_closed": false, "url": "https://www.yelp.com/biz/gombei-japanese-restaurant-menlo-park?adjust_creative=R39z9kjZ-1HrCCc7SW6pcw&utm_campaign=yelp_api_v3&utm_medium=api_v3_business_search&utm_source=R39z9kjZ-1HrCCc7SW6pcw", "review_count": 414, "categories": [{"alias": "japanese", "title": "Japanese"}], "rating": 3.5, "coordinates": {"latitude": 37.456626, "longitude": -122.188331}, "transactions": ["pickup"], "price": "$$", "location": {"address1": "1438 El Camino Real", "address2": "", "address3": "", "city": "Menlo Park", "zip_code": "94025", "country": "US", "state": "CA", "display_address": ["1438 El Camino Real", "Menlo Park, CA 94025"]}, "phone": "+16503291799", "display_phone": "(650) 329-1799", "distance": 720.3322501532186}, {"id": "OT8K9W2MUO-qfspK_2ktFQ", "alias": "mami-cheli-s-menlo-park", "name": "Mami Cheli\u2019s", "image_url": "https://s3-media4.fl.yelpcdn.com/bphoto/gJLFOKlCYlDCcoTnjfvCiw/o.jpg", "is_closed": false, "url": "https://www.yelp.com/biz/mami-cheli-s-menlo-park?adjust_creative=R39z9kjZ-1HrCCc7SW6pcw&utm_campaign=yelp_api_v3&utm_medium=api_v3_business_search&utm_source=R39z9kjZ-1HrCCc7SW6pcw", "review_count": 110, "categories": [{"alias": "mexican", "title": "Mexican"}], "rating": 4.0, "coordinates": {"latitude": 37.45257, "longitude": -122.18169}, "transactions": ["delivery"], "price": "$", "location": {"address1": "989 El Camino Real", "address2": "Ste B", "address3": null, "city": "Menlo Park", "zip_code": "94025", "country": "US", "state": "CA", "display_address": ["989 El Camino Real", "Ste B", "Menlo Park, CA 94025"]}, "phone": "+16505210636", "display_phone": "(650) 521-0636", "distance": 1466.0698817357904}, {"id": "7lmzuo16-guDouA-6nj6eg", "alias": "left-bank-menlo-park-menlo-park", "name": "Left Bank -  Menlo Park", "image_url": "https://s3-media1.fl.yelpcdn.com/bphoto/SuUKK0CHLImUQKFmJTtt6A/o.jpg", "is_closed": false, "url": "https://www.yelp.com/biz/left-bank-menlo-park-menlo-park?adjust_creative=R39z9kjZ-1HrCCc7SW6pcw&utm_campaign=yelp_api_v3&utm_medium=api_v3_business_search&utm_source=R39z9kjZ-1HrCCc7SW6pcw", "review_count": 710, "categories": [{"alias": "french", "title": "French"}, {"alias": "brasseries", "title": "Brasseries"}, {"alias": "cocktailbars", "title": "Cocktail Bars"}], "rating": 3.5, "coordinates": {"latitude": 37.452648, "longitude": -122.183333}, "transactions": [], "price": "$$", "location": {"address1": "635 Santa Cruz Ave", "address2": "", "address3": "", "city": "Menlo Park", "zip_code": "94025", "country": "US", "state": "CA", "display_address": ["635 Santa Cruz Ave", "Menlo Park, CA 94025"]}, "phone": "+16504736543", "display_phone": "(650) 473-6543", "distance": 1338.4670470410308}, {"id": "uWhQc8pgOYtS-bsz_sbPZw", "alias": "freewheel-brewing-company-redwood-city", "name": "Freewheel Brewing Company", "image_url": "https://s3-media2.fl.yelpcdn.com/bphoto/BdoWs7AQ8vHEOnJuTm7sgg/o.jpg", "is_closed": false, "url": "https://www.yelp.com/biz/freewheel-brewing-company-redwood-city?adjust_creative=R39z9kjZ-1HrCCc7SW6pcw&utm_campaign=yelp_api_v3&utm_medium=api_v3_business_search&utm_source=R39z9kjZ-1HrCCc7SW6pcw", "review_count": 300, "categories": [{"alias": "breweries", "title": "Breweries"}, {"alias": "burgers", "title": "Burgers"}, {"alias": "pubs", "title": "Pubs"}], "rating": 4.0, "coordinates": {"latitude": 37.4782534, "longitude": -122.1869481}, "transactions": [], "price": "$$", "location": {"address1": "3736 Florence St", "address2": "", "address3": "", "city": "Redwood City", "zip_code": "94063", "country": "US", "state": "CA", "display_address": ["3736 Florence St", "Redwood City, CA 94063"]}, "phone": "+16503652337", "display_phone": "(650) 365-2337", "distance": 2104.8000658808473}, {"id": "7hdpJs1Vre804Gd4pW4bjg", "alias": "hometown-noodle-redwood-city", "name": "Hometown Noodle", "image_url": "https://s3-media3.fl.yelpcdn.com/bphoto/N2A5Xqvfn0b7nbBemD_C8w/o.jpg", "is_closed": false, "url": "https://www.yelp.com/biz/hometown-noodle-redwood-city?adjust_creative=R39z9kjZ-1HrCCc7SW6pcw&utm_campaign=yelp_api_v3&utm_medium=api_v3_business_search&utm_source=R39z9kjZ-1HrCCc7SW6pcw", "review_count": 576, "categories": [{"alias": "vietnamese", "title": "Vietnamese"}, {"alias": "noodles", "title": "Noodles"}], "rating": 3.5, "coordinates": {"latitude": 37.47249, "longitude": -122.20454}, "transactions": ["pickup"], "price": "$$", "location": {"address1": "3151 Middlefield Rd", "address2": "", "address3": "", "city": "Redwood City", "zip_code": "94063", "country": "US", "state": "CA", "display_address": ["3151 Middlefield Rd", "Redwood City, CA 94063"]}, "phone": "+16503670567", "display_phone": "(650) 367-0567", "distance": 1596.8373202939242}, {"id": "bo2hGBcjXn6XMGHe5x28rA", "alias": "celias-mexican-restaurant-menlo-park-menlo-park-2", "name": "Celia's Mexican Restaurant - Menlo Park", "image_url": "https://s3-media1.fl.yelpcdn.com/bphoto/rLXd2jq3x1wU9hyDVoq9Mg/o.jpg", "is_closed": false, "url": "https://www.yelp.com/biz/celias-mexican-restaurant-menlo-park-menlo-park-2?adjust_creative=R39z9kjZ-1HrCCc7SW6pcw&utm_campaign=yelp_api_v3&utm_medium=api_v3_business_search&utm_source=R39z9kjZ-1HrCCc7SW6pcw", "review_count": 247, "categories": [{"alias": "mexican", "title": "Mexican"}, {"alias": "cocktailbars", "title": "Cocktail Bars"}], "rating": 3.0, "coordinates": {"latitude": 37.45941, "longitude": -122.19402}, "transactions": [], "price": "$$", "location": {"address1": "1850 El Camino Real", "address2": "", "address3": null, "city": "Menlo Park", "zip_code": "94025", "country": "US", "state": "CA", "display_address": ["1850 El Camino Real", "Menlo Park, CA 94025"]}, "phone": "+16503218227", "display_phone": "(650) 321-8227", "distance": 110.15483281573171}, {"id": "INo-8XQp2O6RYon8qlcP5w", "alias": "mexcal-taqueria-menlo-park", "name": "Mexcal Taqueria", "image_url": "https://s3-media4.fl.yelpcdn.com/bphoto/xqFeitIJTbySSXTTC8xvGg/o.jpg", "is_closed": false, "url": "https://www.yelp.com/biz/mexcal-taqueria-menlo-park?adjust_creative=R39z9kjZ-1HrCCc7SW6pcw&utm_campaign=yelp_api_v3&utm_medium=api_v3_business_search&utm_source=R39z9kjZ-1HrCCc7SW6pcw", "review_count": 125, "categories": [{"alias": "mexican", "title": "Mexican"}], "rating": 4.5, "coordinates": {"latitude": 37.4721970993725, "longitude": -122.203838099256}, "transactions": ["delivery", "pickup"], "price": "$", "location": {"address1": "3215 Middlefield Rd", "address2": "", "address3": "", "city": "Menlo Park", "zip_code": "94025", "country": "US", "state": "CA", "display_address": ["3215 Middlefield Rd", "Menlo Park, CA 94025"]}, "phone": "+16503663922", "display_phone": "(650) 366-3922", "distance": 1528.558812931008}, {"id": "7DQX3zEpAhH6WyUtVnUcYQ", "alias": "yum-cha-palace-menlo-park", "name": "Yum Cha Palace", "image_url": "https://s3-media2.fl.yelpcdn.com/bphoto/jG4tZXkO6KMAXAQKB6E-LA/o.jpg", "is_closed": false, "url": "https://www.yelp.com/biz/yum-cha-palace-menlo-park?adjust_creative=R39z9kjZ-1HrCCc7SW6pcw&utm_campaign=yelp_api_v3&utm_medium=api_v3_business_search&utm_source=R39z9kjZ-1HrCCc7SW6pcw", "review_count": 258, "categories": [{"alias": "dimsum", "title": "Dim Sum"}], "rating": 3.5, "coordinates": {"latitude": 37.45299, "longitude": -122.18243}, "transactions": [], "price": "$$", "location": {"address1": "1039 El Camino Real", "address2": "", "address3": "", "city": "Menlo Park", "zip_code": "94025", "country": "US", "state": "CA", "display_address": ["1039 El Camino Real", "Menlo Park, CA 94025"]}, "phone": "+16507526173", "display_phone": "(650) 752-6173", "distance": 1368.5659312962302}, {"id": "dCsewYFIb2qWjl6N1kXDJA", "alias": "mountain-mikes-pizza-menlo-park-2", "name": "Mountain Mike's Pizza", "image_url": "https://s3-media2.fl.yelpcdn.com/bphoto/SooFdyWk7xMcPF8-kXQ2rw/o.jpg", "is_closed": false, "url": "https://www.yelp.com/biz/mountain-mikes-pizza-menlo-park-2?adjust_creative=R39z9kjZ-1HrCCc7SW6pcw&utm_campaign=yelp_api_v3&utm_medium=api_v3_business_search&utm_source=R39z9kjZ-1HrCCc7SW6pcw", "review_count": 8, "categories": [{"alias": "pizza", "title": "Pizza"}], "rating": 2.5, "coordinates": {"latitude": 37.4527958, "longitude": -122.184266}, "transactions": [], "location": {"address1": "1001 El Camino Real", "address2": "", "address3": null, "city": "Menlo Park", "zip_code": "94025", "country": "US", "state": "CA", "display_address": ["1001 El Camino Real", "Menlo Park, CA 94025"]}, "phone": "+16546949898", "display_phone": "(654) 694-9898", "distance": 1265.5878685145028}, {"id": "4iFVdQyWn4dmGNaYJMv4ow", "alias": "bistro-vida-menlo-park", "name": "Bistro Vida", "image_url": "https://s3-media4.fl.yelpcdn.com/bphoto/ArcuJ0wAQJPb5WjwQXpXvg/o.jpg", "is_closed": false, "url": "https://www.yelp.com/biz/bistro-vida-menlo-park?adjust_creative=R39z9kjZ-1HrCCc7SW6pcw&utm_campaign=yelp_api_v3&utm_medium=api_v3_business_search&utm_source=R39z9kjZ-1HrCCc7SW6pcw", "review_count": 493, "categories": [{"alias": "french", "title": "French"}], "rating": 3.5, "coordinates": {"latitude": 37.452544, "longitude": -122.183612}, "transactions": [], "price": "$$", "location": {"address1": "641 Santa Cruz Ave", "address2": "", "address3": "", "city": "Menlo Park", "zip_code": "94025", "country": "US", "state": "CA", "display_address": ["641 Santa Cruz Ave", "Menlo Park, CA 94025"]}, "phone": "+16504621686", "display_phone": "(650) 462-1686", "distance": 1327.340479344566}, {"id": "JCbRcS9MWloQV0H0AzOzHA", "alias": "octopus-japanese-restaurant-menlo-park", "name": "Octopus Japanese Restaurant", "image_url": "https://s3-media2.fl.yelpcdn.com/bphoto/pQ4FKu0wBHRPwuHuzwaJFg/o.jpg", "is_closed": false, "url": "https://www.yelp.com/biz/octopus-japanese-restaurant-menlo-park?adjust_creative=R39z9kjZ-1HrCCc7SW6pcw&utm_campaign=yelp_api_v3&utm_medium=api_v3_business_search&utm_source=R39z9kjZ-1HrCCc7SW6pcw", "review_count": 129, "categories": [{"alias": "sushi", "title": "Sushi Bars"}, {"alias": "japanese", "title": "Japanese"}], "rating": 4.0, "coordinates": {"latitude": 37.45234, "longitude": -122.18111}, "transactions": [], "price": "$$", "location": {"address1": "925 El Camino Real", "address2": null, "address3": "", "city": "Menlo Park", "zip_code": "94025", "country": "US", "state": "CA", "display_address": ["925 El Camino Real", "Menlo Park, CA 94025"]}, "phone": "+16506008794", "display_phone": "(650) 600-8794", "distance": 1523.873764918077}, {"id": "EXcznitBE_ZwyHPKhF8Qkw", "alias": "fey-restaurant-menlo-park", "name": "Fey Restaurant", "image_url": "https://s3-media4.fl.yelpcdn.com/bphoto/T9U8aDs1Dy8QO3rkmV4G2w/o.jpg", "is_closed": false, "url": "https://www.yelp.com/biz/fey-restaurant-menlo-park?adjust_creative=R39z9kjZ-1HrCCc7SW6pcw&utm_campaign=yelp_api_v3&utm_medium=api_v3_business_search&utm_source=R39z9kjZ-1HrCCc7SW6pcw", "review_count": 276, "categories": [{"alias": "szechuan", "title": "Szechuan"}], "rating": 3.0, "coordinates": {"latitude": 37.4559, "longitude": -122.18668}, "transactions": ["pickup", "delivery"], "price": "$$", "location": {"address1": "1368 El Camino Real", "address2": null, "address3": "", "city": "Menlo Park", "zip_code": "94025", "country": "US", "state": "CA", "display_address": ["1368 El Camino Real", "Menlo Park, CA 94025"]}, "phone": "+16503248888", "display_phone": "(650) 324-8888", "distance": 888.4056639195924}, {"id": "IccyNXafP876EY6vkHetbg", "alias": "mp-mongolian-bbq-menlo-park", "name": "MP Mongolian BBQ", "image_url": "https://s3-media1.fl.yelpcdn.com/bphoto/HbJVxRxthSrx8eEJygaHlQ/o.jpg", "is_closed": false, "url": "https://www.yelp.com/biz/mp-mongolian-bbq-menlo-park?adjust_creative=R39z9kjZ-1HrCCc7SW6pcw&utm_campaign=yelp_api_v3&utm_medium=api_v3_business_search&utm_source=R39z9kjZ-1HrCCc7SW6pcw", "review_count": 300, "categories": [{"alias": "buffets", "title": "Buffets"}, {"alias": "chinese", "title": "Chinese"}], "rating": 3.5, "coordinates": {"latitude": 37.451705, "longitude": -122.178848}, "transactions": [], "price": "$$", "location": {"address1": "700 El Camino Real", "address2": "Ste 170", "address3": "", "city": "Menlo Park", "zip_code": "94025", "country": "US", "state": "CA", "display_address": ["700 El Camino Real", "Ste 170", "Menlo Park, CA 94025"]}, "phone": "+16508531118", "display_phone": "(650) 853-1118", "distance": 1717.576856553102}, {"id": "D461S2QHRiHXQMDaoFdeIg", "alias": "los-carnalitos-redwood-city-3", "name": "Los Carnalitos", "image_url": "https://s3-media2.fl.yelpcdn.com/bphoto/tihkOkeblf2wvMCa3u-HZw/o.jpg", "is_closed": false, "url": "https://www.yelp.com/biz/los-carnalitos-redwood-city-3?adjust_creative=R39z9kjZ-1HrCCc7SW6pcw&utm_campaign=yelp_api_v3&utm_medium=api_v3_business_search&utm_source=R39z9kjZ-1HrCCc7SW6pcw", "review_count": 165, "categories": [{"alias": "foodtrucks", "title": "Food Trucks"}, {"alias": "mexican", "title": "Mexican"}], "rating": 4.5, "coordinates": {"latitude": 37.46933, "longitude": -122.21135}, "transactions": [], "price": "$", "location": {"address1": "2907 El Camino Real", "address2": null, "address3": "", "city": "Redwood City", "zip_code": "94063", "country": "US", "state": "CA", "display_address": ["2907 El Camino Real", "Redwood City, CA 94063"]}, "phone": "+16503155090", "display_phone": "(650) 315-5090", "distance": 1739.008732650338}, {"id": "vLxAfRyNBzSxzbnp0iNk4A", "alias": "j-and-j-hawaiian-bbq-menlo-park", "name": "J & J Hawaiian BBQ", "image_url": "https://s3-media1.fl.yelpcdn.com/bphoto/I2_pX4_Sef00c9f3tU2gKw/o.jpg", "is_closed": false, "url": "https://www.yelp.com/biz/j-and-j-hawaiian-bbq-menlo-park?adjust_creative=R39z9kjZ-1HrCCc7SW6pcw&utm_campaign=yelp_api_v3&utm_medium=api_v3_business_search&utm_source=R39z9kjZ-1HrCCc7SW6pcw", "review_count": 143, "categories": [{"alias": "hawaiian", "title": "Hawaiian"}, {"alias": "chinese", "title": "Chinese"}], "rating": 3.5, "coordinates": {"latitude": 37.45564, "longitude": -122.18286}, "transactions": [], "price": "$", "location": {"address1": "1170 Alma St", "address2": "", "address3": "", "city": "Menlo Park", "zip_code": "94025", "country": "US", "state": "CA", "display_address": ["1170 Alma St", "Menlo Park, CA 94025"]}, "phone": "+16503236137", "display_phone": "(650) 323-6137", "distance": 1197.5232876352027}, {"id": "CG3XatPWpGDTzMTqq_LRRA", "alias": "capelos-barbecue-redwood-city", "name": "Capelo's Barbecue", "image_url": "https://s3-media1.fl.yelpcdn.com/bphoto/k0e3pgJlyExFkhsmLIisWA/o.jpg", "is_closed": false, "url": "https://www.yelp.com/biz/capelos-barbecue-redwood-city?adjust_creative=R39z9kjZ-1HrCCc7SW6pcw&utm_campaign=yelp_api_v3&utm_medium=api_v3_business_search&utm_source=R39z9kjZ-1HrCCc7SW6pcw", "review_count": 230, "categories": [{"alias": "bbq", "title": "Barbeque"}, {"alias": "foodtrucks", "title": "Food Trucks"}], "rating": 4.5, "coordinates": {"latitude": 37.4770934, "longitude": -122.2115173}, "transactions": [], "price": "$$", "location": {"address1": "2655 Middlefield Rd", "address2": "", "address3": "", "city": "Redwood City", "zip_code": "94063", "country": "US", "state": "CA", "display_address": ["2655 Middlefield Rd", "Redwood City, CA 94063"]}, "phone": "+16507015433", "display_phone": "(650) 701-5433", "distance": 2363.432299377668}, {"id": "pPo3-D05eMKJFmmB8lRp1A", "alias": "trellis-restaurant-menlo-park-2", "name": "Trellis Restaurant", "image_url": "https://s3-media4.fl.yelpcdn.com/bphoto/7Tf9V0TiESCG_G9nE-Ypmw/o.jpg", "is_closed": false, "url": "https://www.yelp.com/biz/trellis-restaurant-menlo-park-2?adjust_creative=R39z9kjZ-1HrCCc7SW6pcw&utm_campaign=yelp_api_v3&utm_medium=api_v3_business_search&utm_source=R39z9kjZ-1HrCCc7SW6pcw", "review_count": 218, "categories": [{"alias": "italian", "title": "Italian"}], "rating": 3.5, "coordinates": {"latitude": 37.45308, "longitude": -122.1826}, "transactions": ["pickup", "delivery"], "price": "$$", "location": {"address1": "1077 El Camino Real", "address2": "", "address3": "", "city": "Menlo Park", "zip_code": "94025", "country": "US", "state": "CA", "display_address": ["1077 El Camino Real", "Menlo Park, CA 94025"]}, "phone": "+16503269028", "display_phone": "(650) 326-9028", "distance": 1346.5953781461285}, {"id": "ig90VggWkyvxdOn47vzmwA", "alias": "falafel-and-things-redwood-city-2", "name": "Falafel and Things", "image_url": "https://s3-media2.fl.yelpcdn.com/bphoto/xt69z9UoISBfYucpicUsUw/o.jpg", "is_closed": false, "url": "https://www.yelp.com/biz/falafel-and-things-redwood-city-2?adjust_creative=R39z9kjZ-1HrCCc7SW6pcw&utm_campaign=yelp_api_v3&utm_medium=api_v3_business_search&utm_source=R39z9kjZ-1HrCCc7SW6pcw", "review_count": 41, "categories": [{"alias": "foodtrucks", "title": "Food Trucks"}, {"alias": "falafel", "title": "Falafel"}, {"alias": "mideastern", "title": "Middle Eastern"}], "rating": 5.0, "coordinates": {"latitude": 37.4833666, "longitude": -122.2055989}, "transactions": [], "price": "$$", "location": {"address1": "2766 Bay Rd", "address2": null, "address3": "", "city": "Redwood City", "zip_code": "94063", "country": "US", "state": "CA", "display_address": ["2766 Bay Rd", "Redwood City, CA 94063"]}, "phone": "+15103616207", "display_phone": "(510) 361-6207", "distance": 2720.753316380897}, {"id": "Efe_pNjctgNDuooerJn7eg", "alias": "pupuseria-nineth-redwood-city", "name": "Pupuseria Nineth", "image_url": "https://s3-media3.fl.yelpcdn.com/bphoto/f9Qb4b2soOWPXjc_VarwZQ/o.jpg", "is_closed": false, "url": "https://www.yelp.com/biz/pupuseria-nineth-redwood-city?adjust_creative=R39z9kjZ-1HrCCc7SW6pcw&utm_campaign=yelp_api_v3&utm_medium=api_v3_business_search&utm_source=R39z9kjZ-1HrCCc7SW6pcw", "review_count": 18, "categories": [{"alias": "salvadoran", "title": "Salvadoran"}, {"alias": "seafood", "title": "Seafood"}, {"alias": "mexican", "title": "Mexican"}], "rating": 3.5, "coordinates": {"latitude": 37.4683541, "longitude": -122.2084362}, "transactions": [], "location": {"address1": "55 5th Ave", "address2": "Ste B", "address3": "", "city": "Redwood City", "zip_code": "94063", "country": "US", "state": "CA", "display_address": ["55 5th Ave", "Ste B", "Redwood City, CA 94063"]}, "phone": "+16509953895", "display_phone": "(650) 995-3895", "distance": 1484.197082106473}, {"id": "1WieatcYl_e0T5AutIObCA", "alias": "jans-deli-menlo-park", "name": "Jan's Deli", "image_url": "https://s3-media1.fl.yelpcdn.com/bphoto/zEnT6nIydOdCM5lnUYzqwQ/o.jpg", "is_closed": false, "url": "https://www.yelp.com/biz/jans-deli-menlo-park?adjust_creative=R39z9kjZ-1HrCCc7SW6pcw&utm_campaign=yelp_api_v3&utm_medium=api_v3_business_search&utm_source=R39z9kjZ-1HrCCc7SW6pcw", "review_count": 106, "categories": [{"alias": "delis", "title": "Delis"}], "rating": 4.0, "coordinates": {"latitude": 37.4543836, "longitude": -122.1809966}, "transactions": [], "price": "$", "location": {"address1": "1004 Alma St", "address2": "", "address3": "", "city": "Menlo Park", "zip_code": "94025", "country": "US", "state": "CA", "display_address": ["1004 Alma St", "Menlo Park, CA 94025"]}, "phone": "+16503219372", "display_phone": "(650) 321-9372", "distance": 1427.5782771633726}, {"id": "ZXBuLE-wnrseaed-N_-A1w", "alias": "juban-yakiniku-house-menlo-park", "name": "Juban Yakiniku House", "image_url": "https://s3-media1.fl.yelpcdn.com/bphoto/LZ0kCFtlBofwRNjKi9NaLA/o.jpg", "is_closed": false, "url": "https://www.yelp.com/biz/juban-yakiniku-house-menlo-park?adjust_creative=R39z9kjZ-1HrCCc7SW6pcw&utm_campaign=yelp_api_v3&utm_medium=api_v3_business_search&utm_source=R39z9kjZ-1HrCCc7SW6pcw", "review_count": 255, "categories": [{"alias": "japanese", "title": "Japanese"}, {"alias": "bbq", "title": "Barbeque"}], "rating": 3.5, "coordinates": {"latitude": 37.45209, "longitude": -122.18468}, "transactions": ["delivery", "pickup"], "price": "$$", "location": {"address1": "712 Santa Cruz Ave", "address2": "", "address3": "", "city": "Menlo Park", "zip_code": "94025", "country": "US", "state": "CA", "display_address": ["712 Santa Cruz Ave", "Menlo Park, CA 94025"]}, "phone": "+16504736458", "display_phone": "(650) 473-6458", "distance": 1301.5734092882415}, {"id": "ry_hcUjH3Z76cErMCmdwGA", "alias": "british-bankers-club-menlo-park-4", "name": "British Bankers Club", "image_url": "https://s3-media2.fl.yelpcdn.com/bphoto/Q0wT3CTEADm7C6lqi-gKfQ/o.jpg", "is_closed": false, "url": "https://www.yelp.com/biz/british-bankers-club-menlo-park-4?adjust_creative=R39z9kjZ-1HrCCc7SW6pcw&utm_campaign=yelp_api_v3&utm_medium=api_v3_business_search&utm_source=R39z9kjZ-1HrCCc7SW6pcw", "review_count": 203, "categories": [{"alias": "bars", "title": "Bars"}, {"alias": "tradamerican", "title": "American (Traditional)"}, {"alias": "breakfast_brunch", "title": "Breakfast & Brunch"}], "rating": 3.5, "coordinates": {"latitude": 37.4538765, "longitude": -122.1825821}, "transactions": [], "price": "$$$", "location": {"address1": "555 Santa Cruz Ave", "address2": "", "address3": null, "city": "Menlo Park", "zip_code": "94025", "country": "US", "state": "CA", "display_address": ["555 Santa Cruz Ave", "Menlo Park, CA 94025"]}, "phone": "+16503823191", "display_phone": "(650) 382-3191", "distance": 1310.4623648771885}, {"id": "tYQcVu0HOQXKBU039QAGdg", "alias": "ristorante-carpaccio-menlo-park", "name": "Ristorante Carpaccio", "image_url": "https://s3-media2.fl.yelpcdn.com/bphoto/K6wYI6arJUDBycrdI2_1Ww/o.jpg", "is_closed": false, "url": "https://www.yelp.com/biz/ristorante-carpaccio-menlo-park?adjust_creative=R39z9kjZ-1HrCCc7SW6pcw&utm_campaign=yelp_api_v3&utm_medium=api_v3_business_search&utm_source=R39z9kjZ-1HrCCc7SW6pcw", "review_count": 364, "categories": [{"alias": "italian", "title": "Italian"}], "rating": 3.5, "coordinates": {"latitude": 37.45149, "longitude": -122.18538}, "transactions": ["delivery", "pickup"], "price": "$$", "location": {"address1": "1120 Crane St", "address2": "", "address3": "", "city": "Menlo Park", "zip_code": "94025", "country": "US", "state": "CA", "display_address": ["1120 Crane St", "Menlo Park, CA 94025"]}, "phone": "+16503221211", "display_phone": "(650) 322-1211", "distance": 1296.3303693593048}, {"id": "M8yO9-nJpVL7XGqWy3BkBQ", "alias": "jeffreys-hamburgers-menlo-park", "name": "Jeffrey's Hamburgers", "image_url": "https://s3-media4.fl.yelpcdn.com/bphoto/eD9yhVzzftxnXZtvu4okVA/o.jpg", "is_closed": false, "url": "https://www.yelp.com/biz/jeffreys-hamburgers-menlo-park?adjust_creative=R39z9kjZ-1HrCCc7SW6pcw&utm_campaign=yelp_api_v3&utm_medium=api_v3_business_search&utm_source=R39z9kjZ-1HrCCc7SW6pcw", "review_count": 528, "categories": [{"alias": "burgers", "title": "Burgers"}, {"alias": "tradamerican", "title": "American (Traditional)"}], "rating": 3.5, "coordinates": {"latitude": 37.45258, "longitude": -122.18009}, "transactions": ["delivery"], "price": "$$", "location": {"address1": "888 El Camino Real", "address2": "", "address3": "", "city": "Menlo Park", "zip_code": "94025", "country": "US", "state": "CA", "display_address": ["888 El Camino Real", "Menlo Park, CA 94025"]}, "phone": "+16503221959", "display_phone": "(650) 322-1959", "distance": 1565.7209878562007}, {"id": "aV6Sd688CD4drkiFEFREAA", "alias": "mademoiselle-colette-menlo-park", "name": "Mademoiselle Colette", "image_url": "https://s3-media3.fl.yelpcdn.com/bphoto/PS3-oSpHu34XT6aFK2s_Yw/o.jpg", "is_closed": false, "url": "https://www.yelp.com/biz/mademoiselle-colette-menlo-park?adjust_creative=R39z9kjZ-1HrCCc7SW6pcw&utm_campaign=yelp_api_v3&utm_medium=api_v3_business_search&utm_source=R39z9kjZ-1HrCCc7SW6pcw", "review_count": 341, "categories": [{"alias": "breakfast_brunch", "title": "Breakfast & Brunch"}, {"alias": "bakeries", "title": "Bakeries"}, {"alias": "coffee", "title": "Coffee & Tea"}], "rating": 4.0, "coordinates": {"latitude": 37.45094, "longitude": -122.18543}, "transactions": ["delivery", "pickup"], "price": "$$", "location": {"address1": "816 Santa Cruz Ave", "address2": "", "address3": "", "city": "Menlo Park", "zip_code": "94025", "country": "US", "state": "CA", "display_address": ["816 Santa Cruz Ave", "Menlo Park, CA 94025"]}, "phone": "+16506448469", "display_phone": "(650) 644-8469", "distance": 1344.0334384789974}, {"id": "BFqtQdJL3LwxdFNN5nipvA", "alias": "squeeze-in-redwood-city", "name": "Squeeze In", "image_url": "https://s3-media3.fl.yelpcdn.com/bphoto/BP-gRe1NDrMdlKC986hZkQ/o.jpg", "is_closed": false, "url": "https://www.yelp.com/biz/squeeze-in-redwood-city?adjust_creative=R39z9kjZ-1HrCCc7SW6pcw&utm_campaign=yelp_api_v3&utm_medium=api_v3_business_search&utm_source=R39z9kjZ-1HrCCc7SW6pcw", "review_count": 533, "categories": [{"alias": "breakfast_brunch", "title": "Breakfast & Brunch"}, {"alias": "tradamerican", "title": "American (Traditional)"}], "rating": 4.0, "coordinates": {"latitude": 37.478538, "longitude": -122.187261}, "transactions": [], "price": "$$", "location": {"address1": "3710 Florence St", "address2": "", "address3": "", "city": "Redwood City", "zip_code": "94063", "country": "US", "state": "CA", "display_address": ["3710 Florence St", "Redwood City, CA 94063"]}, "phone": "+16503619500", "display_phone": "(650) 361-9500", "distance": 2125.7110338537814}, {"id": "U1hmo9ghHMdaciO9RwiWYg", "alias": "naomi-sushi-menlo-park", "name": "Naomi Sushi", "image_url": "https://s3-media4.fl.yelpcdn.com/bphoto/CSe4QvvUf6Un7qYlXo1ffg/o.jpg", "is_closed": false, "url": "https://www.yelp.com/biz/naomi-sushi-menlo-park?adjust_creative=R39z9kjZ-1HrCCc7SW6pcw&utm_campaign=yelp_api_v3&utm_medium=api_v3_business_search&utm_source=R39z9kjZ-1HrCCc7SW6pcw", "review_count": 285, "categories": [{"alias": "sushi", "title": "Sushi Bars"}, {"alias": "japanese", "title": "Japanese"}], "rating": 3.5, "coordinates": {"latitude": 37.4554033, "longitude": -122.1862542}, "transactions": [], "price": "$$", "location": {"address1": "1328 El Camino Real", "address2": "", "address3": "", "city": "Menlo Park", "zip_code": "94025", "country": "US", "state": "CA", "display_address": ["1328 El Camino Real", "Menlo Park, CA 94025"]}, "phone": "+16503216902", "display_phone": "(650) 321-6902", "distance": 923.6629747512247}, {"id": "OJ-W5kI7K4ef0tT9sbx3cQ", "alias": "cafe-del-sol-menlo-park", "name": "Cafe Del Sol", "image_url": "https://s3-media3.fl.yelpcdn.com/bphoto/pkI4qyE3AUbUivQTReAK5A/o.jpg", "is_closed": false, "url": "https://www.yelp.com/biz/cafe-del-sol-menlo-park?adjust_creative=R39z9kjZ-1HrCCc7SW6pcw&utm_campaign=yelp_api_v3&utm_medium=api_v3_business_search&utm_source=R39z9kjZ-1HrCCc7SW6pcw", "review_count": 368, "categories": [{"alias": "mexican", "title": "Mexican"}, {"alias": "salad", "title": "Salad"}, {"alias": "seafood", "title": "Seafood"}], "rating": 4.0, "coordinates": {"latitude": 37.45253, "longitude": -122.18247}, "transactions": ["pickup"], "price": "$$", "location": {"address1": "1010 Doyle St", "address2": "", "address3": "", "city": "Menlo Park", "zip_code": "94025", "country": "US", "state": "CA", "display_address": ["1010 Doyle St", "Menlo Park, CA 94025"]}, "phone": "+16503262501", "display_phone": "(650) 326-2501", "distance": 1403.3362648145035}, {"id": "Ld58hmF7YzMoPIA0rzKz-w", "alias": "amicis-east-coast-pizzeria-menlo-park", "name": "Amici's East Coast Pizzeria", "image_url": "https://s3-media4.fl.yelpcdn.com/bphoto/UI6US8YKw4rj1QtQC-Xktw/o.jpg", "is_closed": false, "url": "https://www.yelp.com/biz/amicis-east-coast-pizzeria-menlo-park?adjust_creative=R39z9kjZ-1HrCCc7SW6pcw&utm_campaign=yelp_api_v3&utm_medium=api_v3_business_search&utm_source=R39z9kjZ-1HrCCc7SW6pcw", "review_count": 238, "categories": [{"alias": "pizza", "title": "Pizza"}, {"alias": "italian", "title": "Italian"}], "rating": 3.5, "coordinates": {"latitude": 37.45026, "longitude": -122.18604}, "transactions": ["delivery", "pickup"], "price": "$$", "location": {"address1": "880 Santa Cruz Ave", "address2": "", "address3": "", "city": "Menlo Park", "zip_code": "94025", "country": "US", "state": "CA", "display_address": ["880 Santa Cruz Ave", "Menlo Park, CA 94025"]}, "phone": "+16503298888", "display_phone": "(650) 329-8888", "distance": 1373.3005117046653}, {"id": "yXRbLuAd7ceidmnAF9smow", "alias": "chef-kwans-menlo-park", "name": "Chef Kwan's", "image_url": "https://s3-media4.fl.yelpcdn.com/bphoto/AHUKsQhFWIaq85T-zTCDVg/o.jpg", "is_closed": false, "url": "https://www.yelp.com/biz/chef-kwans-menlo-park?adjust_creative=R39z9kjZ-1HrCCc7SW6pcw&utm_campaign=yelp_api_v3&utm_medium=api_v3_business_search&utm_source=R39z9kjZ-1HrCCc7SW6pcw", "review_count": 99, "categories": [{"alias": "chinese", "title": "Chinese"}], "rating": 3.0, "coordinates": {"latitude": 37.45224, "longitude": -122.18258}, "transactions": [], "price": "$$", "location": {"address1": "630 Menlo Ave", "address2": "", "address3": "", "city": "Menlo Park", "zip_code": "94025", "country": "US", "state": "CA", "display_address": ["630 Menlo Ave", "Menlo Park, CA 94025"]}, "phone": "+16503224631", "display_phone": "(650) 322-4631", "distance": 1418.0823768622995}, {"id": "79SBuWbGXwL2Y35KCfZHkg", "alias": "michoacan-produce-market-menlo-park-4", "name": "Michoacan Produce Market", "image_url": "https://s3-media3.fl.yelpcdn.com/bphoto/Hf9erb1bJGWiMKYqiFwgvQ/o.jpg", "is_closed": false, "url": "https://www.yelp.com/biz/michoacan-produce-market-menlo-park-4?adjust_creative=R39z9kjZ-1HrCCc7SW6pcw&utm_campaign=yelp_api_v3&utm_medium=api_v3_business_search&utm_source=R39z9kjZ-1HrCCc7SW6pcw", "review_count": 52, "categories": [{"alias": "mexican", "title": "Mexican"}, {"alias": "chickenshop", "title": "Chicken Shop"}, {"alias": "farmersmarket", "title": "Farmers Market"}], "rating": 4.5, "coordinates": {"latitude": 37.47065, "longitude": -122.20269}, "transactions": [], "price": "$$", "location": {"address1": "3380 Middlefield Rd", "address2": "", "address3": "", "city": "Menlo Park", "zip_code": "94025", "country": "US", "state": "CA", "display_address": ["3380 Middlefield Rd", "Menlo Park, CA 94025"]}, "phone": "+16503689226", "display_phone": "(650) 368-9226", "distance": 1331.3528377425732}, {"id": "R-uVUDLvCpSYGJT09KbyMw", "alias": "coffeebar-menlo-park-downtown-menlo-park", "name": "Coffeebar - Menlo Park Downtown", "image_url": "https://s3-media2.fl.yelpcdn.com/bphoto/hwXKlS7QepekNNwNC4b8gA/o.jpg", "is_closed": false, "url": "https://www.yelp.com/biz/coffeebar-menlo-park-downtown-menlo-park?adjust_creative=R39z9kjZ-1HrCCc7SW6pcw&utm_campaign=yelp_api_v3&utm_medium=api_v3_business_search&utm_source=R39z9kjZ-1HrCCc7SW6pcw", "review_count": 322, "categories": [{"alias": "coffee", "title": "Coffee & Tea"}, {"alias": "breakfast_brunch", "title": "Breakfast & Brunch"}, {"alias": "wine_bars", "title": "Wine Bars"}], "rating": 4.0, "coordinates": {"latitude": 37.452065, "longitude": -122.185534}, "transactions": [], "price": "$$", "location": {"address1": "1149 Chestnut St", "address2": "", "address3": null, "city": "Menlo Park", "zip_code": "94025", "country": "US", "state": "CA", "display_address": ["1149 Chestnut St", "Menlo Park, CA 94025"]}, "phone": "+16506662626", "display_phone": "(650) 666-2626", "distance": 1244.1892361419332}, {"id": "cQVGlWCDTjxcZUf5wteffA", "alias": "martins-redwood-city", "name": "Martin's", "image_url": "https://s3-media1.fl.yelpcdn.com/bphoto/8qfLkb1qr2c0hHjLo2nklA/o.jpg", "is_closed": false, "url": "https://www.yelp.com/biz/martins-redwood-city?adjust_creative=R39z9kjZ-1HrCCc7SW6pcw&utm_campaign=yelp_api_v3&utm_medium=api_v3_business_search&utm_source=R39z9kjZ-1HrCCc7SW6pcw", "review_count": 110, "categories": [{"alias": "sandwiches", "title": "Sandwiches"}, {"alias": "burgers", "title": "Burgers"}], "rating": 4.5, "coordinates": {"latitude": 37.4724513, "longitude": -122.2047808}, "transactions": ["delivery", "pickup"], "price": "$", "location": {"address1": "3143 Middlefield Rd", "address2": "", "address3": "", "city": "Redwood City", "zip_code": "94063", "country": "US", "state": "CA", "display_address": ["3143 Middlefield Rd", "Redwood City, CA 94063"]}, "phone": "+16506700288", "display_phone": "(650) 670-0288", "distance": 1610.5149914938654}, {"id": "xCJxtq2j9zfg7Y1aIYjMyg", "alias": "el-paisano-redwood-city-3", "name": "El Paisano", "image_url": "https://s3-media3.fl.yelpcdn.com/bphoto/sywmWqzt8T8nUfyjU4hvOw/o.jpg", "is_closed": false, "url": "https://www.yelp.com/biz/el-paisano-redwood-city-3?adjust_creative=R39z9kjZ-1HrCCc7SW6pcw&utm_campaign=yelp_api_v3&utm_medium=api_v3_business_search&utm_source=R39z9kjZ-1HrCCc7SW6pcw", "review_count": 40, "categories": [{"alias": "mexican", "title": "Mexican"}], "rating": 4.5, "coordinates": {"latitude": 37.47525, "longitude": -122.20969}, "transactions": [], "price": "$", "location": {"address1": "2856 Middlefield Rd", "address2": "", "address3": "", "city": "Redwood City", "zip_code": "94063", "country": "US", "state": "CA", "display_address": ["2856 Middlefield Rd", "Redwood City, CA 94063"]}, "phone": "+16503658240", "display_phone": "(650) 365-8240", "distance": 2103.3812614710455}, {"id": "cKdvdsje_qObzEOus0aKEQ", "alias": "los-gallos-taqueria-redwood-city", "name": "Los Gallos Taqueria", "image_url": "https://s3-media3.fl.yelpcdn.com/bphoto/KOxvKD8-AFeyGeo6V-Kk0g/o.jpg", "is_closed": false, "url": "https://www.yelp.com/biz/los-gallos-taqueria-redwood-city?adjust_creative=R39z9kjZ-1HrCCc7SW6pcw&utm_campaign=yelp_api_v3&utm_medium=api_v3_business_search&utm_source=R39z9kjZ-1HrCCc7SW6pcw", "review_count": 317, "categories": [{"alias": "mexican", "title": "Mexican"}, {"alias": "bars", "title": "Bars"}], "rating": 3.5, "coordinates": {"latitude": 37.4783394, "longitude": -122.187193}, "transactions": [], "price": "$", "location": {"address1": "3726 Florence St", "address2": "", "address3": "", "city": "Redwood City", "zip_code": "94063", "country": "US", "state": "CA", "display_address": ["3726 Florence St", "Redwood City, CA 94063"]}, "phone": "+16503691864", "display_phone": "(650) 369-1864", "distance": 2106.7205628834217}, {"id": "N2mANcqi2NQa1R1t4rZ_cg", "alias": "taqueria-el-jarochito-menlo-park", "name": "Taqueria El Jarochito", "image_url": "https://s3-media2.fl.yelpcdn.com/bphoto/wGHeqNiS-wWfNKrpO-MrZQ/o.jpg", "is_closed": false, "url": "https://www.yelp.com/biz/taqueria-el-jarochito-menlo-park?adjust_creative=R39z9kjZ-1HrCCc7SW6pcw&utm_campaign=yelp_api_v3&utm_medium=api_v3_business_search&utm_source=R39z9kjZ-1HrCCc7SW6pcw", "review_count": 27, "categories": [{"alias": "mexican", "title": "Mexican"}], "rating": 4.0, "coordinates": {"latitude": 37.470645, "longitude": -122.20272}, "transactions": [], "price": "$", "location": {"address1": "3360 Middlefield Rd", "address2": "", "address3": "", "city": "Menlo Park", "zip_code": "94025", "country": "US", "state": "CA", "display_address": ["3360 Middlefield Rd", "Menlo Park, CA 94025"]}, "phone": "+16503641668", "display_phone": "(650) 364-1668", "distance": 1334.2868263298224}, {"id": "Y3iRXN0xNsm-wX9dg7nFZA", "alias": "stacks-menlo-park", "name": "Stacks", "image_url": "https://s3-media4.fl.yelpcdn.com/bphoto/tOurXmB4gCW_FV2u-_7ioQ/o.jpg", "is_closed": false, "url": "https://www.yelp.com/biz/stacks-menlo-park?adjust_creative=R39z9kjZ-1HrCCc7SW6pcw&utm_campaign=yelp_api_v3&utm_medium=api_v3_business_search&utm_source=R39z9kjZ-1HrCCc7SW6pcw", "review_count": 686, "categories": [{"alias": "breakfast_brunch", "title": "Breakfast & Brunch"}, {"alias": "tradamerican", "title": "American (Traditional)"}], "rating": 3.5, "coordinates": {"latitude": 37.4534887, "longitude": -122.1832237}, "transactions": [], "price": "$$", "location": {"address1": "600 Santa Cruz Ave", "address2": "", "address3": "", "city": "Menlo Park", "zip_code": "94025", "country": "US", "state": "CA", "display_address": ["600 Santa Cruz Ave", "Menlo Park, CA 94025"]}, "phone": "+16508380066", "display_phone": "(650) 838-0066", "distance": 1288.405063995367}, {"id": "DdFchmWFwnE1ES-FLxuFMQ", "alias": "delucchis-market-redwood-city", "name": "Delucchi's Market", "image_url": "https://s3-media3.fl.yelpcdn.com/bphoto/38TijyZCkzlP3rPv0VBtHA/o.jpg", "is_closed": false, "url": "https://www.yelp.com/biz/delucchis-market-redwood-city?adjust_creative=R39z9kjZ-1HrCCc7SW6pcw&utm_campaign=yelp_api_v3&utm_medium=api_v3_business_search&utm_source=R39z9kjZ-1HrCCc7SW6pcw", "review_count": 86, "categories": [{"alias": "grocery", "title": "Grocery"}, {"alias": "delis", "title": "Delis"}], "rating": 3.0, "coordinates": {"latitude": 37.4784415900785, "longitude": -122.188114823241}, "transactions": [], "price": "$$", "location": {"address1": "3640 Florence St", "address2": "", "address3": "", "city": "Redwood City", "zip_code": "94063", "country": "US", "state": "CA", "display_address": ["3640 Florence St", "Redwood City, CA 94063"]}, "phone": "+16502167600", "display_phone": "(650) 216-7600", "distance": 2092.694324374298}, {"id": "b50eACJw8vdcuV5mZp9Vew", "alias": "la-casita-chilanga-redwood-city-2", "name": "La Casita Chilanga", "image_url": "https://s3-media1.fl.yelpcdn.com/bphoto/85IoW_5abfNlc04zsmpSDQ/o.jpg", "is_closed": false, "url": "https://www.yelp.com/biz/la-casita-chilanga-redwood-city-2?adjust_creative=R39z9kjZ-1HrCCc7SW6pcw&utm_campaign=yelp_api_v3&utm_medium=api_v3_business_search&utm_source=R39z9kjZ-1HrCCc7SW6pcw", "review_count": 86, "categories": [{"alias": "mexican", "title": "Mexican"}], "rating": 4.0, "coordinates": {"latitude": 37.474479, "longitude": -122.208503}, "transactions": [], "price": "$", "location": {"address1": "2928 Middlefield Rd", "address2": "", "address3": "", "city": "Redwood City", "zip_code": "94063", "country": "US", "state": "CA", "display_address": ["2928 Middlefield Rd", "Redwood City, CA 94063"]}, "phone": "+16505680351", "display_phone": "(650) 568-0351", "distance": 1974.0376956068992}, {"id": "QqQnmlUFskheIYGUSSyrxg", "alias": "mendozas-restaurant-menlo-park-menlo-park-2", "name": "Mendozas Restaurant - Menlo Park", "image_url": "https://s3-media1.fl.yelpcdn.com/bphoto/8xZ87MePXqMOppxg6pZOYQ/o.jpg", "is_closed": false, "url": "https://www.yelp.com/biz/mendozas-restaurant-menlo-park-menlo-park-2?adjust_creative=R39z9kjZ-1HrCCc7SW6pcw&utm_campaign=yelp_api_v3&utm_medium=api_v3_business_search&utm_source=R39z9kjZ-1HrCCc7SW6pcw", "review_count": 15, "categories": [{"alias": "mexican", "title": "Mexican"}], "rating": 3.0, "coordinates": {"latitude": 37.47176, "longitude": -122.20448}, "transactions": [], "location": {"address1": "3200 Middlefield Rd", "address2": null, "address3": "", "city": "Menlo Park", "zip_code": "94025", "country": "US", "state": "CA", "display_address": ["3200 Middlefield Rd", "Menlo Park, CA 94025"]}, "phone": "+16502602671", "display_phone": "(650) 260-2671", "distance": 1515.5149087196176}, {"id": "10DKE5EQlEWPoBMQ8TCwDg", "alias": "angelo-mio-menlo-park", "name": "Angelo Mio", "image_url": "https://s3-media4.fl.yelpcdn.com/bphoto/aX5_JJvzQEYqiB42Rzal3w/o.jpg", "is_closed": false, "url": "https://www.yelp.com/biz/angelo-mio-menlo-park?adjust_creative=R39z9kjZ-1HrCCc7SW6pcw&utm_campaign=yelp_api_v3&utm_medium=api_v3_business_search&utm_source=R39z9kjZ-1HrCCc7SW6pcw", "review_count": 144, "categories": [{"alias": "italian", "title": "Italian"}], "rating": 3.0, "coordinates": {"latitude": 37.450824, "longitude": -122.185531}, "transactions": [], "price": "$$", "location": {"address1": "820 Santa Cruz Ave", "address2": "", "address3": "", "city": "Menlo Park", "zip_code": "94025", "country": "US", "state": "CA", "display_address": ["820 Santa Cruz Ave", "Menlo Park, CA 94025"]}, "phone": "+16503233665", "display_phone": "(650) 323-3665", "distance": 1346.6831519387617}, {"id": "4_w0sUFJ0L6U4EdDMPkumQ", "alias": "yat-sing-redwood-city-2", "name": "Yat Sing", "image_url": "https://s3-media2.fl.yelpcdn.com/bphoto/BOw2aUf7gYusBa1t-7ok9w/o.jpg", "is_closed": false, "url": "https://www.yelp.com/biz/yat-sing-redwood-city-2?adjust_creative=R39z9kjZ-1HrCCc7SW6pcw&utm_campaign=yelp_api_v3&utm_medium=api_v3_business_search&utm_source=R39z9kjZ-1HrCCc7SW6pcw", "review_count": 120, "categories": [{"alias": "chinese", "title": "Chinese"}], "rating": 3.0, "coordinates": {"latitude": 37.4786028, "longitude": -122.1862691}, "transactions": ["pickup"], "price": "$$", "location": {"address1": "3770 Florence St", "address2": "", "address3": "", "city": "Redwood City", "zip_code": "94063", "country": "US", "state": "CA", "display_address": ["3770 Florence St", "Redwood City, CA 94063"]}, "phone": "+16503688888", "display_phone": "(650) 368-8888", "distance": 2130.7221156658115}, {"id": "L3TmWhLMJN6vpkPahDaRZw", "alias": "los-manguitos-redwood-city", "name": "Los Manguitos", "image_url": "https://s3-media1.fl.yelpcdn.com/bphoto/AgZjAr5RYBk--APQZwkUSA/o.jpg", "is_closed": false, "url": "https://www.yelp.com/biz/los-manguitos-redwood-city?adjust_creative=R39z9kjZ-1HrCCc7SW6pcw&utm_campaign=yelp_api_v3&utm_medium=api_v3_business_search&utm_source=R39z9kjZ-1HrCCc7SW6pcw", "review_count": 93, "categories": [{"alias": "mexican", "title": "Mexican"}], "rating": 4.0, "coordinates": {"latitude": 37.47282, "longitude": -122.20502}, "transactions": [], "price": "$", "location": {"address1": "3133 Middlefield Rd", "address2": "", "address3": "", "city": "Redwood City", "zip_code": "94063", "country": "US", "state": "CA", "display_address": ["3133 Middlefield Rd", "Redwood City, CA 94063"]}, "phone": "+16503638143", "display_phone": "(650) 363-8143", "distance": 1637.4762368476636}, {"id": "5vF2_5XaoT1koHgroqubJw", "alias": "chavez-supermarket-and-taqueria-redwood-city", "name": "Chavez Supermarket & Taqueria", "image_url": "https://s3-media3.fl.yelpcdn.com/bphoto/lSniVSH7ILc0Z8-smLs84w/o.jpg", "is_closed": false, "url": "https://www.yelp.com/biz/chavez-supermarket-and-taqueria-redwood-city?adjust_creative=R39z9kjZ-1HrCCc7SW6pcw&utm_campaign=yelp_api_v3&utm_medium=api_v3_business_search&utm_source=R39z9kjZ-1HrCCc7SW6pcw", "review_count": 160, "categories": [{"alias": "grocery", "title": "Grocery"}, {"alias": "mexican", "title": "Mexican"}], "rating": 3.5, "coordinates": {"latitude": 37.4674977, "longitude": -122.2076826}, "transactions": [], "price": "$", "location": {"address1": "46 5th Ave", "address2": "", "address3": "", "city": "Redwood City", "zip_code": "94063", "country": "US", "state": "CA", "display_address": ["46 5th Ave", "Redwood City, CA 94063"]}, "phone": "+16507011801", "display_phone": "(650) 701-1801", "distance": 1374.5852287320074}, {"id": "sCLJgjysKSAG_VA5buXZIQ", "alias": "las-parrillas-restaurant-menlo-park", "name": "Las Parrillas Restaurant", "image_url": "https://s3-media3.fl.yelpcdn.com/bphoto/2HyqUHmQu9JSCqfdeRo7vw/o.jpg", "is_closed": false, "url": "https://www.yelp.com/biz/las-parrillas-restaurant-menlo-park?adjust_creative=R39z9kjZ-1HrCCc7SW6pcw&utm_campaign=yelp_api_v3&utm_medium=api_v3_business_search&utm_source=R39z9kjZ-1HrCCc7SW6pcw", "review_count": 32, "categories": [{"alias": "mexican", "title": "Mexican"}], "rating": 4.0, "coordinates": {"latitude": 37.47076, "longitude": -122.20326}, "transactions": [], "price": "$", "location": {"address1": "3284 Middlefield Rd", "address2": "", "address3": "", "city": "Menlo Park", "zip_code": "94025", "country": "US", "state": "CA", "display_address": ["3284 Middlefield Rd", "Menlo Park, CA 94025"]}, "phone": "+16503692040", "display_phone": "(650) 369-2040", "distance": 1364.7779697110122}, {"id": "69KPHLqOnDWtbTm0jksUtg", "alias": "rubios-coastal-grill-menlo-park-2", "name": "Rubio's Coastal Grill", "image_url": "https://s3-media4.fl.yelpcdn.com/bphoto/UD0eITe_B_J_xhIGBOsYzg/o.jpg", "is_closed": false, "url": "https://www.yelp.com/biz/rubios-coastal-grill-menlo-park-2?adjust_creative=R39z9kjZ-1HrCCc7SW6pcw&utm_campaign=yelp_api_v3&utm_medium=api_v3_business_search&utm_source=R39z9kjZ-1HrCCc7SW6pcw", "review_count": 230, "categories": [{"alias": "mexican", "title": "Mexican"}, {"alias": "seafood", "title": "Seafood"}, {"alias": "salad", "title": "Salad"}], "rating": 3.0, "coordinates": {"latitude": 37.449654, "longitude": -122.178295}, "transactions": ["delivery"], "price": "$", "location": {"address1": "515 El Camino Real", "address2": "Ste 110", "address3": "", "city": "Menlo Park", "zip_code": "94025", "country": "US", "state": "CA", "display_address": ["515 El Camino Real", "Ste 110", "Menlo Park, CA 94025"]}, "phone": "+16503266691", "display_phone": "(650) 326-6691", "distance": 1893.324073681697}, {"id": "uX1zYHQ15kb6yxIQ9wjauA", "alias": "round-table-pizza-menlo-park-2", "name": "Round Table Pizza", "image_url": "https://s3-media4.fl.yelpcdn.com/bphoto/xxQAeXdWPA0dDaNCw-BWwA/o.jpg", "is_closed": false, "url": "https://www.yelp.com/biz/round-table-pizza-menlo-park-2?adjust_creative=R39z9kjZ-1HrCCc7SW6pcw&utm_campaign=yelp_api_v3&utm_medium=api_v3_business_search&utm_source=R39z9kjZ-1HrCCc7SW6pcw", "review_count": 94, "categories": [{"alias": "pizza", "title": "Pizza"}], "rating": 3.5, "coordinates": {"latitude": 37.4543609619141, "longitude": -122.18505859375}, "transactions": ["delivery", "pickup"], "price": "$$", "location": {"address1": "1225 El Camino Real", "address2": "", "address3": "", "city": "Menlo Park", "zip_code": "94025", "country": "US", "state": "CA", "display_address": ["1225 El Camino Real", "Menlo Park, CA 94025"]}, "phone": "+16503216861", "display_phone": "(650) 321-6861", "distance": 1103.4977961744237}, {"id": "sKHSAU9QcD38cdJzzNe2xg", "alias": "tacos-el-fogon-menlo-park", "name": "Tacos El Fogon", "image_url": "https://s3-media3.fl.yelpcdn.com/bphoto/rsdv4PfoPpYaO3lLwHuW-A/o.jpg", "is_closed": false, "url": "https://www.yelp.com/biz/tacos-el-fogon-menlo-park?adjust_creative=R39z9kjZ-1HrCCc7SW6pcw&utm_campaign=yelp_api_v3&utm_medium=api_v3_business_search&utm_source=R39z9kjZ-1HrCCc7SW6pcw", "review_count": 14, "categories": [{"alias": "seafood", "title": "Seafood"}, {"alias": "mexican", "title": "Mexican"}], "rating": 3.0, "coordinates": {"latitude": 37.4709584, "longitude": -122.2021862}, "transactions": [], "price": "$$$", "location": {"address1": "3387 Middlefield Rd", "address2": "", "address3": null, "city": "Menlo Park", "zip_code": "94025", "country": "US", "state": "CA", "display_address": ["3387 Middlefield Rd", "Menlo Park, CA 94025"]}, "phone": "+16505498016", "display_phone": "(650) 549-8016", "distance": 1336.5093580519153}, {"id": "qLDhtAX3pwAN_qc1hgzg3g", "alias": "taqueria-gonzalez-redwood-city", "name": "Taqueria Gonzalez", "image_url": "https://s3-media1.fl.yelpcdn.com/bphoto/ur6BPr6HENeTJWDJJAqjeA/o.jpg", "is_closed": false, "url": "https://www.yelp.com/biz/taqueria-gonzalez-redwood-city?adjust_creative=R39z9kjZ-1HrCCc7SW6pcw&utm_campaign=yelp_api_v3&utm_medium=api_v3_business_search&utm_source=R39z9kjZ-1HrCCc7SW6pcw", "review_count": 29, "categories": [{"alias": "mexican", "title": "Mexican"}], "rating": 4.0, "coordinates": {"latitude": 37.4721866101027, "longitude": -122.20472574234}, "transactions": [], "price": "$", "location": {"address1": "3194 Middlefield Rd", "address2": "", "address3": "", "city": "Redwood City", "zip_code": "94063", "country": "US", "state": "CA", "display_address": ["3194 Middlefield Rd", "Redwood City, CA 94063"]}, "phone": "+16503656405", "display_phone": "(650) 365-6405", "distance": 1563.2867516701915}, {"id": "Leup0gVdW3eHxgikGvsGmw", "alias": "tierra-blanca-sushi-y-mariscos-redwood-city-5", "name": "Tierra Blanca Sushi Y Mariscos", "image_url": "https://s3-media4.fl.yelpcdn.com/bphoto/oN511OPbO2yrk38tX11wSQ/o.jpg", "is_closed": false, "url": "https://www.yelp.com/biz/tierra-blanca-sushi-y-mariscos-redwood-city-5?adjust_creative=R39z9kjZ-1HrCCc7SW6pcw&utm_campaign=yelp_api_v3&utm_medium=api_v3_business_search&utm_source=R39z9kjZ-1HrCCc7SW6pcw", "review_count": 35, "categories": [{"alias": "mexican", "title": "Mexican"}, {"alias": "foodtrucks", "title": "Food Trucks"}, {"alias": "seafood", "title": "Seafood"}], "rating": 4.5, "coordinates": {"latitude": 37.4839703, "longitude": -122.2006564}, "transactions": [], "price": "$$", "location": {"address1": "2ND Ave And Page St", "address2": null, "address3": "", "city": "Redwood City", "zip_code": "94063", "country": "US", "state": "CA", "display_address": ["2ND Ave And Page St", "Redwood City, CA 94063"]}, "phone": "+16506306133", "display_phone": "(650) 630-6133", "distance": 2667.9149123673396}, {"id": "F31-QnVGSMGXBVilljOiBA", "alias": "el-guanaco-mexican-and-salvadorean-restaurant-redwood-city", "name": "El Guanaco Mexican & Salvadorean Restaurant", "image_url": "https://s3-media4.fl.yelpcdn.com/bphoto/8RVdrKJRthkxRoe6ZPqC0g/o.jpg", "is_closed": false, "url": "https://www.yelp.com/biz/el-guanaco-mexican-and-salvadorean-restaurant-redwood-city?adjust_creative=R39z9kjZ-1HrCCc7SW6pcw&utm_campaign=yelp_api_v3&utm_medium=api_v3_business_search&utm_source=R39z9kjZ-1HrCCc7SW6pcw", "review_count": 46, "categories": [{"alias": "mexican", "title": "Mexican"}, {"alias": "latin", "title": "Latin American"}], "rating": 3.5, "coordinates": {"latitude": 37.4740262987952, "longitude": -122.208068009268}, "transactions": [], "price": "$", "location": {"address1": "2950 Middlefield Rd", "address2": "", "address3": "", "city": "Redwood City", "zip_code": "94063", "country": "US", "state": "CA", "display_address": ["2950 Middlefield Rd", "Redwood City, CA 94063"]}, "phone": "+16503657878", "display_phone": "(650) 365-7878", "distance": 1907.3321664386986}, {"id": "ilEXk1ld4afi4hxNxBbAUg", "alias": "la-roca-redwood-city", "name": "La Roca", "image_url": "https://s3-media1.fl.yelpcdn.com/bphoto/pjYoy25joJuZR1XFsi4q_Q/o.jpg", "is_closed": false, "url": "https://www.yelp.com/biz/la-roca-redwood-city?adjust_creative=R39z9kjZ-1HrCCc7SW6pcw&utm_campaign=yelp_api_v3&utm_medium=api_v3_business_search&utm_source=R39z9kjZ-1HrCCc7SW6pcw", "review_count": 21, "categories": [{"alias": "mexican", "title": "Mexican"}], "rating": 4.0, "coordinates": {"latitude": 37.4683113098145, "longitude": -122.208358764648}, "transactions": [], "price": "$$", "location": {"address1": "55 5th Ave", "address2": "Ste B", "address3": "", "city": "Redwood City", "zip_code": "94063", "country": "US", "state": "CA", "display_address": ["55 5th Ave", "Ste B", "Redwood City, CA 94063"]}, "phone": "+16503669626", "display_phone": "(650) 366-9626", "distance": 1484.197082106473}, {"id": "MJ2r-U8EJ0Bt_Id-83wvZA", "alias": "bagel-street-cafe-menlo-park", "name": "Bagel Street Cafe", "image_url": "https://s3-media3.fl.yelpcdn.com/bphoto/zx7TBJ5IQ9eTmMWCe72BbA/o.jpg", "is_closed": false, "url": "https://www.yelp.com/biz/bagel-street-cafe-menlo-park?adjust_creative=R39z9kjZ-1HrCCc7SW6pcw&utm_campaign=yelp_api_v3&utm_medium=api_v3_business_search&utm_source=R39z9kjZ-1HrCCc7SW6pcw", "review_count": 105, "categories": [{"alias": "bagels", "title": "Bagels"}, {"alias": "breakfast_brunch", "title": "Breakfast & Brunch"}, {"alias": "sandwiches", "title": "Sandwiches"}], "rating": 4.0, "coordinates": {"latitude": 37.451408, "longitude": -122.185058}, "transactions": [], "price": "$", "location": {"address1": "746 Santa Cruz Ave", "address2": "", "address3": "", "city": "Menlo Park", "zip_code": "94025", "country": "US", "state": "CA", "display_address": ["746 Santa Cruz Ave", "Menlo Park, CA 94025"]}, "phone": "+16503288809", "display_phone": "(650) 328-8809", "distance": 1324.3587838076628}, {"id": "JbsJAsV-5B5Xu-AXWoKWmg", "alias": "pizza-hut-menlo-park", "name": "Pizza Hut", "image_url": "https://s3-media2.fl.yelpcdn.com/bphoto/NrY-j6VD3gw61YNzsBwaSA/o.jpg", "is_closed": false, "url": "https://www.yelp.com/biz/pizza-hut-menlo-park?adjust_creative=R39z9kjZ-1HrCCc7SW6pcw&utm_campaign=yelp_api_v3&utm_medium=api_v3_business_search&utm_source=R39z9kjZ-1HrCCc7SW6pcw", "review_count": 48, "categories": [{"alias": "pizza", "title": "Pizza"}, {"alias": "italian", "title": "Italian"}, {"alias": "chicken_wings", "title": "Chicken Wings"}], "rating": 2.5, "coordinates": {"latitude": 37.4705846863365, "longitude": -122.2015921}, "transactions": [], "price": "$", "location": {"address1": "3415 Middlefield Rd", "address2": "", "address3": "", "city": "Menlo Park", "zip_code": "94025", "country": "US", "state": "CA", "display_address": ["3415 Middlefield Rd", "Menlo Park, CA 94025"]}, "phone": "+16503688700", "display_phone": "(650) 368-8700", "distance": 1275.1576217523689}, {"id": "6zRmdNPkmqzSLneBImmbPg", "alias": "el-grullense-redwood-city-18", "name": "El Grullense", "image_url": "https://s3-media2.fl.yelpcdn.com/bphoto/72u7vNzQDsaiD9GaHHgFyQ/o.jpg", "is_closed": false, "url": "https://www.yelp.com/biz/el-grullense-redwood-city-18?adjust_creative=R39z9kjZ-1HrCCc7SW6pcw&utm_campaign=yelp_api_v3&utm_medium=api_v3_business_search&utm_source=R39z9kjZ-1HrCCc7SW6pcw", "review_count": 47, "categories": [{"alias": "mexican", "title": "Mexican"}], "rating": 4.0, "coordinates": {"latitude": 37.47443, "longitude": -122.20836}, "transactions": [], "price": "$", "location": {"address1": "2940 Middlefield Rd", "address2": "", "address3": "", "city": "Redwood City", "zip_code": "94063", "country": "US", "state": "CA", "display_address": ["2940 Middlefield Rd", "Redwood City, CA 94063"]}, "phone": "+16503648449", "display_phone": "(650) 364-8449", "distance": 1958.285712424025}, {"id": "_rMcMN6rmHeu-Z5V7Ewixg", "alias": "do\u00f1a-mary-deli-and-torteria-redwood-city", "name": "Do\u00f1a Mary Deli & Torteria", "image_url": "https://s3-media4.fl.yelpcdn.com/bphoto/TRhvCZgYMX-Of9En4S5Nuw/o.jpg", "is_closed": false, "url": "https://www.yelp.com/biz/do%C3%B1a-mary-deli-and-torteria-redwood-city?adjust_creative=R39z9kjZ-1HrCCc7SW6pcw&utm_campaign=yelp_api_v3&utm_medium=api_v3_business_search&utm_source=R39z9kjZ-1HrCCc7SW6pcw", "review_count": 1, "categories": [{"alias": "sandwiches", "title": "Sandwiches"}, {"alias": "italian", "title": "Italian"}, {"alias": "delis", "title": "Delis"}], "rating": 5.0, "coordinates": {"latitude": 37.47274, "longitude": -122.20591}, "transactions": [], "location": {"address1": "3102 Middlefield Rd", "address2": null, "address3": "", "city": "Redwood City", "zip_code": "94063", "country": "US", "state": "CA", "display_address": ["3102 Middlefield Rd", "Redwood City, CA 94063"]}, "phone": "+16502188312", "display_phone": "(650) 218-8312", "distance": 1699.3111792928923}, {"id": "rxtgA0_d7L2xRioY0BhIFQ", "alias": "scala-mia-restaurant-menlo-park", "name": "Scala Mia Restaurant", "image_url": "", "is_closed": false, "url": "https://www.yelp.com/biz/scala-mia-restaurant-menlo-park?adjust_creative=R39z9kjZ-1HrCCc7SW6pcw&utm_campaign=yelp_api_v3&utm_medium=api_v3_business_search&utm_source=R39z9kjZ-1HrCCc7SW6pcw", "review_count": 4, "categories": [{"alias": "restaurants", "title": "Restaurants"}], "rating": 4.0, "coordinates": {"latitude": 37.450824, "longitude": -122.185531}, "transactions": [], "price": "$$", "location": {"address1": "820 Santa Cruz Ave", "address2": "", "address3": "", "city": "Menlo Park", "zip_code": "94025", "country": "US", "state": "CA", "display_address": ["820 Santa Cruz Ave", "Menlo Park, CA 94025"]}, "phone": "+16503233665", "display_phone": "(650) 323-3665", "distance": 1346.6831519387617}, {"id": "4MisqEZiw3UAyHZIxpostg", "alias": "anns-coffee-shop-menlo-park", "name": "Ann's Coffee Shop", "image_url": "https://s3-media3.fl.yelpcdn.com/bphoto/CiKs6yJJzl-bJZdcBtRIGA/o.jpg", "is_closed": false, "url": "https://www.yelp.com/biz/anns-coffee-shop-menlo-park?adjust_creative=R39z9kjZ-1HrCCc7SW6pcw&utm_campaign=yelp_api_v3&utm_medium=api_v3_business_search&utm_source=R39z9kjZ-1HrCCc7SW6pcw", "review_count": 182, "categories": [{"alias": "breakfast_brunch", "title": "Breakfast & Brunch"}, {"alias": "diners", "title": "Diners"}, {"alias": "cafes", "title": "Cafes"}], "rating": 3.5, "coordinates": {"latitude": 37.4513971159124, "longitude": -122.184973466452}, "transactions": [], "price": "$", "location": {"address1": "772 Santa Cruz Ave", "address2": "", "address3": "", "city": "Menlo Park", "zip_code": "94025", "country": "US", "state": "CA", "display_address": ["772 Santa Cruz Ave", "Menlo Park, CA 94025"]}, "phone": "+16503220043", "display_phone": "(650) 322-0043", "distance": 1332.603450035817}, {"id": "Tljus2p2ypA-XEsNn0D_RA", "alias": "jack-in-the-box-redwood-city-3", "name": "Jack in the Box", "image_url": "https://s3-media1.fl.yelpcdn.com/bphoto/bDvUmNC-vnTo21aTy2sS4A/o.jpg", "is_closed": false, "url": "https://www.yelp.com/biz/jack-in-the-box-redwood-city-3?adjust_creative=R39z9kjZ-1HrCCc7SW6pcw&utm_campaign=yelp_api_v3&utm_medium=api_v3_business_search&utm_source=R39z9kjZ-1HrCCc7SW6pcw", "review_count": 31, "categories": [{"alias": "hotdogs", "title": "Fast Food"}, {"alias": "burgers", "title": "Burgers"}, {"alias": "tacos", "title": "Tacos"}], "rating": 2.5, "coordinates": {"latitude": 37.4675968, "longitude": -122.209064215422}, "transactions": [], "price": "$", "location": {"address1": "3199 El Camino Real", "address2": null, "address3": null, "city": "Redwood City", "zip_code": "94061", "country": "US", "state": "CA", "display_address": ["3199 El Camino Real", "Redwood City, CA 94061"]}, "phone": "+16503654655", "display_phone": "(650) 365-4655", "distance": 1482.0782143660854}, {"id": "QU_hGxAtp_2uVgQbKzezww", "alias": "mcdonalds-menlo-park-2", "name": "McDonald's", "image_url": "https://s3-media2.fl.yelpcdn.com/bphoto/y4fKweMw6tLZSHAUI4iPSA/o.jpg", "is_closed": false, "url": "https://www.yelp.com/biz/mcdonalds-menlo-park-2?adjust_creative=R39z9kjZ-1HrCCc7SW6pcw&utm_campaign=yelp_api_v3&utm_medium=api_v3_business_search&utm_source=R39z9kjZ-1HrCCc7SW6pcw", "review_count": 56, "categories": [{"alias": "burgers", "title": "Burgers"}, {"alias": "hotdogs", "title": "Fast Food"}, {"alias": "coffee", "title": "Coffee & Tea"}], "rating": 2.5, "coordinates": {"latitude": 37.4539272240607, "longitude": -122.183153997184}, "transactions": [], "price": "$", "location": {"address1": "1100 El Camino Real", "address2": "", "address3": null, "city": "Menlo Park", "zip_code": "94025", "country": "US", "state": "CA", "display_address": ["1100 El Camino Real", "Menlo Park, CA 94025"]}, "phone": "+16503211813", "display_phone": "(650) 321-1813", "distance": 1264.3736512381588}, {"id": "QZnTBTT643ZNaxS67UGNHw", "alias": "kicks-sports-and-grill-redwood-city", "name": "Kicks Sports and Grill", "image_url": "https://s3-media1.fl.yelpcdn.com/bphoto/INJ_ThLM-KSLI0G5BiA7QQ/o.jpg", "is_closed": false, "url": "https://www.yelp.com/biz/kicks-sports-and-grill-redwood-city?adjust_creative=R39z9kjZ-1HrCCc7SW6pcw&utm_campaign=yelp_api_v3&utm_medium=api_v3_business_search&utm_source=R39z9kjZ-1HrCCc7SW6pcw", "review_count": 9, "categories": [{"alias": "sportsbars", "title": "Sports Bars"}, {"alias": "tradamerican", "title": "American (Traditional)"}], "rating": 3.0, "coordinates": {"latitude": 37.476451, "longitude": -122.203208}, "transactions": [], "price": "$$", "location": {"address1": "3151 Edison Way", "address2": "", "address3": "", "city": "Redwood City", "zip_code": "94063", "country": "US", "state": "CA", "display_address": ["3151 Edison Way", "Redwood City, CA 94063"]}, "phone": "+16503624109", "display_phone": "(650) 362-4109", "distance": 1931.8233018443264}, {"id": "NkR6pVDKHvmW2J3-YNg8nw", "alias": "tacos-el-grullense-e-and-e-redwood-city-10", "name": "Tacos El Grullense E&E", "image_url": "https://s3-media1.fl.yelpcdn.com/bphoto/epfAXgvXzW9kF55D3DA8jg/o.jpg", "is_closed": false, "url": "https://www.yelp.com/biz/tacos-el-grullense-e-and-e-redwood-city-10?adjust_creative=R39z9kjZ-1HrCCc7SW6pcw&utm_campaign=yelp_api_v3&utm_medium=api_v3_business_search&utm_source=R39z9kjZ-1HrCCc7SW6pcw", "review_count": 88, "categories": [{"alias": "mexican", "title": "Mexican"}], "rating": 3.0, "coordinates": {"latitude": 37.47373, "longitude": -122.20747}, "transactions": [], "price": "$", "location": {"address1": "3018 Middlefield Rd", "address2": null, "address3": null, "city": "Redwood City", "zip_code": "94063", "country": "US", "state": "CA", "display_address": ["3018 Middlefield Rd", "Redwood City, CA 94063"]}, "phone": "+16502990600", "display_phone": "(650) 299-0600", "distance": 1841.9391616653845}, {"id": "oCiHCpcJsu9Q4UECQkj0XA", "alias": "coffee-cafe-menlo-park", "name": "Coffee Cafe", "image_url": "https://s3-media2.fl.yelpcdn.com/bphoto/Ziodub9OmaAC2zWK3ZqsDQ/o.jpg", "is_closed": false, "url": "https://www.yelp.com/biz/coffee-cafe-menlo-park?adjust_creative=R39z9kjZ-1HrCCc7SW6pcw&utm_campaign=yelp_api_v3&utm_medium=api_v3_business_search&utm_source=R39z9kjZ-1HrCCc7SW6pcw", "review_count": 1, "categories": [{"alias": "coffee", "title": "Coffee & Tea"}, {"alias": "bakeries", "title": "Bakeries"}, {"alias": "sandwiches", "title": "Sandwiches"}], "rating": 5.0, "coordinates": {"latitude": 37.4764792, "longitude": -122.1998519}, "transactions": [], "location": {"address1": "3375 Edison Way", "address2": null, "address3": "", "city": "Menlo Park", "zip_code": "94025", "country": "US", "state": "CA", "display_address": ["3375 Edison Way", "Menlo Park, CA 94025"]}, "phone": "+18007972958", "display_phone": "(800) 797-2958", "distance": 1866.0090555763372}, {"id": "RD722uL076Dyf4yMmGJFDw", "alias": "le-boulanger-menlo-park", "name": "Le Boulanger", "image_url": "https://s3-media2.fl.yelpcdn.com/bphoto/3z0_7kqaL8fgOUNaRuBURg/o.jpg", "is_closed": false, "url": "https://www.yelp.com/biz/le-boulanger-menlo-park?adjust_creative=R39z9kjZ-1HrCCc7SW6pcw&utm_campaign=yelp_api_v3&utm_medium=api_v3_business_search&utm_source=R39z9kjZ-1HrCCc7SW6pcw", "review_count": 150, "categories": [{"alias": "bakeries", "title": "Bakeries"}, {"alias": "sandwiches", "title": "Sandwiches"}, {"alias": "coffee", "title": "Coffee & Tea"}], "rating": 3.0, "coordinates": {"latitude": 37.45163, "longitude": -122.18477}, "transactions": ["pickup"], "price": "$$", "location": {"address1": "720 Santa Cruz Ave", "address2": "", "address3": "", "city": "Menlo Park", "zip_code": "94025", "country": "US", "state": "CA", "display_address": ["720 Santa Cruz Ave", "Menlo Park, CA 94025"]}, "phone": "+16503225528", "display_phone": "(650) 322-5528", "distance": 1320.1735064409079}, {"id": "yHaqUG1YndrtbpEfKCUZzw", "alias": "mamacitas-tacos-mountain-view", "name": "Mamacitas Tacos", "image_url": "https://s3-media3.fl.yelpcdn.com/bphoto/En6_9hpAmOANW4dz4ZA4AQ/o.jpg", "is_closed": false, "url": "https://www.yelp.com/biz/mamacitas-tacos-mountain-view?adjust_creative=R39z9kjZ-1HrCCc7SW6pcw&utm_campaign=yelp_api_v3&utm_medium=api_v3_business_search&utm_source=R39z9kjZ-1HrCCc7SW6pcw", "review_count": 195, "categories": [{"alias": "foodtrucks", "title": "Food Trucks"}, {"alias": "tacos", "title": "Tacos"}], "rating": 4.0, "coordinates": {"latitude": 37.40108, "longitude": -122.10658}, "transactions": [], "price": "$", "location": {"address1": "555 Showers Dr", "address2": "", "address3": "", "city": "Mountain View", "zip_code": "94040", "country": "US", "state": "CA", "display_address": ["555 Showers Dr", "Mountain View, CA 94040"]}, "phone": "+16502766215", "display_phone": "(650) 276-6215", "distance": 10222.19302264061}, {"id": "0G4S0-a6EEMLsyCLoVLSZg", "alias": "subway-restaurants-menlo-park-2", "name": "Subway Restaurants", "image_url": "https://s3-media1.fl.yelpcdn.com/bphoto/nw0ANK3bRVBAugTO88XMdw/o.jpg", "is_closed": false, "url": "https://www.yelp.com/biz/subway-restaurants-menlo-park-2?adjust_creative=R39z9kjZ-1HrCCc7SW6pcw&utm_campaign=yelp_api_v3&utm_medium=api_v3_business_search&utm_source=R39z9kjZ-1HrCCc7SW6pcw", "review_count": 30, "categories": [{"alias": "sandwiches", "title": "Sandwiches"}], "rating": 2.0, "coordinates": {"latitude": 37.45058, "longitude": -122.18504}, "transactions": ["delivery", "pickup"], "price": "$", "location": {"address1": "809 Santa Cruz Ave", "address2": "", "address3": "", "city": "Menlo Park", "zip_code": "94025", "country": "US", "state": "CA", "display_address": ["809 Santa Cruz Ave", "Menlo Park, CA 94025"]}, "phone": "+16503301692", "display_phone": "(650) 330-1692", "distance": 1399.0331771160386}, {"id": "tcQpN3rG3ktGmO2NH-OexA", "alias": "namaste-nepal-food-truck-mountain-view-2", "name": "Namaste Nepal Food Truck", "image_url": "https://s3-media1.fl.yelpcdn.com/bphoto/OQR5yJrDhAYkOVug9B-MIQ/o.jpg", "is_closed": false, "url": "https://www.yelp.com/biz/namaste-nepal-food-truck-mountain-view-2?adjust_creative=R39z9kjZ-1HrCCc7SW6pcw&utm_campaign=yelp_api_v3&utm_medium=api_v3_business_search&utm_source=R39z9kjZ-1HrCCc7SW6pcw", "review_count": 203, "categories": [{"alias": "foodtrucks", "title": "Food Trucks"}, {"alias": "indpak", "title": "Indian"}, {"alias": "himalayan", "title": "Himalayan/Nepalese"}], "rating": 4.5, "coordinates": {"latitude": 37.3887273709385, "longitude": -122.088334396889}, "transactions": [], "price": "$", "location": {"address1": "1288 W El Camino Real", "address2": null, "address3": "", "city": "Mountain View", "zip_code": "94040", "country": "US", "state": "CA", "display_address": ["1288 W El Camino Real", "Mountain View, CA 94040"]}, "phone": "+14082205739", "display_phone": "(408) 220-5739", "distance": 12333.918146254759}, {"id": "Hb4DIJ1zRKGAvJCpoAZgcw", "alias": "7-mares-mexican-seafood-restaurant-redwood-city", "name": "7 Mares Mexican Seafood Restaurant", "image_url": "https://s3-media4.fl.yelpcdn.com/bphoto/9A3M6xARph_HebqMhZDZew/o.jpg", "is_closed": false, "url": "https://www.yelp.com/biz/7-mares-mexican-seafood-restaurant-redwood-city?adjust_creative=R39z9kjZ-1HrCCc7SW6pcw&utm_campaign=yelp_api_v3&utm_medium=api_v3_business_search&utm_source=R39z9kjZ-1HrCCc7SW6pcw", "review_count": 67, "categories": [{"alias": "mexican", "title": "Mexican"}, {"alias": "seafood", "title": "Seafood"}, {"alias": "karaoke", "title": "Karaoke"}], "rating": 3.0, "coordinates": {"latitude": 37.47613, "longitude": -122.21018}, "transactions": ["delivery", "pickup"], "price": "$$", "location": {"address1": "2809 Middlefield Rd", "address2": "", "address3": "", "city": "Redwood City", "zip_code": "94063", "country": "US", "state": "CA", "display_address": ["2809 Middlefield Rd", "Redwood City, CA 94063"]}, "phone": "+16503686444", "display_phone": "(650) 368-6444", "distance": 2208.236574651425}, {"id": "DC42MrpWtqEeWRmMsn6Z8w", "alias": "the-everest-momo-fremont-2", "name": "The Everest Momo", "image_url": "https://s3-media2.fl.yelpcdn.com/bphoto/T2f7tUQ1c104otx9oSdqYw/o.jpg", "is_closed": false, "url": "https://www.yelp.com/biz/the-everest-momo-fremont-2?adjust_creative=R39z9kjZ-1HrCCc7SW6pcw&utm_campaign=yelp_api_v3&utm_medium=api_v3_business_search&utm_source=R39z9kjZ-1HrCCc7SW6pcw", "review_count": 23, "categories": [{"alias": "foodtrucks", "title": "Food Trucks"}, {"alias": "indpak", "title": "Indian"}, {"alias": "himalayan", "title": "Himalayan/Nepalese"}], "rating": 4.5, "coordinates": {"latitude": 37.54643, "longitude": -121.98512}, "transactions": [], "price": "$", "location": {"address1": "39233 Fremont Blvd", "address2": null, "address3": null, "city": "Fremont", "zip_code": "94538", "country": "US", "state": "CA", "display_address": ["39233 Fremont Blvd", "Fremont, CA 94538"]}, "phone": "+14088406369", "display_phone": "(408) 840-6369", "distance": 20843.656280540854}, {"id": "TkHtWrjTjaVe3OZ5hVxv4g", "alias": "kidding-around-with-chocolate-redwood-city", "name": "Kidding around with chocolate", "image_url": "", "is_closed": false, "url": "https://www.yelp.com/biz/kidding-around-with-chocolate-redwood-city?adjust_creative=R39z9kjZ-1HrCCc7SW6pcw&utm_campaign=yelp_api_v3&utm_medium=api_v3_business_search&utm_source=R39z9kjZ-1HrCCc7SW6pcw", "review_count": 2, "categories": [{"alias": "chocolate", "title": "Chocolatiers & Shops"}, {"alias": "farmersmarket", "title": "Farmers Market"}, {"alias": "foodstands", "title": "Food Stands"}], "rating": 4.0, "coordinates": {"latitude": 37.4787938, "longitude": -122.1872341}, "transactions": [], "location": {"address1": "3715 Florence St", "address2": "", "address3": "", "city": "Redwood City", "zip_code": "94063", "country": "US", "state": "CA", "display_address": ["3715 Florence St", "Redwood City, CA 94063"]}, "phone": "", "display_phone": "", "distance": 2146.778093249545}, {"id": "8xDPfxmlMWVn-OQPTPU_wA", "alias": "crazy-curry-belmont-2", "name": "Crazy Curry", "image_url": "https://s3-media4.fl.yelpcdn.com/bphoto/6V2onr7ftDPTZyg9t0UOMw/o.jpg", "is_closed": false, "url": "https://www.yelp.com/biz/crazy-curry-belmont-2?adjust_creative=R39z9kjZ-1HrCCc7SW6pcw&utm_campaign=yelp_api_v3&utm_medium=api_v3_business_search&utm_source=R39z9kjZ-1HrCCc7SW6pcw", "review_count": 3, "categories": [{"alias": "japacurry", "title": "Japanese Curry"}, {"alias": "foodtrucks", "title": "Food Trucks"}], "rating": 3.5, "coordinates": {"latitude": 37.5265, "longitude": -122.28178}, "transactions": [], "location": {"address1": "407 Old County Rd", "address2": null, "address3": "", "city": "Belmont", "zip_code": "94002", "country": "US", "state": "CA", "display_address": ["407 Old County Rd", "Belmont, CA 94002"]}, "phone": "+14154832691", "display_phone": "(415) 483-2691", "distance": 10623.871247669398}, {"id": "X1NgPMMREoTTDAZPe6D-kA", "alias": "whisk-on-wheels-redwood-city", "name": "Whisk on Wheels", "image_url": "https://s3-media1.fl.yelpcdn.com/bphoto/qt-YlMlVl6G5a2wXxHgtJA/o.jpg", "is_closed": false, "url": "https://www.yelp.com/biz/whisk-on-wheels-redwood-city?adjust_creative=R39z9kjZ-1HrCCc7SW6pcw&utm_campaign=yelp_api_v3&utm_medium=api_v3_business_search&utm_source=R39z9kjZ-1HrCCc7SW6pcw", "review_count": 119, "categories": [{"alias": "catering", "title": "Caterers"}, {"alias": "foodtrucks", "title": "Food Trucks"}, {"alias": "tradamerican", "title": "American (Traditional)"}], "rating": 4.0, "coordinates": {"latitude": 37.48853, "longitude": -122.22662}, "transactions": [], "price": "$$", "location": {"address1": "", "address2": null, "address3": "", "city": "Redwood City", "zip_code": "94063", "country": "US", "state": "CA", "display_address": ["Redwood City, CA 94063"]}, "phone": "+14159021188", "display_phone": "(415) 902-1188", "distance": 4797.554977568203}, {"id": "uYWuccy26C6aTIs2Djumwg", "alias": "dominos-pizza-redwood-city", "name": "Domino's Pizza", "image_url": "https://s3-media2.fl.yelpcdn.com/bphoto/C9k7ye3FBv9UczYWm8G3SQ/o.jpg", "is_closed": false, "url": "https://www.yelp.com/biz/dominos-pizza-redwood-city?adjust_creative=R39z9kjZ-1HrCCc7SW6pcw&utm_campaign=yelp_api_v3&utm_medium=api_v3_business_search&utm_source=R39z9kjZ-1HrCCc7SW6pcw", "review_count": 97, "categories": [{"alias": "pizza", "title": "Pizza"}, {"alias": "chicken_wings", "title": "Chicken Wings"}, {"alias": "sandwiches", "title": "Sandwiches"}], "rating": 1.5, "coordinates": {"latitude": 37.4687024205923, "longitude": -122.207470983267}, "transactions": [], "price": "$", "location": {"address1": "100 5th Ave", "address2": "", "address3": "", "city": "Redwood City", "zip_code": "94063", "country": "US", "state": "CA", "display_address": ["100 5th Ave", "Redwood City, CA 94063"]}, "phone": "+16502988911", "display_phone": "(650) 298-8911", "distance": 1427.3167272464734}, {"id": "IegFO313QPnk337rdhoQOw", "alias": "fire-and-rice-san-jose", "name": "Fire And Rice", "image_url": "https://s3-media2.fl.yelpcdn.com/bphoto/xOYGBlB3cAqOVg_PZ3-wSw/o.jpg", "is_closed": false, "url": "https://www.yelp.com/biz/fire-and-rice-san-jose?adjust_creative=R39z9kjZ-1HrCCc7SW6pcw&utm_campaign=yelp_api_v3&utm_medium=api_v3_business_search&utm_source=R39z9kjZ-1HrCCc7SW6pcw", "review_count": 27, "categories": [{"alias": "hawaiian", "title": "Hawaiian"}, {"alias": "asianfusion", "title": "Asian Fusion"}, {"alias": "foodtrucks", "title": "Food Trucks"}], "rating": 4.5, "coordinates": {"latitude": 37.3354873657227, "longitude": -121.877342224121}, "transactions": [], "location": {"address1": "", "address2": null, "address3": "", "city": "San Jose", "zip_code": "95112", "country": "US", "state": "CA", "display_address": ["San Jose, CA 95112"]}, "phone": "+14083372219", "display_phone": "(408) 337-2219", "distance": 30227.255730230037}, {"id": "AvMZaTZdPbawk3z8LFgUzQ", "alias": "food-street-su-jaime-food-truck-palo-alto", "name": "Food Street Su Jaime Food Truck", "image_url": "https://s3-media2.fl.yelpcdn.com/bphoto/QcM_YqwPV-DlcNFce_VJdg/o.jpg", "is_closed": false, "url": "https://www.yelp.com/biz/food-street-su-jaime-food-truck-palo-alto?adjust_creative=R39z9kjZ-1HrCCc7SW6pcw&utm_campaign=yelp_api_v3&utm_medium=api_v3_business_search&utm_source=R39z9kjZ-1HrCCc7SW6pcw", "review_count": 2, "categories": [{"alias": "foodtrucks", "title": "Food Trucks"}, {"alias": "tacos", "title": "Tacos"}, {"alias": "catering", "title": "Caterers"}], "rating": 5.0, "coordinates": {"latitude": 37.405068, "longitude": -122.140252}, "transactions": [], "location": {"address1": "3801 Miranda Ave", "address2": "", "address3": "", "city": "Palo Alto", "zip_code": "95127", "country": "US", "state": "CA", "display_address": ["3801 Miranda Ave", "Palo Alto, CA 95127"]}, "phone": "+16507508822", "display_phone": "(650) 750-8822", "distance": 7821.260570848802}, {"id": "y7jjHpDrYUI7YGpE8e31-g", "alias": "pita-and-salt-santa-clara-2", "name": "Pita & Salt", "image_url": "https://s3-media4.fl.yelpcdn.com/bphoto/OzeFWYEgK2L4rl5VOSyEHQ/o.jpg", "is_closed": false, "url": "https://www.yelp.com/biz/pita-and-salt-santa-clara-2?adjust_creative=R39z9kjZ-1HrCCc7SW6pcw&utm_campaign=yelp_api_v3&utm_medium=api_v3_business_search&utm_source=R39z9kjZ-1HrCCc7SW6pcw", "review_count": 74, "categories": [{"alias": "mediterranean", "title": "Mediterranean"}, {"alias": "halal", "title": "Halal"}, {"alias": "foodtrucks", "title": "Food Trucks"}], "rating": 4.5, "coordinates": {"latitude": 37.3400871, "longitude": -121.987255}, "transactions": ["delivery", "pickup"], "price": "$", "location": {"address1": null, "address2": null, "address3": "", "city": "Santa Clara", "zip_code": "95051", "country": "US", "state": "CA", "display_address": ["Santa Clara, CA 95051"]}, "phone": "+16128765509", "display_phone": "(612) 876-5509", "distance": 22704.937218242525}, {"id": "8SNGFcMWZkvS4GWDUL8w1Q", "alias": "noon-o-kabob-san-jose-4", "name": "Noon O Kabob", "image_url": "https://s3-media2.fl.yelpcdn.com/bphoto/5GmY5FRw0m0XEWC5XXbVlA/o.jpg", "is_closed": false, "url": "https://www.yelp.com/biz/noon-o-kabob-san-jose-4?adjust_creative=R39z9kjZ-1HrCCc7SW6pcw&utm_campaign=yelp_api_v3&utm_medium=api_v3_business_search&utm_source=R39z9kjZ-1HrCCc7SW6pcw", "review_count": 29, "categories": [{"alias": "foodtrucks", "title": "Food Trucks"}, {"alias": "kebab", "title": "Kebab"}, {"alias": "persian", "title": "Persian/Iranian"}], "rating": 4.5, "coordinates": {"latitude": 37.3940232, "longitude": -122.0288052}, "transactions": [], "price": "$$", "location": {"address1": null, "address2": null, "address3": null, "city": "San Jose", "zip_code": "95101", "country": "US", "state": "CA", "display_address": ["San Jose, CA 95101"]}, "phone": "+14083346777", "display_phone": "(408) 334-6777", "distance": 16421.245488168704}, {"id": "ojUAPwlCiu_4vm_Z0ZqiYQ", "alias": "bayareatacocatering-belmont", "name": "BayAreaTacoCatering", "image_url": "https://s3-media2.fl.yelpcdn.com/bphoto/GMhjsoS5maG6UsosVN8Yhw/o.jpg", "is_closed": false, "url": "https://www.yelp.com/biz/bayareatacocatering-belmont?adjust_creative=R39z9kjZ-1HrCCc7SW6pcw&utm_campaign=yelp_api_v3&utm_medium=api_v3_business_search&utm_source=R39z9kjZ-1HrCCc7SW6pcw", "review_count": 24, "categories": [{"alias": "tacos", "title": "Tacos"}, {"alias": "catering", "title": "Caterers"}, {"alias": "foodtrucks", "title": "Food Trucks"}], "rating": 5.0, "coordinates": {"latitude": 37.5117858227472, "longitude": -122.292540979695}, "transactions": [], "price": "$", "location": {"address1": null, "address2": null, "address3": "", "city": "Belmont", "zip_code": "94002", "country": "US", "state": "CA", "display_address": ["Belmont, CA 94002"]}, "phone": "+15108666832", "display_phone": "(510) 866-6832", "distance": 10335.50841520544}, {"id": "40DtuR_HxNuBVf_uSoy66Q", "alias": "keeku-da-dhaba-fremont-2", "name": "Keeku da Dhaba", "image_url": "https://s3-media2.fl.yelpcdn.com/bphoto/8x2WS8oGXINIKI6pNnQYBw/o.jpg", "is_closed": false, "url": "https://www.yelp.com/biz/keeku-da-dhaba-fremont-2?adjust_creative=R39z9kjZ-1HrCCc7SW6pcw&utm_campaign=yelp_api_v3&utm_medium=api_v3_business_search&utm_source=R39z9kjZ-1HrCCc7SW6pcw", "review_count": 115, "categories": [{"alias": "indpak", "title": "Indian"}, {"alias": "foodtrucks", "title": "Food Trucks"}, {"alias": "kebab", "title": "Kebab"}], "rating": 4.5, "coordinates": {"latitude": 37.551938, "longitude": -121.985058}, "transactions": [], "location": {"address1": "3400 Mowry Ave", "address2": "", "address3": "Bharat Bazaar Parking Space", "city": "Fremont", "zip_code": "94538", "country": "US", "state": "CA", "display_address": ["3400 Mowry Ave", "Bharat Bazaar Parking Space", "Fremont, CA 94538"]}, "phone": "+15107893437", "display_phone": "(510) 789-3437", "distance": 21127.108200441045}, {"id": "pLcI2SabKRsZ_a4E8YfM2Q", "alias": "el-jarachito-menlo-park", "name": "El Jarachito", "image_url": "https://s3-media3.fl.yelpcdn.com/bphoto/GmmxBNxhTQSZG9VeiNI21Q/o.jpg", "is_closed": false, "url": "https://www.yelp.com/biz/el-jarachito-menlo-park?adjust_creative=R39z9kjZ-1HrCCc7SW6pcw&utm_campaign=yelp_api_v3&utm_medium=api_v3_business_search&utm_source=R39z9kjZ-1HrCCc7SW6pcw", "review_count": 6, "categories": [{"alias": "mexican", "title": "Mexican"}], "rating": 3.5, "coordinates": {"latitude": 37.4712533, "longitude": -122.2034883}, "transactions": [], "price": "$", "location": {"address1": "3264 Middlefield Rd", "address2": "", "address3": "", "city": "Menlo Park", "zip_code": "94025", "country": "US", "state": "CA", "display_address": ["3264 Middlefield Rd", "Menlo Park, CA 94025"]}, "phone": "", "display_phone": "", "distance": 1409.0280987506576}, {"id": "or6vgjw2EFtsWUW_F_eW3A", "alias": "yoshi-food-truck-fremont-2", "name": "Yoshi Food Truck", "image_url": "https://s3-media3.fl.yelpcdn.com/bphoto/YTdMb9ocRxHjMv-CEYwN5g/o.jpg", "is_closed": false, "url": "https://www.yelp.com/biz/yoshi-food-truck-fremont-2?adjust_creative=R39z9kjZ-1HrCCc7SW6pcw&utm_campaign=yelp_api_v3&utm_medium=api_v3_business_search&utm_source=R39z9kjZ-1HrCCc7SW6pcw", "review_count": 27, "categories": [{"alias": "foodtrucks", "title": "Food Trucks"}, {"alias": "poke", "title": "Poke"}, {"alias": "japanese", "title": "Japanese"}], "rating": 4.5, "coordinates": {"latitude": 37.494597, "longitude": -121.94160967}, "transactions": [], "location": {"address1": "45500 Fremont Blvd", "address2": null, "address3": "", "city": "Fremont", "zip_code": "94538", "country": "US", "state": "CA", "display_address": ["45500 Fremont Blvd", "Fremont, CA 94538"]}, "phone": "+16693776666", "display_phone": "(669) 377-6666", "distance": 22735.960279830622}, {"id": "DDmdMztfsQaPhi7by4lhCQ", "alias": "el-kora-redwood-city", "name": "El Kora", "image_url": "", "is_closed": false, "url": "https://www.yelp.com/biz/el-kora-redwood-city?adjust_creative=R39z9kjZ-1HrCCc7SW6pcw&utm_campaign=yelp_api_v3&utm_medium=api_v3_business_search&utm_source=R39z9kjZ-1HrCCc7SW6pcw", "review_count": 3, "categories": [{"alias": "mexican", "title": "Mexican"}], "rating": 3.5, "coordinates": {"latitude": 37.4724513, "longitude": -122.2047808}, "transactions": [], "location": {"address1": "3143 Middlefield Rd", "address2": "", "address3": "", "city": "Redwood City", "zip_code": "94063", "country": "US", "state": "CA", "display_address": ["3143 Middlefield Rd", "Redwood City, CA 94063"]}, "phone": "", "display_phone": "", "distance": 1610.5149914938654}, {"id": "lgheXsHqe66AEZwoPDIEpw", "alias": "taco-coma-newark", "name": "Taco Coma", "image_url": "https://s3-media3.fl.yelpcdn.com/bphoto/DDz5lZDL5lDiRR_Ph0L4Sg/o.jpg", "is_closed": false, "url": "https://www.yelp.com/biz/taco-coma-newark?adjust_creative=R39z9kjZ-1HrCCc7SW6pcw&utm_campaign=yelp_api_v3&utm_medium=api_v3_business_search&utm_source=R39z9kjZ-1HrCCc7SW6pcw", "review_count": 3, "categories": [{"alias": "foodstands", "title": "Food Stands"}, {"alias": "tacos", "title": "Tacos"}], "rating": 5.0, "coordinates": {"latitude": 37.53453, "longitude": -122.03284}, "transactions": [], "location": {"address1": "", "address2": null, "address3": "", "city": "Newark", "zip_code": "94560", "country": "US", "state": "CA", "display_address": ["Newark, CA 94560"]}, "phone": "+15106971448", "display_phone": "(510) 697-1448", "distance": 15827.668343460844}, {"id": "qOKiXV4yxm40m3Ni9vsQlA", "alias": "momo-cook-fremont-3", "name": "MoMo CooK", "image_url": "https://s3-media1.fl.yelpcdn.com/bphoto/ZAM_gtFZMwrxbsxML0Qm2w/o.jpg", "is_closed": false, "url": "https://www.yelp.com/biz/momo-cook-fremont-3?adjust_creative=R39z9kjZ-1HrCCc7SW6pcw&utm_campaign=yelp_api_v3&utm_medium=api_v3_business_search&utm_source=R39z9kjZ-1HrCCc7SW6pcw", "review_count": 143, "categories": [{"alias": "chinese", "title": "Chinese"}, {"alias": "indpak", "title": "Indian"}, {"alias": "foodtrucks", "title": "Food Trucks"}], "rating": 4.5, "coordinates": {"latitude": 37.5536230879515, "longitude": -121.982570104301}, "transactions": [], "price": "$", "location": {"address1": "39039 Capitol Ave", "address2": null, "address3": "", "city": "Fremont", "zip_code": "94538", "country": "US", "state": "CA", "display_address": ["39039 Capitol Ave", "Fremont, CA 94538"]}, "phone": "+16012126767", "display_phone": "(601) 212-6767", "distance": 21407.313685192956}, {"id": "Is1KN9f5THyPgo1RjAxRzg", "alias": "madd-mex-cantina-food-truck-san-mateo-3", "name": "Madd Mex Cantina Food Truck", "image_url": "https://s3-media3.fl.yelpcdn.com/bphoto/sqUQfoUkNqzsWDktPN09Dg/o.jpg", "is_closed": false, "url": "https://www.yelp.com/biz/madd-mex-cantina-food-truck-san-mateo-3?adjust_creative=R39z9kjZ-1HrCCc7SW6pcw&utm_campaign=yelp_api_v3&utm_medium=api_v3_business_search&utm_source=R39z9kjZ-1HrCCc7SW6pcw", "review_count": 225, "categories": [{"alias": "foodtrucks", "title": "Food Trucks"}, {"alias": "mexican", "title": "Mexican"}, {"alias": "catering", "title": "Caterers"}], "rating": 4.5, "coordinates": {"latitude": 37.5521392822266, "longitude": -122.260833740234}, "transactions": [], "price": "$", "location": {"address1": "", "address2": null, "address3": "", "city": "San Mateo", "zip_code": "94404", "country": "US", "state": "CA", "display_address": ["San Mateo, CA 94404"]}, "phone": "", "display_phone": "", "distance": 12474.159163837177}, {"id": "7dHj1XDVA_7AYXTfp5i-BQ", "alias": "momo-noodle-san-francisco", "name": "MOMO noodle", "image_url": "https://s3-media4.fl.yelpcdn.com/bphoto/7zlv0Fz-2CTVIPLa767RVw/o.jpg", "is_closed": false, "url": "https://www.yelp.com/biz/momo-noodle-san-francisco?adjust_creative=R39z9kjZ-1HrCCc7SW6pcw&utm_campaign=yelp_api_v3&utm_medium=api_v3_business_search&utm_source=R39z9kjZ-1HrCCc7SW6pcw", "review_count": 46, "categories": [{"alias": "noodles", "title": "Noodles"}, {"alias": "foodtrucks", "title": "Food Trucks"}, {"alias": "szechuan", "title": "Szechuan"}], "rating": 4.0, "coordinates": {"latitude": 37.79106, "longitude": -122.40175}, "transactions": [], "price": "$$", "location": {"address1": null, "address2": null, "address3": "", "city": "San Francisco", "zip_code": "94104", "country": "US", "state": "CA", "display_address": ["San Francisco, CA 94104"]}, "phone": "+14088006819", "display_phone": "(408) 800-6819", "distance": 41051.2231566141}, {"id": "1bOP1Yzx0A8ekLfAlfXqdA", "alias": "delhiwala-chaat-sunnyvale-5", "name": "Delhiwala Chaat", "image_url": "https://s3-media3.fl.yelpcdn.com/bphoto/t2-6oGLJyN9OAUTrNEuXpA/o.jpg", "is_closed": false, "url": "https://www.yelp.com/biz/delhiwala-chaat-sunnyvale-5?adjust_creative=R39z9kjZ-1HrCCc7SW6pcw&utm_campaign=yelp_api_v3&utm_medium=api_v3_business_search&utm_source=R39z9kjZ-1HrCCc7SW6pcw", "review_count": 273, "categories": [{"alias": "foodtrucks", "title": "Food Trucks"}, {"alias": "indpak", "title": "Indian"}, {"alias": "vegetarian", "title": "Vegetarian"}], "rating": 4.5, "coordinates": {"latitude": 37.3812940033346, "longitude": -122.018071772228}, "transactions": [], "price": "$", "location": {"address1": "296 N Fair Oaks Ave", "address2": null, "address3": "", "city": "Sunnyvale", "zip_code": "94085", "country": "US", "state": "CA", "display_address": ["296 N Fair Oaks Ave", "Sunnyvale, CA 94085"]}, "phone": "+14085616778", "display_phone": "(408) 561-6778", "distance": 17924.936151410526}, {"id": "eFze49p61lnz566lHbLcfw", "alias": "smoked-out-bbq-santa-clara-3", "name": "Smoked Out BBQ", "image_url": "https://s3-media2.fl.yelpcdn.com/bphoto/L77L7PXYKv_Ndhdx1B6y2A/o.jpg", "is_closed": false, "url": "https://www.yelp.com/biz/smoked-out-bbq-santa-clara-3?adjust_creative=R39z9kjZ-1HrCCc7SW6pcw&utm_campaign=yelp_api_v3&utm_medium=api_v3_business_search&utm_source=R39z9kjZ-1HrCCc7SW6pcw", "review_count": 101, "categories": [{"alias": "foodtrucks", "title": "Food Trucks"}, {"alias": "bbq", "title": "Barbeque"}, {"alias": "tradamerican", "title": "American (Traditional)"}], "rating": 4.5, "coordinates": {"latitude": 37.38453, "longitude": -121.94872}, "transactions": ["delivery", "pickup"], "price": "$$", "location": {"address1": "807 Aldo Ave", "address2": "Ste 106", "address3": "", "city": "Santa Clara", "zip_code": "95054", "country": "US", "state": "CA", "display_address": ["807 Aldo Ave", "Ste 106", "Santa Clara, CA 95054"]}, "phone": "+14083202971", "display_phone": "(408) 320-2971", "distance": 23261.041346928985}, {"id": "Ab6vzOFACLw-wGhJuAwVdA", "alias": "lindo-michoac\u00e1n-redwood-city", "name": "Lindo Michoac\u00e1n", "image_url": "https://s3-media3.fl.yelpcdn.com/bphoto/_iYhim8HskgIXP6yMYzvfg/o.jpg", "is_closed": false, "url": "https://www.yelp.com/biz/lindo-michoac%C3%A1n-redwood-city?adjust_creative=R39z9kjZ-1HrCCc7SW6pcw&utm_campaign=yelp_api_v3&utm_medium=api_v3_business_search&utm_source=R39z9kjZ-1HrCCc7SW6pcw", "review_count": 2, "categories": [{"alias": "mexican", "title": "Mexican"}], "rating": 1.5, "coordinates": {"latitude": 37.4734878540039, "longitude": -122.205604553223}, "transactions": [], "location": {"address1": "400-408 3rd Ave", "address2": "", "address3": "", "city": "Redwood City", "zip_code": "94063", "country": "US", "state": "CA", "display_address": ["400-408 3rd Ave", "Redwood City, CA 94063"]}, "phone": "", "display_phone": "", "distance": 1732.897636692688}, {"id": "lLF85IwyJRNlVzdt2nKADg", "alias": "pav-bhaji-hut-sunnyvale", "name": "Pav Bhaji Hut", "image_url": "https://s3-media2.fl.yelpcdn.com/bphoto/QU02i8LoL8aEKkFmme_kRw/o.jpg", "is_closed": false, "url": "https://www.yelp.com/biz/pav-bhaji-hut-sunnyvale?adjust_creative=R39z9kjZ-1HrCCc7SW6pcw&utm_campaign=yelp_api_v3&utm_medium=api_v3_business_search&utm_source=R39z9kjZ-1HrCCc7SW6pcw", "review_count": 520, "categories": [{"alias": "foodtrucks", "title": "Food Trucks"}, {"alias": "indpak", "title": "Indian"}, {"alias": "vegetarian", "title": "Vegetarian"}], "rating": 4.0, "coordinates": {"latitude": 37.4054217, "longitude": -121.9957604}, "transactions": ["delivery", "pickup"], "price": "$", "location": {"address1": "1201 Lawrence Station Rd", "address2": null, "address3": "", "city": "Sunnyvale", "zip_code": "94089", "country": "US", "state": "CA", "display_address": ["1201 Lawrence Station Rd", "Sunnyvale, CA 94089"]}, "phone": "+14085200459", "display_phone": "(408) 520-0459", "distance": 18617.749882409702}, {"id": "lGLyIlp2qqAVu5Zxeomy9Q", "alias": "gondo-fusion-south-san-francisco", "name": "Gondo Fusion", "image_url": "https://s3-media2.fl.yelpcdn.com/bphoto/Ry4KFwoAev_BGRpe2WtcYA/o.jpg", "is_closed": false, "url": "https://www.yelp.com/biz/gondo-fusion-south-san-francisco?adjust_creative=R39z9kjZ-1HrCCc7SW6pcw&utm_campaign=yelp_api_v3&utm_medium=api_v3_business_search&utm_source=R39z9kjZ-1HrCCc7SW6pcw", "review_count": 13, "categories": [{"alias": "foodtrucks", "title": "Food Trucks"}, {"alias": "cuban", "title": "Cuban"}, {"alias": "mexican", "title": "Mexican"}], "rating": 4.0, "coordinates": {"latitude": 37.65774, "longitude": -122.41407}, "transactions": [], "location": {"address1": "", "address2": null, "address3": "", "city": "South San Francisco", "zip_code": "94080", "country": "US", "state": "CA", "display_address": ["South San Francisco, CA 94080"]}, "phone": "+16502185404", "display_phone": "(650) 218-5404", "distance": 29113.734356387446}, {"id": "3vpe03iIZMCN1j0W39AROg", "alias": "akita-gourmet-santa-clara", "name": "Akita Gourmet", "image_url": "https://s3-media2.fl.yelpcdn.com/bphoto/pJgeD4nO8FKiP1wouYt6fA/o.jpg", "is_closed": false, "url": "https://www.yelp.com/biz/akita-gourmet-santa-clara?adjust_creative=R39z9kjZ-1HrCCc7SW6pcw&utm_campaign=yelp_api_v3&utm_medium=api_v3_business_search&utm_source=R39z9kjZ-1HrCCc7SW6pcw", "review_count": 51, "categories": [{"alias": "foodtrucks", "title": "Food Trucks"}, {"alias": "sushi", "title": "Sushi Bars"}], "rating": 4.0, "coordinates": {"latitude": 37.3572313, "longitude": -121.9340228}, "transactions": ["delivery"], "price": "$$", "location": {"address1": "1290 Coleman Av", "address2": null, "address3": "", "city": "Santa Clara", "zip_code": "95050", "country": "US", "state": "CA", "display_address": ["1290 Coleman Av", "Santa Clara, CA 95050"]}, "phone": "+14089305242", "display_phone": "(408) 930-5242", "distance": 25741.803142541998}, {"id": "kQEPAzL76d_4F8RJwpmYCQ", "alias": "3-3-3-fremont", "name": "3-3-3", "image_url": "https://s3-media1.fl.yelpcdn.com/bphoto/WrUzEXSitGcLpQkVQsUgWg/o.jpg", "is_closed": false, "url": "https://www.yelp.com/biz/3-3-3-fremont?adjust_creative=R39z9kjZ-1HrCCc7SW6pcw&utm_campaign=yelp_api_v3&utm_medium=api_v3_business_search&utm_source=R39z9kjZ-1HrCCc7SW6pcw", "review_count": 182, "categories": [{"alias": "korean", "title": "Korean"}, {"alias": "foodtrucks", "title": "Food Trucks"}, {"alias": "indpak", "title": "Indian"}], "rating": 4.0, "coordinates": {"latitude": 37.3595859789331, "longitude": -121.923039561035}, "transactions": [], "price": "$", "location": {"address1": "", "address2": null, "address3": "", "city": "Fremont", "zip_code": "94539", "country": "US", "state": "CA", "display_address": ["Fremont, CA 94539"]}, "phone": "+15104498360", "display_phone": "(510) 449-8360", "distance": 26501.553223901326}, {"id": "rRVAOEHSBuvzOWkz6NJ72A", "alias": "gold-rush-eatery-sunnyvale-6", "name": "Gold Rush Eatery", "image_url": "https://s3-media1.fl.yelpcdn.com/bphoto/CFpX50jiQRajc_tx_GVShA/o.jpg", "is_closed": false, "url": "https://www.yelp.com/biz/gold-rush-eatery-sunnyvale-6?adjust_creative=R39z9kjZ-1HrCCc7SW6pcw&utm_campaign=yelp_api_v3&utm_medium=api_v3_business_search&utm_source=R39z9kjZ-1HrCCc7SW6pcw", "review_count": 140, "categories": [{"alias": "foodtrucks", "title": "Food Trucks"}, {"alias": "burgers", "title": "Burgers"}, {"alias": "beerbar", "title": "Beer Bar"}], "rating": 4.0, "coordinates": {"latitude": 37.3551306948281, "longitude": -122.010198819353}, "transactions": ["pickup", "delivery"], "price": "$$", "location": {"address1": "1010 S Wolfe Rd", "address2": null, "address3": "", "city": "Sunnyvale", "zip_code": "94036", "country": "US", "state": "CA", "display_address": ["1010 S Wolfe Rd", "Sunnyvale, CA 94036"]}, "phone": "+14087435336", "display_phone": "(408) 743-5336", "distance": 20081.040433122424}, {"id": "23dvbpp8C6eRYev8gxtHxA", "alias": "indian-express-san-jose-8", "name": "Indian Express", "image_url": "https://s3-media2.fl.yelpcdn.com/bphoto/EhHGKWS3YWw5JIyNs9XJUw/o.jpg", "is_closed": false, "url": "https://www.yelp.com/biz/indian-express-san-jose-8?adjust_creative=R39z9kjZ-1HrCCc7SW6pcw&utm_campaign=yelp_api_v3&utm_medium=api_v3_business_search&utm_source=R39z9kjZ-1HrCCc7SW6pcw", "review_count": 18, "categories": [{"alias": "foodtrucks", "title": "Food Trucks"}, {"alias": "halal", "title": "Halal"}, {"alias": "indpak", "title": "Indian"}], "rating": 4.0, "coordinates": {"latitude": 37.3817444712737, "longitude": -121.928059986855}, "transactions": ["pickup", "delivery"], "price": "$", "location": {"address1": "2525 N 1st St", "address2": null, "address3": "", "city": "San Jose", "zip_code": "95134", "country": "US", "state": "CA", "display_address": ["2525 N 1st St", "San Jose, CA 95134"]}, "phone": "+14132424862", "display_phone": "(413) 242-4862", "distance": 25137.4579675387}, {"id": "PDxq7VnVG0mCThRHHSN-6A", "alias": "los-jarochos-grill-san-jose-2", "name": "Los Jarochos Grill", "image_url": "https://s3-media1.fl.yelpcdn.com/bphoto/EAxtcK2U8BdCVieKFu2cFw/o.jpg", "is_closed": false, "url": "https://www.yelp.com/biz/los-jarochos-grill-san-jose-2?adjust_creative=R39z9kjZ-1HrCCc7SW6pcw&utm_campaign=yelp_api_v3&utm_medium=api_v3_business_search&utm_source=R39z9kjZ-1HrCCc7SW6pcw", "review_count": 18, "categories": [{"alias": "foodtrucks", "title": "Food Trucks"}, {"alias": "catering", "title": "Caterers"}, {"alias": "mexican", "title": "Mexican"}], "rating": 4.5, "coordinates": {"latitude": 37.3386497497559, "longitude": -121.88542175293}, "transactions": [], "price": "$", "location": {"address1": "", "address2": "", "address3": "", "city": "San Jose", "zip_code": "95054", "country": "US", "state": "CA", "display_address": ["San Jose, CA 95054"]}, "phone": "+14086444587", "display_phone": "(408) 644-4587", "distance": 21486.007812067117}, {"id": "jVGGp6ZQ_0jMVcDA8zC3nA", "alias": "mobile-food-fleet-san-bruno", "name": "Mobile Food Fleet", "image_url": "https://s3-media2.fl.yelpcdn.com/bphoto/mdPFUd9IwfEUibv4sFZ5Jg/o.jpg", "is_closed": false, "url": "https://www.yelp.com/biz/mobile-food-fleet-san-bruno?adjust_creative=R39z9kjZ-1HrCCc7SW6pcw&utm_campaign=yelp_api_v3&utm_medium=api_v3_business_search&utm_source=R39z9kjZ-1HrCCc7SW6pcw", "review_count": 1, "categories": [{"alias": "foodtrucks", "title": "Food Trucks"}, {"alias": "tacos", "title": "Tacos"}], "rating": 5.0, "coordinates": {"latitude": 37.6276206970215, "longitude": -122.425605773926}, "transactions": [], "location": {"address1": "", "address2": null, "address3": "", "city": "San Bruno", "zip_code": "94066", "country": "US", "state": "CA", "display_address": ["San Bruno, CA 94066"]}, "phone": "+16507735397", "display_phone": "(650) 773-5397", "distance": 27345.2577899173}, {"id": "0x_iVQeDq7YVMjNGUNuloA", "alias": "holy-cannoli-san-jose-3", "name": "Holy Cannoli", "image_url": "https://s3-media1.fl.yelpcdn.com/bphoto/-2Pxy7VYA8-CTgdvUf58Og/o.jpg", "is_closed": false, "url": "https://www.yelp.com/biz/holy-cannoli-san-jose-3?adjust_creative=R39z9kjZ-1HrCCc7SW6pcw&utm_campaign=yelp_api_v3&utm_medium=api_v3_business_search&utm_source=R39z9kjZ-1HrCCc7SW6pcw", "review_count": 58, "categories": [{"alias": "cafes", "title": "Cafes"}, {"alias": "catering", "title": "Caterers"}, {"alias": "foodtrucks", "title": "Food Trucks"}], "rating": 4.5, "coordinates": {"latitude": 37.337298, "longitude": -121.88759}, "transactions": ["delivery", "pickup"], "price": "$", "location": {"address1": "138 E Santa Clara St", "address2": null, "address3": null, "city": "San Jose", "zip_code": "95113", "country": "US", "state": "CA", "display_address": ["138 E Santa Clara St", "San Jose, CA 95113"]}, "phone": "+14085612223", "display_phone": "(408) 561-2223", "distance": 30404.58090352618}, {"id": "rM6pPB_qmQ3de5yGpfLT1g", "alias": "lomo-libre-san-francisco-2", "name": "Lomo Libre", "image_url": "https://s3-media1.fl.yelpcdn.com/bphoto/vjnO-EUjFHKoLMy2_JQYvg/o.jpg", "is_closed": false, "url": "https://www.yelp.com/biz/lomo-libre-san-francisco-2?adjust_creative=R39z9kjZ-1HrCCc7SW6pcw&utm_campaign=yelp_api_v3&utm_medium=api_v3_business_search&utm_source=R39z9kjZ-1HrCCc7SW6pcw", "review_count": 8, "categories": [{"alias": "foodtrucks", "title": "Food Trucks"}, {"alias": "peruvian", "title": "Peruvian"}], "rating": 5.0, "coordinates": {"latitude": 37.799634, "longitude": -122.436301}, "transactions": [], "location": {"address1": "2101 Lombard St", "address2": "", "address3": null, "city": "San Francisco", "zip_code": "94123", "country": "US", "state": "CA", "display_address": ["2101 Lombard St", "San Francisco, CA 94123"]}, "phone": "+14156198149", "display_phone": "(415) 619-8149", "distance": 43297.39500700834}, {"id": "gMzVS6LgUkUpip1NwwHaLQ", "alias": "twister-food-truck-san-jose-14", "name": "Twister Food Truck", "image_url": "https://s3-media4.fl.yelpcdn.com/bphoto/R_s82Wu2MBCHOM6xMRNzIg/o.jpg", "is_closed": false, "url": "https://www.yelp.com/biz/twister-food-truck-san-jose-14?adjust_creative=R39z9kjZ-1HrCCc7SW6pcw&utm_campaign=yelp_api_v3&utm_medium=api_v3_business_search&utm_source=R39z9kjZ-1HrCCc7SW6pcw", "review_count": 42, "categories": [{"alias": "foodtrucks", "title": "Food Trucks"}, {"alias": "asianfusion", "title": "Asian Fusion"}], "rating": 3.5, "coordinates": {"latitude": 37.36971, "longitude": -121.89675}, "transactions": [], "price": "$", "location": {"address1": "660 East Gish Rd", "address2": null, "address3": null, "city": "San Jose", "zip_code": "95112", "country": "US", "state": "CA", "display_address": ["660 East Gish Rd", "San Jose, CA 95112"]}, "phone": "+15106953921", "display_phone": "(510) 695-3921", "distance": 28229.164651012743}, {"id": "Qa7brHniluYGS6kvDLn_7Q", "alias": "3geeks-food-truck-santa-clara", "name": "3GEEKS FOOD TRUCK", "image_url": "https://s3-media2.fl.yelpcdn.com/bphoto/Ahw89hwfujcvycQ_3soddQ/o.jpg", "is_closed": false, "url": "https://www.yelp.com/biz/3geeks-food-truck-santa-clara?adjust_creative=R39z9kjZ-1HrCCc7SW6pcw&utm_campaign=yelp_api_v3&utm_medium=api_v3_business_search&utm_source=R39z9kjZ-1HrCCc7SW6pcw", "review_count": 86, "categories": [{"alias": "seafood", "title": "Seafood"}, {"alias": "cheesesteaks", "title": "Cheesesteaks"}, {"alias": "foodtrucks", "title": "Food Trucks"}], "rating": 3.0, "coordinates": {"latitude": 37.39911, "longitude": -121.95728}, "transactions": [], "price": "$$", "location": {"address1": null, "address2": null, "address3": "", "city": "Santa Clara", "zip_code": "95054", "country": "US", "state": "CA", "display_address": ["Santa Clara, CA 95054"]}, "phone": "+14089090709", "display_phone": "(408) 909-0709", "distance": 21486.007812067117}, {"id": "1e93gYXXlBHA0-XJXicJhQ", "alias": "inshallah-food-truck-south-san-francisco-2", "name": "Inshallah Food Truck", "image_url": "https://s3-media1.fl.yelpcdn.com/bphoto/IBFIlRI2k5jz_4uMvkIIUw/o.jpg", "is_closed": false, "url": "https://www.yelp.com/biz/inshallah-food-truck-south-san-francisco-2?adjust_creative=R39z9kjZ-1HrCCc7SW6pcw&utm_campaign=yelp_api_v3&utm_medium=api_v3_business_search&utm_source=R39z9kjZ-1HrCCc7SW6pcw", "review_count": 1, "categories": [{"alias": "mediterranean", "title": "Mediterranean"}, {"alias": "foodtrucks", "title": "Food Trucks"}], "rating": 3.0, "coordinates": {"latitude": 37.66737, "longitude": -122.38249}, "transactions": [], "location": {"address1": "395 Oyster Point", "address2": null, "address3": "", "city": "South San Francisco", "zip_code": "94080", "country": "US", "state": "CA", "display_address": ["395 Oyster Point", "South San Francisco, CA 94080"]}, "phone": "+16502716848", "display_phone": "(650) 271-6848", "distance": 28395.193963226375}, {"id": "PxzM_zNIOy7jdtwT-fbB0w", "alias": "minnie-bells-san-francisco-2", "name": "Minnie Bells", "image_url": "https://s3-media2.fl.yelpcdn.com/bphoto/5YNxEigMmu8anIwGkIsEzg/o.jpg", "is_closed": false, "url": "https://www.yelp.com/biz/minnie-bells-san-francisco-2?adjust_creative=R39z9kjZ-1HrCCc7SW6pcw&utm_campaign=yelp_api_v3&utm_medium=api_v3_business_search&utm_source=R39z9kjZ-1HrCCc7SW6pcw", "review_count": 15, "categories": [{"alias": "soulfood", "title": "Soul Food"}, {"alias": "foodtrucks", "title": "Food Trucks"}, {"alias": "comfortfood", "title": "Comfort Food"}], "rating": 4.5, "coordinates": {"latitude": 37.7769775466477, "longitude": -122.416963241994}, "transactions": [], "location": {"address1": "", "address2": "", "address3": null, "city": "San Francisco", "zip_code": "94103", "country": "US", "state": "CA", "display_address": ["San Francisco, CA 94103"]}, "phone": "+14152739340", "display_phone": "(415) 273-9340", "distance": 40268.20066891579}, {"id": "ai1PcujD1397VPMNc8Ffcg", "alias": "cross-hatch-eatery-sunnyvale", "name": "Cross Hatch Eatery", "image_url": "https://s3-media1.fl.yelpcdn.com/bphoto/HPquQAnn8mSmsNlng5Z-_A/o.jpg", "is_closed": false, "url": "https://www.yelp.com/biz/cross-hatch-eatery-sunnyvale?adjust_creative=R39z9kjZ-1HrCCc7SW6pcw&utm_campaign=yelp_api_v3&utm_medium=api_v3_business_search&utm_source=R39z9kjZ-1HrCCc7SW6pcw", "review_count": 1, "categories": [{"alias": "asianfusion", "title": "Asian Fusion"}, {"alias": "foodtrucks", "title": "Food Trucks"}], "rating": 1.0, "coordinates": {"latitude": 37.3998374938965, "longitude": -121.997146606445}, "transactions": [], "location": {"address1": "", "address2": null, "address3": "", "city": "Sunnyvale", "zip_code": "94089", "country": "US", "state": "CA", "display_address": ["Sunnyvale, CA 94089"]}, "phone": "+16692322267", "display_phone": "(669) 232-2267", "distance": 16540.60243986651}, {"id": "iA2CQeT9iWbUifpYrqtRbw", "alias": "yeeshaans-grubb-san-mateo-san-mateo-3", "name": "YeeShaans Grubb - San Mateo", "image_url": "https://s3-media1.fl.yelpcdn.com/bphoto/4Feev8zrWsRWiaBTiBDXCQ/o.jpg", "is_closed": false, "url": "https://www.yelp.com/biz/yeeshaans-grubb-san-mateo-san-mateo-3?adjust_creative=R39z9kjZ-1HrCCc7SW6pcw&utm_campaign=yelp_api_v3&utm_medium=api_v3_business_search&utm_source=R39z9kjZ-1HrCCc7SW6pcw", "review_count": 4, "categories": [{"alias": "halal", "title": "Halal"}, {"alias": "burgers", "title": "Burgers"}, {"alias": "foodtrucks", "title": "Food Trucks"}], "rating": 5.0, "coordinates": {"latitude": 37.5528491, "longitude": -122.3145976}, "transactions": ["delivery", "pickup"], "location": {"address1": "1619 S El Camino Real", "address2": null, "address3": "", "city": "San Mateo", "zip_code": "94402", "country": "US", "state": "CA", "display_address": ["1619 S El Camino Real", "San Mateo, CA 94402"]}, "phone": "+15106059510", "display_phone": "(510) 605-9510", "distance": 14760.655746328921}, {"id": "jCcAuXhCpeJP2n-8ol7mxg", "alias": "kolobok-russian-soul-food-truck-oakland", "name": "Kolobok Russian Soul Food Truck", "image_url": "https://s3-media1.fl.yelpcdn.com/bphoto/k8s1Bfc05Iw7SJXE6VJ74Q/o.jpg", "is_closed": false, "url": "https://www.yelp.com/biz/kolobok-russian-soul-food-truck-oakland?adjust_creative=R39z9kjZ-1HrCCc7SW6pcw&utm_campaign=yelp_api_v3&utm_medium=api_v3_business_search&utm_source=R39z9kjZ-1HrCCc7SW6pcw", "review_count": 47, "categories": [{"alias": "foodtrucks", "title": "Food Trucks"}, {"alias": "russian", "title": "Russian"}], "rating": 4.5, "coordinates": {"latitude": 37.7883087690458, "longitude": -122.309032460882}, "transactions": [], "price": "$$", "location": {"address1": null, "address2": null, "address3": "", "city": "Oakland", "zip_code": "94577", "country": "US", "state": "CA", "display_address": ["Oakland, CA 94577"]}, "phone": "+15105996542", "display_phone": "(510) 599-6542", "distance": 37820.000020246094}, {"id": "CUwBAy6lrFi4x6Neu9eRVw", "alias": "mini-street-burger-alameda-3", "name": "Mini Street Burger", "image_url": "https://s3-media2.fl.yelpcdn.com/bphoto/Kh-OQKBIclWY1dCeIuu57w/o.jpg", "is_closed": false, "url": "https://www.yelp.com/biz/mini-street-burger-alameda-3?adjust_creative=R39z9kjZ-1HrCCc7SW6pcw&utm_campaign=yelp_api_v3&utm_medium=api_v3_business_search&utm_source=R39z9kjZ-1HrCCc7SW6pcw", "review_count": 28, "categories": [{"alias": "foodtrucks", "title": "Food Trucks"}, {"alias": "burgers", "title": "Burgers"}], "rating": 4.0, "coordinates": {"latitude": 37.82628, "longitude": -122.25101}, "transactions": [], "location": {"address1": null, "address2": null, "address3": null, "city": "Alameda", "zip_code": "94611", "country": "US", "state": "CA", "display_address": ["Alameda, CA 94611"]}, "phone": "+15108278982", "display_phone": "(510) 827-8982", "distance": 41505.64107017091}, {"id": "QUr1mp33i3fjoBYeX1_Bzw", "alias": "lemongrass-lane-san-jose", "name": "Lemongrass Lane", "image_url": "https://s3-media3.fl.yelpcdn.com/bphoto/nOaqrmnHtcy9BwpUvjpMxg/o.jpg", "is_closed": false, "url": "https://www.yelp.com/biz/lemongrass-lane-san-jose?adjust_creative=R39z9kjZ-1HrCCc7SW6pcw&utm_campaign=yelp_api_v3&utm_medium=api_v3_business_search&utm_source=R39z9kjZ-1HrCCc7SW6pcw", "review_count": 27, "categories": [{"alias": "foodtrucks", "title": "Food Trucks"}, {"alias": "cambodian", "title": "Cambodian"}], "rating": 4.0, "coordinates": {"latitude": 37.33549, "longitude": -121.87735}, "transactions": [], "location": {"address1": null, "address2": null, "address3": null, "city": "San Jose", "zip_code": "95112", "country": "US", "state": "CA", "display_address": ["San Jose, CA 95112"]}, "phone": "+14086557066", "display_phone": "(408) 655-7066", "distance": 30227.255730230037}, {"id": "kIsGtzHcIxk40klNpTWuog", "alias": "grillaz-gone-wild-hayward", "name": "Grillaz Gone Wild", "image_url": "https://s3-media1.fl.yelpcdn.com/bphoto/4OKiJlqTPiue8J6EbwO3ug/o.jpg", "is_closed": false, "url": "https://www.yelp.com/biz/grillaz-gone-wild-hayward?adjust_creative=R39z9kjZ-1HrCCc7SW6pcw&utm_campaign=yelp_api_v3&utm_medium=api_v3_business_search&utm_source=R39z9kjZ-1HrCCc7SW6pcw", "review_count": 124, "categories": [{"alias": "cheesesteaks", "title": "Cheesesteaks"}, {"alias": "foodtrucks", "title": "Food Trucks"}, {"alias": "sandwiches", "title": "Sandwiches"}], "rating": 4.0, "coordinates": {"latitude": 37.63805, "longitude": -122.07161}, "transactions": [], "price": "$", "location": {"address1": "", "address2": "", "address3": "", "city": "Hayward", "zip_code": "94544", "country": "US", "state": "CA", "display_address": ["Hayward, CA 94544"]}, "phone": "+17075013252", "display_phone": "(707) 501-3252", "distance": 22522.46428550138}, {"id": "MutHfYUQnieaBuycuNXEPA", "alias": "damians-tacos-and-hotdogs-alum-rock", "name": "Damian's Tacos & Hotdogs", "image_url": "https://s3-media3.fl.yelpcdn.com/bphoto/HHmnhqlFJwEDhftVetH4qw/o.jpg", "is_closed": false, "url": "https://www.yelp.com/biz/damians-tacos-and-hotdogs-alum-rock?adjust_creative=R39z9kjZ-1HrCCc7SW6pcw&utm_campaign=yelp_api_v3&utm_medium=api_v3_business_search&utm_source=R39z9kjZ-1HrCCc7SW6pcw", "review_count": 7, "categories": [{"alias": "foodtrucks", "title": "Food Trucks"}, {"alias": "tacos", "title": "Tacos"}, {"alias": "hotdog", "title": "Hot Dogs"}], "rating": 4.5, "coordinates": {"latitude": 37.3549620850075, "longitude": -121.851418079178}, "transactions": [], "price": "$", "location": {"address1": "1925 Alumrock Ave", "address2": "", "address3": null, "city": "Alum Rock", "zip_code": "95116", "country": "US", "state": "CA", "display_address": ["1925 Alumrock Ave", "Alum Rock, CA 95116"]}, "phone": "+14084397331", "display_phone": "(408) 439-7331", "distance": 32526.983393592003}, {"id": "HayiFbi-9xFPhNjIad1lmA", "alias": "road-dogs-san-jose", "name": "Road Dogs", "image_url": "https://s3-media1.fl.yelpcdn.com/bphoto/2Zf1lrcEta1d89YmGI_-aA/o.jpg", "is_closed": false, "url": "https://www.yelp.com/biz/road-dogs-san-jose?adjust_creative=R39z9kjZ-1HrCCc7SW6pcw&utm_campaign=yelp_api_v3&utm_medium=api_v3_business_search&utm_source=R39z9kjZ-1HrCCc7SW6pcw", "review_count": 117, "categories": [{"alias": "hotdog", "title": "Hot Dogs"}, {"alias": "foodtrucks", "title": "Food Trucks"}], "rating": 4.0, "coordinates": {"latitude": 37.4825052756125, "longitude": -121.925558528338}, "transactions": ["pickup"], "price": "$", "location": {"address1": "", "address2": "", "address3": "", "city": "San Jose", "zip_code": "95132", "country": "US", "state": "CA", "display_address": ["San Jose, CA 95132"]}, "phone": "+14088351867", "display_phone": "(408) 835-1867", "distance": 23897.82621663216}, {"id": "-SnIHr-tALmciy_J1VqXRg", "alias": "cielito-lindo-mexican-street-kitchen-san-jos\u00e9-5", "name": "Cielito Lindo Mexican Street Kitchen", "image_url": "https://s3-media4.fl.yelpcdn.com/bphoto/kCSoIcRPwQ0tPiGQh3gEFw/o.jpg", "is_closed": false, "url": "https://www.yelp.com/biz/cielito-lindo-mexican-street-kitchen-san-jos%C3%A9-5?adjust_creative=R39z9kjZ-1HrCCc7SW6pcw&utm_campaign=yelp_api_v3&utm_medium=api_v3_business_search&utm_source=R39z9kjZ-1HrCCc7SW6pcw", "review_count": 40, "categories": [{"alias": "foodtrucks", "title": "Food Trucks"}, {"alias": "mexican", "title": "Mexican"}], "rating": 4.0, "coordinates": {"latitude": 37.3853149414062, "longitude": -121.893257141113}, "transactions": [], "price": "$", "location": {"address1": null, "address2": null, "address3": "", "city": "San Jos\u00e9", "zip_code": "95131", "country": "US", "state": "CA", "display_address": ["San Jos\u00e9, CA 95131"]}, "phone": "+16508629836", "display_phone": "(650) 862-9836", "distance": 27514.57158375933}, {"id": "_Y526-jjGzk_fjXBj1EePA", "alias": "paddy-wagon-sliders-san-jose-11", "name": "Paddy Wagon Sliders", "image_url": "https://s3-media1.fl.yelpcdn.com/bphoto/ESoDFDH27crUaTgFNhJB0w/o.jpg", "is_closed": false, "url": "https://www.yelp.com/biz/paddy-wagon-sliders-san-jose-11?adjust_creative=R39z9kjZ-1HrCCc7SW6pcw&utm_campaign=yelp_api_v3&utm_medium=api_v3_business_search&utm_source=R39z9kjZ-1HrCCc7SW6pcw", "review_count": 225, "categories": [{"alias": "foodtrucks", "title": "Food Trucks"}, {"alias": "burgers", "title": "Burgers"}, {"alias": "catering", "title": "Caterers"}], "rating": 4.0, "coordinates": {"latitude": 37.3382082, "longitude": -121.8863286}, "transactions": [], "price": "$", "location": {"address1": "", "address2": null, "address3": "", "city": "San Jose", "zip_code": "95112", "country": "US", "state": "CA", "display_address": ["San Jose, CA 95112"]}, "phone": "+14086435254", "display_phone": "(408) 643-5254", "distance": 30458.680532385162}, {"id": "2foqEQPQVy91S_ze4Win-A", "alias": "lamas-peruvian-truck-daly-city-2", "name": "Lamas Peruvian Truck", "image_url": "https://s3-media3.fl.yelpcdn.com/bphoto/G81twUQQu_9iDQMlyq58AA/o.jpg", "is_closed": false, "url": "https://www.yelp.com/biz/lamas-peruvian-truck-daly-city-2?adjust_creative=R39z9kjZ-1HrCCc7SW6pcw&utm_campaign=yelp_api_v3&utm_medium=api_v3_business_search&utm_source=R39z9kjZ-1HrCCc7SW6pcw", "review_count": 32, "categories": [{"alias": "foodtrucks", "title": "Food Trucks"}, {"alias": "peruvian", "title": "Peruvian"}], "rating": 3.5, "coordinates": {"latitude": 37.69158, "longitude": -122.46252}, "transactions": [], "price": "$$", "location": {"address1": "", "address2": null, "address3": null, "city": "Daly City", "zip_code": "94014", "country": "US", "state": "CA", "display_address": ["Daly City, CA 94014"]}, "phone": "+16507979866", "display_phone": "(650) 797-9866", "distance": 34192.69514915671}, {"id": "uuouQQIFQ1B9mkmcxaAKFA", "alias": "tacos-el-rey-oakland", "name": "Tacos El Rey", "image_url": "https://s3-media2.fl.yelpcdn.com/bphoto/DblyFrtT9uyPCQAUfPbYbQ/o.jpg", "is_closed": false, "url": "https://www.yelp.com/biz/tacos-el-rey-oakland?adjust_creative=R39z9kjZ-1HrCCc7SW6pcw&utm_campaign=yelp_api_v3&utm_medium=api_v3_business_search&utm_source=R39z9kjZ-1HrCCc7SW6pcw", "review_count": 9, "categories": [{"alias": "foodtrucks", "title": "Food Trucks"}, {"alias": "mexican", "title": "Mexican"}], "rating": 4.0, "coordinates": {"latitude": 37.8294034, "longitude": -122.2875758}, "transactions": [], "price": "$", "location": {"address1": "40th & Horton", "address2": "", "address3": null, "city": "Oakland", "zip_code": "94608", "country": "US", "state": "CA", "display_address": ["40th & Horton", "Oakland, CA 94608"]}, "phone": "+15108130232", "display_phone": "(510) 813-0232", "distance": 41832.95625369338}, {"id": "rTLv1Zlp64bK4BOe5SRjoA", "alias": "raoofs-san-jose-bean-pies-san-jose-2", "name": "Raoof's San Jose Bean Pies", "image_url": "https://s3-media3.fl.yelpcdn.com/bphoto/MxgzO7Fq5Fa6iw-MuTQ5CQ/o.jpg", "is_closed": false, "url": "https://www.yelp.com/biz/raoofs-san-jose-bean-pies-san-jose-2?adjust_creative=R39z9kjZ-1HrCCc7SW6pcw&utm_campaign=yelp_api_v3&utm_medium=api_v3_business_search&utm_source=R39z9kjZ-1HrCCc7SW6pcw", "review_count": 37, "categories": [{"alias": "bakeries", "title": "Bakeries"}, {"alias": "foodstands", "title": "Food Stands"}, {"alias": "desserts", "title": "Desserts"}], "rating": 5.0, "coordinates": {"latitude": 37.27898, "longitude": -121.95396}, "transactions": [], "price": "$$", "location": {"address1": "", "address2": "", "address3": "", "city": "San Jose", "zip_code": "95008", "country": "US", "state": "CA", "display_address": ["San Jose, CA 95008"]}, "phone": "+14085838129", "display_phone": "(408) 583-8129", "distance": 29546.26985795979}, {"id": "Lg73M4FnC1QQmUGpGHD4hA", "alias": "kabob-trolley-san-francisco-5", "name": "Kabob Trolley", "image_url": "https://s3-media2.fl.yelpcdn.com/bphoto/6WneQFOu-WWB-80KhY5TeA/o.jpg", "is_closed": false, "url": "https://www.yelp.com/biz/kabob-trolley-san-francisco-5?adjust_creative=R39z9kjZ-1HrCCc7SW6pcw&utm_campaign=yelp_api_v3&utm_medium=api_v3_business_search&utm_source=R39z9kjZ-1HrCCc7SW6pcw", "review_count": 86, "categories": [{"alias": "foodtrucks", "title": "Food Trucks"}, {"alias": "afghani", "title": "Afghan"}, {"alias": "halal", "title": "Halal"}], "rating": 3.5, "coordinates": {"latitude": 37.776774, "longitude": -122.3940414}, "transactions": ["pickup"], "price": "$", "location": {"address1": "298 King St", "address2": "", "address3": "", "city": "San Francisco", "zip_code": "94107", "country": "US", "state": "CA", "display_address": ["298 King St", "San Francisco, CA 94107"]}, "phone": "+14154049756", "display_phone": "(415) 404-9756", "distance": 39307.08642634192}, {"id": "WTtLB137UZmS1WbKrnXuAg", "alias": "borsch-mobile-san-francisco", "name": "Borsch Mobile", "image_url": "https://s3-media4.fl.yelpcdn.com/bphoto/xzNCVt8nwmvwdWuUEEbvaA/o.jpg", "is_closed": false, "url": "https://www.yelp.com/biz/borsch-mobile-san-francisco?adjust_creative=R39z9kjZ-1HrCCc7SW6pcw&utm_campaign=yelp_api_v3&utm_medium=api_v3_business_search&utm_source=R39z9kjZ-1HrCCc7SW6pcw", "review_count": 30, "categories": [{"alias": "russian", "title": "Russian"}, {"alias": "foodtrucks", "title": "Food Trucks"}, {"alias": "modern_european", "title": "Modern European"}], "rating": 4.5, "coordinates": {"latitude": 37.7713890075684, "longitude": -122.393447875977}, "transactions": [], "price": "$$", "location": {"address1": "", "address2": "", "address3": null, "city": "San Francisco", "zip_code": "94158", "country": "US", "state": "CA", "display_address": ["San Francisco, CA 94158"]}, "phone": "+14157704371", "display_phone": "(415) 770-4371", "distance": 38850.24584010957}, {"id": "C8QSWh3j0xkXwiWC8h-7ag", "alias": "three-amigos-market-and-deli-oakland", "name": "Three Amigos Market & Deli", "image_url": "https://s3-media1.fl.yelpcdn.com/bphoto/B4LNxfyWsiyHibJqkrK1gQ/o.jpg", "is_closed": false, "url": "https://www.yelp.com/biz/three-amigos-market-and-deli-oakland?adjust_creative=R39z9kjZ-1HrCCc7SW6pcw&utm_campaign=yelp_api_v3&utm_medium=api_v3_business_search&utm_source=R39z9kjZ-1HrCCc7SW6pcw", "review_count": 9, "categories": [{"alias": "grocery", "title": "Grocery"}, {"alias": "sandwiches", "title": "Sandwiches"}, {"alias": "delis", "title": "Delis"}], "rating": 4.5, "coordinates": {"latitude": 37.791048, "longitude": -122.245431}, "transactions": [], "price": "$", "location": {"address1": "1554 13th Ave", "address2": "", "address3": "", "city": "Oakland", "zip_code": "94606", "country": "US", "state": "CA", "display_address": ["1554 13th Ave", "Oakland, CA 94606"]}, "phone": "+15102612353", "display_phone": "(510) 261-2353", "distance": 37033.02711342547}, {"id": "qArqv7Sl3-kz7m-I0-pyuw", "alias": "scratch-cookery-san-jose-2", "name": "Scratch Cookery", "image_url": "https://s3-media2.fl.yelpcdn.com/bphoto/3bI-gW0tJ17iJqo1qn_W7A/o.jpg", "is_closed": false, "url": "https://www.yelp.com/biz/scratch-cookery-san-jose-2?adjust_creative=R39z9kjZ-1HrCCc7SW6pcw&utm_campaign=yelp_api_v3&utm_medium=api_v3_business_search&utm_source=R39z9kjZ-1HrCCc7SW6pcw", "review_count": 107, "categories": [{"alias": "foodtrucks", "title": "Food Trucks"}, {"alias": "chickenshop", "title": "Chicken Shop"}, {"alias": "tradamerican", "title": "American (Traditional)"}], "rating": 4.5, "coordinates": {"latitude": 37.374431, "longitude": -121.856157}, "transactions": [], "price": "$$", "location": {"address1": "", "address2": null, "address3": "", "city": "San Jose", "zip_code": "95133", "country": "US", "state": "CA", "display_address": ["San Jose, CA 95133"]}, "phone": "+14086010396", "display_phone": "(408) 601-0396", "distance": 31016.868653667894}, {"id": "GcfdjsPGaXrY02Q3bsKvew", "alias": "el-diferente-san-jose-4", "name": "El Diferente", "image_url": "https://s3-media4.fl.yelpcdn.com/bphoto/bTeYqqJp0YrJkkfM5OiPZg/o.jpg", "is_closed": false, "url": "https://www.yelp.com/biz/el-diferente-san-jose-4?adjust_creative=R39z9kjZ-1HrCCc7SW6pcw&utm_campaign=yelp_api_v3&utm_medium=api_v3_business_search&utm_source=R39z9kjZ-1HrCCc7SW6pcw", "review_count": 41, "categories": [{"alias": "foodtrucks", "title": "Food Trucks"}, {"alias": "tacos", "title": "Tacos"}, {"alias": "catering", "title": "Caterers"}], "rating": 5.0, "coordinates": {"latitude": 37.324611, "longitude": -121.880933}, "transactions": [], "price": "$", "location": {"address1": "795 S 2nd St", "address2": "", "address3": null, "city": "San Jose", "zip_code": "95112", "country": "US", "state": "CA", "display_address": ["795 S 2nd St", "San Jose, CA 95112"]}, "phone": "+14086651936", "display_phone": "(408) 665-1936", "distance": 31582.571868523788}, {"id": "jWWg0p9GTCho2RJIPhD6pQ", "alias": "tasteebytes-sj-san-jose", "name": "Tasteebytes SJ", "image_url": "https://s3-media2.fl.yelpcdn.com/bphoto/nxVvWa0ydNA-XfWpWEwd6w/o.jpg", "is_closed": false, "url": "https://www.yelp.com/biz/tasteebytes-sj-san-jose?adjust_creative=R39z9kjZ-1HrCCc7SW6pcw&utm_campaign=yelp_api_v3&utm_medium=api_v3_business_search&utm_source=R39z9kjZ-1HrCCc7SW6pcw", "review_count": 94, "categories": [{"alias": "foodtrucks", "title": "Food Trucks"}, {"alias": "hotdog", "title": "Hot Dogs"}], "rating": 4.5, "coordinates": {"latitude": 37.36058, "longitude": -121.89913}, "transactions": [], "price": "$", "location": {"address1": "326 Commercial St", "address2": "", "address3": "", "city": "San Jose", "zip_code": "95132", "country": "US", "state": "CA", "display_address": ["326 Commercial St", "San Jose, CA 95132"]}, "phone": "+16692437123", "display_phone": "(669) 243-7123", "distance": 28372.553889104875}, {"id": "C9uewBH5505NV0EWYBIJAA", "alias": "lady-and-l-aperitivo-san-jose", "name": "Lady & L'Aperitivo", "image_url": "https://s3-media4.fl.yelpcdn.com/bphoto/3nz0sRE9MlOq_4xVRQRt9w/o.jpg", "is_closed": false, "url": "https://www.yelp.com/biz/lady-and-l-aperitivo-san-jose?adjust_creative=R39z9kjZ-1HrCCc7SW6pcw&utm_campaign=yelp_api_v3&utm_medium=api_v3_business_search&utm_source=R39z9kjZ-1HrCCc7SW6pcw", "review_count": 1, "categories": [{"alias": "bakeries", "title": "Bakeries"}, {"alias": "desserts", "title": "Desserts"}, {"alias": "cheesesteaks", "title": "Cheesesteaks"}], "rating": 5.0, "coordinates": {"latitude": 37.2208938598633, "longitude": -121.861633300781}, "transactions": [], "location": {"address1": null, "address2": null, "address3": "", "city": "San Jose", "zip_code": "95120", "country": "US", "state": "CA", "display_address": ["San Jose, CA 95120"]}, "phone": "", "display_phone": "", "distance": 44757.51145110747}, {"id": "RZuGdsSkwvpIt3Nnjyga8A", "alias": "serendipity-food-truck-san-francisco", "name": "Serendipity Food Truck", "image_url": "https://s3-media1.fl.yelpcdn.com/bphoto/HM1b2tiz7b-odiAGU6SY8g/o.jpg", "is_closed": false, "url": "https://www.yelp.com/biz/serendipity-food-truck-san-francisco?adjust_creative=R39z9kjZ-1HrCCc7SW6pcw&utm_campaign=yelp_api_v3&utm_medium=api_v3_business_search&utm_source=R39z9kjZ-1HrCCc7SW6pcw", "review_count": 23, "categories": [{"alias": "newamerican", "title": "American (New)"}, {"alias": "foodtrucks", "title": "Food Trucks"}, {"alias": "comfortfood", "title": "Comfort Food"}], "rating": 4.5, "coordinates": {"latitude": 37.73053, "longitude": -122.38523}, "transactions": [], "price": "$$", "location": {"address1": "", "address2": null, "address3": "", "city": "San Francisco", "zip_code": "94124", "country": "US", "state": "CA", "display_address": ["San Francisco, CA 94124"]}, "phone": "+19164791437", "display_phone": "(916) 479-1437", "distance": 34353.17959345996}, {"id": "XTJJ_PUQoJKIh31ZIzsFzw", "alias": "cochinita-food-truck-san-francisco-6", "name": "Cochinita Food Truck", "image_url": "https://s3-media2.fl.yelpcdn.com/bphoto/w77SOd2jVJjOh1lwuYQ42w/o.jpg", "is_closed": false, "url": "https://www.yelp.com/biz/cochinita-food-truck-san-francisco-6?adjust_creative=R39z9kjZ-1HrCCc7SW6pcw&utm_campaign=yelp_api_v3&utm_medium=api_v3_business_search&utm_source=R39z9kjZ-1HrCCc7SW6pcw", "review_count": 49, "categories": [{"alias": "foodtrucks", "title": "Food Trucks"}, {"alias": "mexican", "title": "Mexican"}], "rating": 4.5, "coordinates": {"latitude": 37.770753, "longitude": -122.3916722}, "transactions": [], "price": "$", "location": {"address1": "601 Mission Blvd N", "address2": null, "address3": "", "city": "San Francisco", "zip_code": "94103", "country": "US", "state": "CA", "display_address": ["601 Mission Blvd N", "San Francisco, CA 94103"]}, "phone": "+14159883663", "display_phone": "(415) 988-3663", "distance": 38615.2918459239}, {"id": "IU3OJCdlT92FsM8ohRiWig", "alias": "el-buen-taco-santa-cruz-2", "name": "El Buen Taco", "image_url": "https://s3-media2.fl.yelpcdn.com/bphoto/A_KAIKX-yDTTk2TTkFnFhw/o.jpg", "is_closed": false, "url": "https://www.yelp.com/biz/el-buen-taco-santa-cruz-2?adjust_creative=R39z9kjZ-1HrCCc7SW6pcw&utm_campaign=yelp_api_v3&utm_medium=api_v3_business_search&utm_source=R39z9kjZ-1HrCCc7SW6pcw", "review_count": 22, "categories": [{"alias": "tacos", "title": "Tacos"}, {"alias": "foodtrucks", "title": "Food Trucks"}], "rating": 4.5, "coordinates": {"latitude": 36.97017, "longitude": -122.02429}, "transactions": [], "location": {"address1": null, "address2": null, "address3": "", "city": "Santa Cruz", "zip_code": "95060", "country": "US", "state": "CA", "display_address": ["Santa Cruz, CA 95060"]}, "phone": "+18317130703", "display_phone": "(831) 713-0703", "distance": 55992.49539934099}, {"id": "t6j2blrpl9TCDroDydml9g", "alias": "tacos-el-chuy-santa-cruz", "name": "Tacos El Chuy", "image_url": "https://s3-media1.fl.yelpcdn.com/bphoto/VKsVic1s9rRnYEqmRwL8Dw/o.jpg", "is_closed": false, "url": "https://www.yelp.com/biz/tacos-el-chuy-santa-cruz?adjust_creative=R39z9kjZ-1HrCCc7SW6pcw&utm_campaign=yelp_api_v3&utm_medium=api_v3_business_search&utm_source=R39z9kjZ-1HrCCc7SW6pcw", "review_count": 3, "categories": [{"alias": "tacos", "title": "Tacos"}, {"alias": "foodtrucks", "title": "Food Trucks"}], "rating": 3.5, "coordinates": {"latitude": 36.9593074124991, "longitude": -122.048140056431}, "transactions": [], "location": {"address1": "402 Ingalls St Santa CruzCA 95060 21517 E Cliff Dr Santa Cruz", "address2": "", "address3": null, "city": "Santa Cruz", "zip_code": "95062", "country": "US", "state": "CA", "display_address": ["402 Ingalls St Santa CruzCA 95060 21517 E Cliff Dr Santa Cruz", "Santa Cruz, CA 95062"]}, "phone": "+18314358811", "display_phone": "(831) 435-8811", "distance": 57216.403497364154}, {"id": "jW66693LVPlyDtzAoeb7KQ", "alias": "travelin-joe-espresso-berkeley", "name": "Travelin Joe Espresso", "image_url": "https://s3-media2.fl.yelpcdn.com/bphoto/XiqMQnnnbGe4g2SzU4Wm-A/o.jpg", "is_closed": false, "url": "https://www.yelp.com/biz/travelin-joe-espresso-berkeley?adjust_creative=R39z9kjZ-1HrCCc7SW6pcw&utm_campaign=yelp_api_v3&utm_medium=api_v3_business_search&utm_source=R39z9kjZ-1HrCCc7SW6pcw", "review_count": 33, "categories": [{"alias": "coffee", "title": "Coffee & Tea"}, {"alias": "foodstands", "title": "Food Stands"}, {"alias": "waffles", "title": "Waffles"}], "rating": 4.5, "coordinates": {"latitude": 37.85571, "longitude": -122.2893}, "transactions": [], "price": "$$", "location": {"address1": "1016 Grayson St", "address2": "", "address3": "", "city": "Berkeley", "zip_code": "94710", "country": "US", "state": "CA", "display_address": ["1016 Grayson St", "Berkeley, CA 94710"]}, "phone": "+15109197279", "display_phone": "(510) 919-7279", "distance": 44737.432351010255}, {"id": "M3vYD__s0sSkOie_Uwft3A", "alias": "taste-buds-bbq-tracy-2", "name": "Taste Buds BBQ", "image_url": "https://s3-media1.fl.yelpcdn.com/bphoto/pX1yclRMlmo1S7Db6iO6Lg/o.jpg", "is_closed": false, "url": "https://www.yelp.com/biz/taste-buds-bbq-tracy-2?adjust_creative=R39z9kjZ-1HrCCc7SW6pcw&utm_campaign=yelp_api_v3&utm_medium=api_v3_business_search&utm_source=R39z9kjZ-1HrCCc7SW6pcw", "review_count": 3, "categories": [{"alias": "bbq", "title": "Barbeque"}, {"alias": "catering", "title": "Caterers"}, {"alias": "foodtrucks", "title": "Food Trucks"}], "rating": 4.5, "coordinates": {"latitude": 37.74251, "longitude": -121.42994}, "transactions": [], "location": {"address1": "", "address2": null, "address3": "", "city": "Tracy", "zip_code": "95376", "country": "US", "state": "CA", "display_address": ["Tracy, CA 95376"]}, "phone": "+16502241324", "display_phone": "(650) 224-1324", "distance": 73626.37360440803}, {"id": "S9MYGapWK7T7oKUEYLz6Iw", "alias": "the-boneyard-san-bruno-3", "name": "The Boneyard", "image_url": "https://s3-media3.fl.yelpcdn.com/bphoto/uG6EEbOomy5tsXTsHGodxg/o.jpg", "is_closed": false, "url": "https://www.yelp.com/biz/the-boneyard-san-bruno-3?adjust_creative=R39z9kjZ-1HrCCc7SW6pcw&utm_campaign=yelp_api_v3&utm_medium=api_v3_business_search&utm_source=R39z9kjZ-1HrCCc7SW6pcw", "review_count": 87, "categories": [{"alias": "foodtrucks", "title": "Food Trucks"}, {"alias": "bbq", "title": "Barbeque"}, {"alias": "catering", "title": "Caterers"}], "rating": 3.5, "coordinates": {"latitude": 37.7939188282826, "longitude": -122.400518522289}, "transactions": ["pickup", "delivery"], "price": "$$", "location": {"address1": "1225 San Mateo Ave", "address2": null, "address3": "", "city": "San Bruno", "zip_code": "94066", "country": "US", "state": "CA", "display_address": ["1225 San Mateo Ave", "San Bruno, CA 94066"]}, "phone": "+14159350696", "display_phone": "(415) 935-0696", "distance": 41268.24018949854}, {"id": "xomxVUXe8Sy5R2nt7qBxxg", "alias": "fired-mobile-pizza-oven-stockton", "name": "FIRED Mobile Pizza Oven", "image_url": "https://s3-media4.fl.yelpcdn.com/bphoto/JV4MGBFFrJGZQbmtdoOLFQ/o.jpg", "is_closed": false, "url": "https://www.yelp.com/biz/fired-mobile-pizza-oven-stockton?adjust_creative=R39z9kjZ-1HrCCc7SW6pcw&utm_campaign=yelp_api_v3&utm_medium=api_v3_business_search&utm_source=R39z9kjZ-1HrCCc7SW6pcw", "review_count": 8, "categories": [{"alias": "pizza", "title": "Pizza"}, {"alias": "catering", "title": "Caterers"}, {"alias": "foodtrucks", "title": "Food Trucks"}], "rating": 5.0, "coordinates": {"latitude": 38.0521138, "longitude": -121.3484448}, "transactions": [], "location": {"address1": null, "address2": null, "address3": "", "city": "Stockton", "zip_code": "95209", "country": "US", "state": "CA", "display_address": ["Stockton, CA 95209"]}, "phone": "+12092424105", "display_phone": "(209) 242-4105", "distance": 99330.0481857403}, {"id": "sR0Wy3LYGdYV9HLszRlMmw", "alias": "tacos-la-palmita-stockton", "name": "Tacos La Palmita", "image_url": "https://s3-media2.fl.yelpcdn.com/bphoto/pzYoRmZjUQqxZ7qOyU7hUQ/o.jpg", "is_closed": false, "url": "https://www.yelp.com/biz/tacos-la-palmita-stockton?adjust_creative=R39z9kjZ-1HrCCc7SW6pcw&utm_campaign=yelp_api_v3&utm_medium=api_v3_business_search&utm_source=R39z9kjZ-1HrCCc7SW6pcw", "review_count": 90, "categories": [{"alias": "tacos", "title": "Tacos"}, {"alias": "foodtrucks", "title": "Food Trucks"}], "rating": 4.5, "coordinates": {"latitude": 38.008129, "longitude": -121.320219}, "transactions": ["delivery", "pickup"], "price": "$", "location": {"address1": "6393 Pacific Ave", "address2": null, "address3": null, "city": "Stockton", "zip_code": "95207", "country": "US", "state": "CA", "display_address": ["6393 Pacific Ave", "Stockton, CA 95207"]}, "phone": "+12093026825", "display_phone": "(209) 302-6825", "distance": 98111.12272835232}, {"id": "bUe6V7qwbr95Zg14Bpi8qw", "alias": "curbside-pies-knob-noster-mo-2", "name": "Curbside Pies", "image_url": "https://s3-media2.fl.yelpcdn.com/bphoto/3MO0dr4ok9hisoHpYSIwcA/o.jpg", "is_closed": false, "url": "https://www.yelp.com/biz/curbside-pies-knob-noster-mo-2?adjust_creative=R39z9kjZ-1HrCCc7SW6pcw&utm_campaign=yelp_api_v3&utm_medium=api_v3_business_search&utm_source=R39z9kjZ-1HrCCc7SW6pcw", "review_count": 2, "categories": [{"alias": "pizza", "title": "Pizza"}, {"alias": "foodtrucks", "title": "Food Trucks"}], "rating": 5.0, "coordinates": {"latitude": 38.772474, "longitude": -93.57255}, "transactions": [], "location": {"address1": "1601 W 7th Street Ter", "address2": "", "address3": null, "city": "Knob Noster MO", "zip_code": "65336", "country": "US", "state": "MO", "display_address": ["1601 W 7th Street Ter", "Knob Noster MO, MO 65336"]}, "phone": "+15057508525", "display_phone": "(505) 750-8525", "distance": 2498026.200451711}]}