{"location": "Belvedere, CA", "term": "restaurant", "radius": 643, "businesses": [{"id": "bwQ-PAym-XDMax9nloPHfA", "alias": "luna-blu-tiburon", "name": "Luna Blu", "image_url": "https://s3-media3.fl.yelpcdn.com/bphoto/i-XFl3XAezeAvn2dbaMoqQ/o.jpg", "is_closed": false, "url": "https://www.yelp.com/biz/luna-blu-tiburon?adjust_creative=R39z9kjZ-1HrCCc7SW6pcw&utm_campaign=yelp_api_v3&utm_medium=api_v3_business_search&utm_source=R39z9kjZ-1HrCCc7SW6pcw", "review_count": 581, "categories": [{"alias": "italian", "title": "Italian"}, {"alias": "seafood", "title": "Seafood"}, {"alias": "bars", "title": "Bars"}], "rating": 4.5, "coordinates": {"latitude": 37.87305, "longitude": -122.45672}, "transactions": ["pickup"], "price": "$$$", "location": {"address1": "35 Main St", "address2": "", "address3": "", "city": "Tiburon", "zip_code": "94920", "country": "US", "state": "CA", "display_address": ["35 Main St", "Tiburon, CA 94920"]}, "phone": "+14157895844", "display_phone": "(415) 789-5844", "distance": 580.6775848196339}, {"id": "GVIefr2Ze6-6Yf7iHW2Kdw", "alias": "don-antonio-trattoria-tiburon", "name": "Don Antonio Trattoria", "image_url": "https://s3-media2.fl.yelpcdn.com/bphoto/5jeamW6eFWChABXJvhDz_A/o.jpg", "is_closed": false, "url": "https://www.yelp.com/biz/don-antonio-trattoria-tiburon?adjust_creative=R39z9kjZ-1HrCCc7SW6pcw&utm_campaign=yelp_api_v3&utm_medium=api_v3_business_search&utm_source=R39z9kjZ-1HrCCc7SW6pcw", "review_count": 312, "categories": [{"alias": "italian", "title": "Italian"}], "rating": 4.0, "coordinates": {"latitude": 37.87394, "longitude": -122.45885}, "transactions": ["delivery"], "price": "$$", "location": {"address1": "114 Main St", "address2": "", "address3": "", "city": "Tiburon", "zip_code": "94920", "country": "US", "state": "CA", "display_address": ["114 Main St", "Tiburon, CA 94920"]}, "phone": "+14154350400", "display_phone": "(415) 435-0400", "distance": 414.3025103759032}, {"id": "go9rChwByfJjdm_ySZ3ceg", "alias": "sams-anchor-cafe-tiburon", "name": "Sam's Anchor Cafe", "image_url": "https://s3-media2.fl.yelpcdn.com/bphoto/odMnLhwujBSrk9TnqufvIw/o.jpg", "is_closed": false, "url": "https://www.yelp.com/biz/sams-anchor-cafe-tiburon?adjust_creative=R39z9kjZ-1HrCCc7SW6pcw&utm_campaign=yelp_api_v3&utm_medium=api_v3_business_search&utm_source=R39z9kjZ-1HrCCc7SW6pcw", "review_count": 1252, "categories": [{"alias": "seafood", "title": "Seafood"}, {"alias": "bars", "title": "Bars"}, {"alias": "tradamerican", "title": "American (Traditional)"}], "rating": 3.5, "coordinates": {"latitude": 37.8728207589478, "longitude": -122.456399479355}, "transactions": ["delivery"], "price": "$$", "location": {"address1": "27 Main St", "address2": "", "address3": "", "city": "Tiburon", "zip_code": "94920", "country": "US", "state": "CA", "display_address": ["27 Main St", "Tiburon, CA 94920"]}, "phone": "+14154354527", "display_phone": "(415) 435-4527", "distance": 620.7701250588292}, {"id": "dvyfQbR9IClgKjLzPxDQMw", "alias": "salt-and-pepper-tiburon", "name": "Salt & Pepper", "image_url": "https://s3-media1.fl.yelpcdn.com/bphoto/78CjShapwIhBPZIaXN5eFA/o.jpg", "is_closed": false, "url": "https://www.yelp.com/biz/salt-and-pepper-tiburon?adjust_creative=R39z9kjZ-1HrCCc7SW6pcw&utm_campaign=yelp_api_v3&utm_medium=api_v3_business_search&utm_source=R39z9kjZ-1HrCCc7SW6pcw", "review_count": 166, "categories": [{"alias": "tradamerican", "title": "American (Traditional)"}, {"alias": "seafood", "title": "Seafood"}, {"alias": "bars", "title": "Bars"}], "rating": 4.0, "coordinates": {"latitude": 37.8732, "longitude": -122.45697}, "transactions": [], "price": "$$", "location": {"address1": "38 Main St", "address2": "", "address3": "", "city": "Tiburon", "zip_code": "94920", "country": "US", "state": "CA", "display_address": ["38 Main St", "Tiburon, CA 94920"]}, "phone": "+14154353594", "display_phone": "(415) 435-3594", "distance": 559.7401864852166}, {"id": "bUNHBkFt9Fws48nI3NErag", "alias": "tiburon-tavern-tiburon", "name": "Tiburon Tavern", "image_url": "https://s3-media2.fl.yelpcdn.com/bphoto/ySb4WvFvy2i46ULyG0MYgA/o.jpg", "is_closed": false, "url": "https://www.yelp.com/biz/tiburon-tavern-tiburon?adjust_creative=R39z9kjZ-1HrCCc7SW6pcw&utm_campaign=yelp_api_v3&utm_medium=api_v3_business_search&utm_source=R39z9kjZ-1HrCCc7SW6pcw", "review_count": 402, "categories": [{"alias": "tradamerican", "title": "American (Traditional)"}], "rating": 3.5, "coordinates": {"latitude": 37.8743186, "longitude": -122.4567929}, "transactions": ["pickup"], "price": "$$", "location": {"address1": "1651 Tiburon Blvd.", "address2": "", "address3": "", "city": "Tiburon", "zip_code": "94920", "country": "US", "state": "CA", "display_address": ["1651 Tiburon Blvd.", "Tiburon, CA 94920"]}, "phone": "+14154355996", "display_phone": "(415) 435-5996", "distance": 383.9806062231972}, {"id": "787Z0zg2ouva-XHww6OzFA", "alias": "lolas-taqueria-tiburon", "name": "Lola's Taqueria", "image_url": "https://s3-media2.fl.yelpcdn.com/bphoto/GfPwxzxRi3-qIKv3j19awA/o.jpg", "is_closed": false, "url": "https://www.yelp.com/biz/lolas-taqueria-tiburon?adjust_creative=R39z9kjZ-1HrCCc7SW6pcw&utm_campaign=yelp_api_v3&utm_medium=api_v3_business_search&utm_source=R39z9kjZ-1HrCCc7SW6pcw", "review_count": 73, "categories": [{"alias": "mexican", "title": "Mexican"}], "rating": 4.5, "coordinates": {"latitude": 37.8738767617587, "longitude": -122.458706174836}, "transactions": [], "price": "$$", "location": {"address1": "110 Main St", "address2": "", "address3": null, "city": "Tiburon", "zip_code": "94920", "country": "US", "state": "CA", "display_address": ["110 Main St", "Tiburon, CA 94920"]}, "phone": "+14157976196", "display_phone": "(415) 797-6196", "distance": 428.42442558602164}, {"id": "w_rALTQlGnzjezkEprIKOQ", "alias": "mings-restaurant-belvedere-tiburon", "name": "Ming's Restaurant", "image_url": "https://s3-media3.fl.yelpcdn.com/bphoto/0iD3zUXEZbSft5x-h2CHzQ/o.jpg", "is_closed": false, "url": "https://www.yelp.com/biz/mings-restaurant-belvedere-tiburon?adjust_creative=R39z9kjZ-1HrCCc7SW6pcw&utm_campaign=yelp_api_v3&utm_medium=api_v3_business_search&utm_source=R39z9kjZ-1HrCCc7SW6pcw", "review_count": 115, "categories": [{"alias": "chinese", "title": "Chinese"}], "rating": 4.0, "coordinates": {"latitude": 37.87527, "longitude": -122.45995}, "transactions": ["pickup", "delivery"], "price": "$$", "location": {"address1": "1550 Tiburon Blvd", "address2": "Ste J", "address3": "", "city": "Belvedere Tiburon", "zip_code": "94920", "country": "US", "state": "CA", "display_address": ["1550 Tiburon Blvd", "Ste J", "Belvedere Tiburon, CA 94920"]}, "phone": "+14154354312", "display_phone": "(415) 435-4312", "distance": 245.11597617481644}, {"id": "Xx0xrmSCT1JgAXLXdgIMFA", "alias": "servino-ristorante-tiburon-3", "name": "Servino Ristorante", "image_url": "https://s3-media1.fl.yelpcdn.com/bphoto/bsawnZQiAti2Oy084Nkblg/o.jpg", "is_closed": false, "url": "https://www.yelp.com/biz/servino-ristorante-tiburon-3?adjust_creative=R39z9kjZ-1HrCCc7SW6pcw&utm_campaign=yelp_api_v3&utm_medium=api_v3_business_search&utm_source=R39z9kjZ-1HrCCc7SW6pcw", "review_count": 349, "categories": [{"alias": "italian", "title": "Italian"}], "rating": 3.5, "coordinates": {"latitude": 37.87298, "longitude": -122.45579}, "transactions": ["pickup", "delivery"], "price": "$$", "location": {"address1": "9 Main St", "address2": "", "address3": "", "city": "Tiburon", "zip_code": "94920", "country": "US", "state": "CA", "display_address": ["9 Main St", "Tiburon, CA 94920"]}, "phone": "+14154352676", "display_phone": "(415) 435-2676", "distance": 628.1566810383844}, {"id": "OBatxLEgKxxb2JRl1XTdzQ", "alias": "rustic-bakery-belvedere-tiburon", "name": "Rustic Bakery", "image_url": "https://s3-media2.fl.yelpcdn.com/bphoto/vdRrV4nMJrzdMhFiE_avDg/o.jpg", "is_closed": false, "url": "https://www.yelp.com/biz/rustic-bakery-belvedere-tiburon?adjust_creative=R39z9kjZ-1HrCCc7SW6pcw&utm_campaign=yelp_api_v3&utm_medium=api_v3_business_search&utm_source=R39z9kjZ-1HrCCc7SW6pcw", "review_count": 99, "categories": [{"alias": "bakeries", "title": "Bakeries"}, {"alias": "organic_stores", "title": "Organic Stores"}, {"alias": "cafes", "title": "Cafes"}], "rating": 3.0, "coordinates": {"latitude": 37.8752746582031, "longitude": -122.459953308105}, "transactions": [], "price": "$$", "location": {"address1": "1550 Tiburon Blvd", "address2": "", "address3": "", "city": "Belvedere Tiburon", "zip_code": "94920", "country": "US", "state": "CA", "display_address": ["1550 Tiburon Blvd", "Belvedere Tiburon, CA 94920"]}, "phone": "+14157976123", "display_phone": "(415) 797-6123", "distance": 245.11597617481644}, {"id": "YBmcmjNfALI6Vql_Ym8log", "alias": "waypoint-pizza-tiburon", "name": "Waypoint Pizza", "image_url": "https://s3-media2.fl.yelpcdn.com/bphoto/lFt1LDPFEvFEj2m-aFuWQQ/o.jpg", "is_closed": false, "url": "https://www.yelp.com/biz/waypoint-pizza-tiburon?adjust_creative=R39z9kjZ-1HrCCc7SW6pcw&utm_campaign=yelp_api_v3&utm_medium=api_v3_business_search&utm_source=R39z9kjZ-1HrCCc7SW6pcw", "review_count": 182, "categories": [{"alias": "pizza", "title": "Pizza"}], "rating": 3.0, "coordinates": {"latitude": 37.8732389, "longitude": -122.4559846}, "transactions": ["delivery"], "price": "$$", "location": {"address1": "15 Main St", "address2": "", "address3": "", "city": "Tiburon", "zip_code": "94920", "country": "US", "state": "CA", "display_address": ["15 Main St", "Tiburon, CA 94920"]}, "phone": "+14154353440", "display_phone": "(415) 435-3440", "distance": 600.3339749745764}, {"id": "0IDb7FBI9uMV8GZhV6loHQ", "alias": "caffe-acri-tiburon", "name": "Caffe Acri", "image_url": "https://s3-media4.fl.yelpcdn.com/bphoto/eOLejstu3uTIiQZMBmrWbQ/o.jpg", "is_closed": false, "url": "https://www.yelp.com/biz/caffe-acri-tiburon?adjust_creative=R39z9kjZ-1HrCCc7SW6pcw&utm_campaign=yelp_api_v3&utm_medium=api_v3_business_search&utm_source=R39z9kjZ-1HrCCc7SW6pcw", "review_count": 173, "categories": [{"alias": "cafes", "title": "Cafes"}, {"alias": "desserts", "title": "Desserts"}, {"alias": "breakfast_brunch", "title": "Breakfast & Brunch"}], "rating": 3.0, "coordinates": {"latitude": 37.873239, "longitude": -122.455758}, "transactions": [], "price": "$$", "location": {"address1": "1 Main St", "address2": null, "address3": "", "city": "Tiburon", "zip_code": "94920", "country": "US", "state": "CA", "display_address": ["1 Main St", "Tiburon, CA 94920"]}, "phone": "+14154358515", "display_phone": "(415) 435-8515", "distance": 615.3056018398995}, {"id": "PxzM_zNIOy7jdtwT-fbB0w", "alias": "minnie-bells-san-francisco-2", "name": "Minnie Bells", "image_url": "https://s3-media2.fl.yelpcdn.com/bphoto/5YNxEigMmu8anIwGkIsEzg/o.jpg", "is_closed": false, "url": "https://www.yelp.com/biz/minnie-bells-san-francisco-2?adjust_creative=R39z9kjZ-1HrCCc7SW6pcw&utm_campaign=yelp_api_v3&utm_medium=api_v3_business_search&utm_source=R39z9kjZ-1HrCCc7SW6pcw", "review_count": 15, "categories": [{"alias": "soulfood", "title": "Soul Food"}, {"alias": "foodtrucks", "title": "Food Trucks"}, {"alias": "comfortfood", "title": "Comfort Food"}], "rating": 4.5, "coordinates": {"latitude": 37.7769775466477, "longitude": -122.416963241994}, "transactions": [], "location": {"address1": "", "address2": "", "address3": null, "city": "San Francisco", "zip_code": "94103", "country": "US", "state": "CA", "display_address": ["San Francisco, CA 94103"]}, "phone": "+14152739340", "display_phone": "(415) 273-9340", "distance": 11809.608014389378}, {"id": "rM6pPB_qmQ3de5yGpfLT1g", "alias": "lomo-libre-san-francisco-2", "name": "Lomo Libre", "image_url": "https://s3-media1.fl.yelpcdn.com/bphoto/vjnO-EUjFHKoLMy2_JQYvg/o.jpg", "is_closed": false, "url": "https://www.yelp.com/biz/lomo-libre-san-francisco-2?adjust_creative=R39z9kjZ-1HrCCc7SW6pcw&utm_campaign=yelp_api_v3&utm_medium=api_v3_business_search&utm_source=R39z9kjZ-1HrCCc7SW6pcw", "review_count": 8, "categories": [{"alias": "foodtrucks", "title": "Food Trucks"}, {"alias": "peruvian", "title": "Peruvian"}], "rating": 5.0, "coordinates": {"latitude": 37.799634, "longitude": -122.436301}, "transactions": [], "location": {"address1": "2101 Lombard St", "address2": "", "address3": null, "city": "San Francisco", "zip_code": "94123", "country": "US", "state": "CA", "display_address": ["2101 Lombard St", "San Francisco, CA 94123"]}, "phone": "+14156198149", "display_phone": "(415) 619-8149", "distance": 8913.749546306894}, {"id": "CUwBAy6lrFi4x6Neu9eRVw", "alias": "mini-street-burger-alameda-3", "name": "Mini Street Burger", "image_url": "https://s3-media2.fl.yelpcdn.com/bphoto/Kh-OQKBIclWY1dCeIuu57w/o.jpg", "is_closed": false, "url": "https://www.yelp.com/biz/mini-street-burger-alameda-3?adjust_creative=R39z9kjZ-1HrCCc7SW6pcw&utm_campaign=yelp_api_v3&utm_medium=api_v3_business_search&utm_source=R39z9kjZ-1HrCCc7SW6pcw", "review_count": 28, "categories": [{"alias": "foodtrucks", "title": "Food Trucks"}, {"alias": "burgers", "title": "Burgers"}], "rating": 4.0, "coordinates": {"latitude": 37.82628, "longitude": -122.25101}, "transactions": [], "location": {"address1": null, "address2": null, "address3": null, "city": "Alameda", "zip_code": "94611", "country": "US", "state": "CA", "display_address": ["Alameda, CA 94611"]}, "phone": "+15108278982", "display_phone": "(510) 827-8982", "distance": 23099.207270843748}, {"id": "jCcAuXhCpeJP2n-8ol7mxg", "alias": "kolobok-russian-soul-food-truck-oakland", "name": "Kolobok Russian Soul Food Truck", "image_url": "https://s3-media1.fl.yelpcdn.com/bphoto/k8s1Bfc05Iw7SJXE6VJ74Q/o.jpg", "is_closed": false, "url": "https://www.yelp.com/biz/kolobok-russian-soul-food-truck-oakland?adjust_creative=R39z9kjZ-1HrCCc7SW6pcw&utm_campaign=yelp_api_v3&utm_medium=api_v3_business_search&utm_source=R39z9kjZ-1HrCCc7SW6pcw", "review_count": 47, "categories": [{"alias": "foodtrucks", "title": "Food Trucks"}, {"alias": "russian", "title": "Russian"}], "rating": 4.5, "coordinates": {"latitude": 37.7883087690458, "longitude": -122.309032460882}, "transactions": [], "price": "$$", "location": {"address1": null, "address2": null, "address3": "", "city": "Oakland", "zip_code": "94577", "country": "US", "state": "CA", "display_address": ["Oakland, CA 94577"]}, "phone": "+15105996542", "display_phone": "(510) 599-6542", "distance": 16570.807232817704}, {"id": "q3ZOtUofqg7e3qAiA9gs9w", "alias": "taqueria-la-estrella-richmond", "name": "Taqueria La Estrella", "image_url": "https://s3-media3.fl.yelpcdn.com/bphoto/uj_8OLGuFKDGF_nOsVRcOw/o.jpg", "is_closed": false, "url": "https://www.yelp.com/biz/taqueria-la-estrella-richmond?adjust_creative=R39z9kjZ-1HrCCc7SW6pcw&utm_campaign=yelp_api_v3&utm_medium=api_v3_business_search&utm_source=R39z9kjZ-1HrCCc7SW6pcw", "review_count": 117, "categories": [{"alias": "mexican", "title": "Mexican"}, {"alias": "vegetarian", "title": "Vegetarian"}, {"alias": "foodtrucks", "title": "Food Trucks"}], "rating": 4.0, "coordinates": {"latitude": 37.93622, "longitude": -122.34797}, "transactions": [], "price": "$", "location": {"address1": "325 23rd St", "address2": "", "address3": "", "city": "Richmond", "zip_code": "94804", "country": "US", "state": "CA", "display_address": ["325 23rd St", "Richmond, CA 94804"]}, "phone": "+15102326955", "display_phone": "(510) 232-6955", "distance": 11820.438809857538}, {"id": "jW66693LVPlyDtzAoeb7KQ", "alias": "travelin-joe-espresso-berkeley", "name": "Travelin Joe Espresso", "image_url": "https://s3-media2.fl.yelpcdn.com/bphoto/XiqMQnnnbGe4g2SzU4Wm-A/o.jpg", "is_closed": false, "url": "https://www.yelp.com/biz/travelin-joe-espresso-berkeley?adjust_creative=R39z9kjZ-1HrCCc7SW6pcw&utm_campaign=yelp_api_v3&utm_medium=api_v3_business_search&utm_source=R39z9kjZ-1HrCCc7SW6pcw", "review_count": 33, "categories": [{"alias": "coffee", "title": "Coffee & Tea"}, {"alias": "foodstands", "title": "Food Stands"}, {"alias": "waffles", "title": "Waffles"}], "rating": 4.5, "coordinates": {"latitude": 37.85571, "longitude": -122.2893}, "transactions": [], "price": "$$", "location": {"address1": "1016 Grayson St", "address2": "", "address3": "", "city": "Berkeley", "zip_code": "94710", "country": "US", "state": "CA", "display_address": ["1016 Grayson St", "Berkeley, CA 94710"]}, "phone": "+15109197279", "display_phone": "(510) 919-7279", "distance": 15189.172172163642}, {"id": "uuouQQIFQ1B9mkmcxaAKFA", "alias": "tacos-el-rey-oakland", "name": "Tacos El Rey", "image_url": "https://s3-media2.fl.yelpcdn.com/bphoto/DblyFrtT9uyPCQAUfPbYbQ/o.jpg", "is_closed": false, "url": "https://www.yelp.com/biz/tacos-el-rey-oakland?adjust_creative=R39z9kjZ-1HrCCc7SW6pcw&utm_campaign=yelp_api_v3&utm_medium=api_v3_business_search&utm_source=R39z9kjZ-1HrCCc7SW6pcw", "review_count": 9, "categories": [{"alias": "foodtrucks", "title": "Food Trucks"}, {"alias": "mexican", "title": "Mexican"}], "rating": 4.0, "coordinates": {"latitude": 37.8294034, "longitude": -122.2875758}, "transactions": [], "price": "$", "location": {"address1": "40th & Horton", "address2": "", "address3": null, "city": "Oakland", "zip_code": "94608", "country": "US", "state": "CA", "display_address": ["40th & Horton", "Oakland, CA 94608"]}, "phone": "+15108130232", "display_phone": "(510) 813-0232", "distance": 16068.860637234082}, {"id": "S9MYGapWK7T7oKUEYLz6Iw", "alias": "the-boneyard-san-bruno-3", "name": "The Boneyard", "image_url": "https://s3-media3.fl.yelpcdn.com/bphoto/uG6EEbOomy5tsXTsHGodxg/o.jpg", "is_closed": false, "url": "https://www.yelp.com/biz/the-boneyard-san-bruno-3?adjust_creative=R39z9kjZ-1HrCCc7SW6pcw&utm_campaign=yelp_api_v3&utm_medium=api_v3_business_search&utm_source=R39z9kjZ-1HrCCc7SW6pcw", "review_count": 87, "categories": [{"alias": "foodtrucks", "title": "Food Trucks"}, {"alias": "bbq", "title": "Barbeque"}, {"alias": "catering", "title": "Caterers"}], "rating": 3.5, "coordinates": {"latitude": 37.7939188282826, "longitude": -122.400518522289}, "transactions": ["pickup", "delivery"], "price": "$$", "location": {"address1": "1225 San Mateo Ave", "address2": null, "address3": "", "city": "San Bruno", "zip_code": "94066", "country": "US", "state": "CA", "display_address": ["1225 San Mateo Ave", "San Bruno, CA 94066"]}, "phone": "+14159350696", "display_phone": "(415) 935-0696", "distance": 10672.903827762582}, {"id": "XTJJ_PUQoJKIh31ZIzsFzw", "alias": "cochinita-food-truck-san-francisco-6", "name": "Cochinita Food Truck", "image_url": "https://s3-media2.fl.yelpcdn.com/bphoto/w77SOd2jVJjOh1lwuYQ42w/o.jpg", "is_closed": false, "url": "https://www.yelp.com/biz/cochinita-food-truck-san-francisco-6?adjust_creative=R39z9kjZ-1HrCCc7SW6pcw&utm_campaign=yelp_api_v3&utm_medium=api_v3_business_search&utm_source=R39z9kjZ-1HrCCc7SW6pcw", "review_count": 49, "categories": [{"alias": "foodtrucks", "title": "Food Trucks"}, {"alias": "mexican", "title": "Mexican"}], "rating": 4.5, "coordinates": {"latitude": 37.770753, "longitude": -122.3916722}, "transactions": [], "price": "$", "location": {"address1": "601 Mission Blvd N", "address2": null, "address3": "", "city": "San Francisco", "zip_code": "94103", "country": "US", "state": "CA", "display_address": ["601 Mission Blvd N", "San Francisco, CA 94103"]}, "phone": "+14159883663", "display_phone": "(415) 988-3663", "distance": 13312.048723152751}, {"id": "MS0sZySGZh4i1VggMJ8HWQ", "alias": "9-julio-empanada-kitchen-oakland-2", "name": "9 Julio Empanada Kitchen", "image_url": "https://s3-media3.fl.yelpcdn.com/bphoto/ZkEL30RuJROglV6sCpRLeA/o.jpg", "is_closed": false, "url": "https://www.yelp.com/biz/9-julio-empanada-kitchen-oakland-2?adjust_creative=R39z9kjZ-1HrCCc7SW6pcw&utm_campaign=yelp_api_v3&utm_medium=api_v3_business_search&utm_source=R39z9kjZ-1HrCCc7SW6pcw", "review_count": 26, "categories": [{"alias": "latin", "title": "Latin American"}, {"alias": "foodstands", "title": "Food Stands"}, {"alias": "salad", "title": "Salad"}], "rating": 5.0, "coordinates": {"latitude": 37.7917976379395, "longitude": -122.173988342285}, "transactions": [], "price": "$", "location": {"address1": "", "address2": null, "address3": "", "city": "Oakland", "zip_code": "94619", "country": "US", "state": "CA", "display_address": ["Oakland, CA 94619"]}, "phone": "+15106989535", "display_phone": "(510) 698-9535", "distance": 29102.836136680864}, {"id": "C8QSWh3j0xkXwiWC8h-7ag", "alias": "three-amigos-market-and-deli-oakland", "name": "Three Amigos Market & Deli", "image_url": "https://s3-media1.fl.yelpcdn.com/bphoto/B4LNxfyWsiyHibJqkrK1gQ/o.jpg", "is_closed": false, "url": "https://www.yelp.com/biz/three-amigos-market-and-deli-oakland?adjust_creative=R39z9kjZ-1HrCCc7SW6pcw&utm_campaign=yelp_api_v3&utm_medium=api_v3_business_search&utm_source=R39z9kjZ-1HrCCc7SW6pcw", "review_count": 9, "categories": [{"alias": "grocery", "title": "Grocery"}, {"alias": "sandwiches", "title": "Sandwiches"}, {"alias": "delis", "title": "Delis"}], "rating": 4.5, "coordinates": {"latitude": 37.791048, "longitude": -122.245431}, "transactions": [], "price": "$", "location": {"address1": "1554 13th Ave", "address2": "", "address3": "", "city": "Oakland", "zip_code": "94606", "country": "US", "state": "CA", "display_address": ["1554 13th Ave", "Oakland, CA 94606"]}, "phone": "+15102612353", "display_phone": "(510) 261-2353", "distance": 21167.639179007605}, {"id": "DC42MrpWtqEeWRmMsn6Z8w", "alias": "the-everest-momo-fremont-2", "name": "The Everest Momo", "image_url": "https://s3-media2.fl.yelpcdn.com/bphoto/T2f7tUQ1c104otx9oSdqYw/o.jpg", "is_closed": false, "url": "https://www.yelp.com/biz/the-everest-momo-fremont-2?adjust_creative=R39z9kjZ-1HrCCc7SW6pcw&utm_campaign=yelp_api_v3&utm_medium=api_v3_business_search&utm_source=R39z9kjZ-1HrCCc7SW6pcw", "review_count": 23, "categories": [{"alias": "foodtrucks", "title": "Food Trucks"}, {"alias": "indpak", "title": "Indian"}, {"alias": "himalayan", "title": "Himalayan/Nepalese"}], "rating": 4.5, "coordinates": {"latitude": 37.54643, "longitude": -121.98512}, "transactions": [], "price": "$", "location": {"address1": "39233 Fremont Blvd", "address2": null, "address3": null, "city": "Fremont", "zip_code": "94538", "country": "US", "state": "CA", "display_address": ["39233 Fremont Blvd", "Fremont, CA 94538"]}, "phone": "+14088406369", "display_phone": "(408) 840-6369", "distance": 55692.09483840577}, {"id": "i6ZwMjYIbmFZ8EGYz6x5Bw", "alias": "phat-salads-and-wraps-napa", "name": "Phat Salads and Wraps", "image_url": "https://s3-media2.fl.yelpcdn.com/bphoto/FbrUwtrVIx2cLXiPdBhHkw/o.jpg", "is_closed": false, "url": "https://www.yelp.com/biz/phat-salads-and-wraps-napa?adjust_creative=R39z9kjZ-1HrCCc7SW6pcw&utm_campaign=yelp_api_v3&utm_medium=api_v3_business_search&utm_source=R39z9kjZ-1HrCCc7SW6pcw", "review_count": 48, "categories": [{"alias": "foodtrucks", "title": "Food Trucks"}, {"alias": "wraps", "title": "Wraps"}], "rating": 4.0, "coordinates": {"latitude": 38.3234491, "longitude": -122.3023962}, "transactions": [], "price": "$", "location": {"address1": "", "address2": "", "address3": "", "city": "Napa", "zip_code": "94558", "country": "US", "state": "CA", "display_address": ["Napa, CA 94558"]}, "phone": "+17073639658", "display_phone": "(707) 363-9658", "distance": 51465.866056586405}, {"id": "lgheXsHqe66AEZwoPDIEpw", "alias": "taco-coma-newark", "name": "Taco Coma", "image_url": "https://s3-media3.fl.yelpcdn.com/bphoto/DDz5lZDL5lDiRR_Ph0L4Sg/o.jpg", "is_closed": false, "url": "https://www.yelp.com/biz/taco-coma-newark?adjust_creative=R39z9kjZ-1HrCCc7SW6pcw&utm_campaign=yelp_api_v3&utm_medium=api_v3_business_search&utm_source=R39z9kjZ-1HrCCc7SW6pcw", "review_count": 3, "categories": [{"alias": "foodstands", "title": "Food Stands"}, {"alias": "tacos", "title": "Tacos"}], "rating": 5.0, "coordinates": {"latitude": 37.53453, "longitude": -122.03284}, "transactions": [], "location": {"address1": "", "address2": null, "address3": "", "city": "Newark", "zip_code": "94560", "country": "US", "state": "CA", "display_address": ["Newark, CA 94560"]}, "phone": "+15106971448", "display_phone": "(510) 697-1448", "distance": 53575.98765059486}, {"id": "8SNGFcMWZkvS4GWDUL8w1Q", "alias": "noon-o-kabob-san-jose-4", "name": "Noon O Kabob", "image_url": "https://s3-media2.fl.yelpcdn.com/bphoto/5GmY5FRw0m0XEWC5XXbVlA/o.jpg", "is_closed": false, "url": "https://www.yelp.com/biz/noon-o-kabob-san-jose-4?adjust_creative=R39z9kjZ-1HrCCc7SW6pcw&utm_campaign=yelp_api_v3&utm_medium=api_v3_business_search&utm_source=R39z9kjZ-1HrCCc7SW6pcw", "review_count": 29, "categories": [{"alias": "foodtrucks", "title": "Food Trucks"}, {"alias": "kebab", "title": "Kebab"}, {"alias": "persian", "title": "Persian/Iranian"}], "rating": 4.5, "coordinates": {"latitude": 37.3940232, "longitude": -122.0288052}, "transactions": [], "price": "$$", "location": {"address1": null, "address2": null, "address3": null, "city": "San Jose", "zip_code": "95101", "country": "US", "state": "CA", "display_address": ["San Jose, CA 95101"]}, "phone": "+14083346777", "display_phone": "(408) 334-6777", "distance": 65828.78758592819}, {"id": "C9uewBH5505NV0EWYBIJAA", "alias": "lady-and-l-aperitivo-san-jose", "name": "Lady & L'Aperitivo", "image_url": "https://s3-media4.fl.yelpcdn.com/bphoto/3nz0sRE9MlOq_4xVRQRt9w/o.jpg", "is_closed": false, "url": "https://www.yelp.com/biz/lady-and-l-aperitivo-san-jose?adjust_creative=R39z9kjZ-1HrCCc7SW6pcw&utm_campaign=yelp_api_v3&utm_medium=api_v3_business_search&utm_source=R39z9kjZ-1HrCCc7SW6pcw", "review_count": 1, "categories": [{"alias": "bakeries", "title": "Bakeries"}, {"alias": "desserts", "title": "Desserts"}, {"alias": "cheesesteaks", "title": "Cheesesteaks"}], "rating": 5.0, "coordinates": {"latitude": 37.2208938598633, "longitude": -121.861633300781}, "transactions": [], "location": {"address1": null, "address2": null, "address3": "", "city": "San Jose", "zip_code": "95120", "country": "US", "state": "CA", "display_address": ["San Jose, CA 95120"]}, "phone": "", "display_phone": "", "distance": 95599.59225015003}, {"id": "sR0Wy3LYGdYV9HLszRlMmw", "alias": "tacos-la-palmita-stockton", "name": "Tacos La Palmita", "image_url": "https://s3-media2.fl.yelpcdn.com/bphoto/pzYoRmZjUQqxZ7qOyU7hUQ/o.jpg", "is_closed": false, "url": "https://www.yelp.com/biz/tacos-la-palmita-stockton?adjust_creative=R39z9kjZ-1HrCCc7SW6pcw&utm_campaign=yelp_api_v3&utm_medium=api_v3_business_search&utm_source=R39z9kjZ-1HrCCc7SW6pcw", "review_count": 90, "categories": [{"alias": "tacos", "title": "Tacos"}, {"alias": "foodtrucks", "title": "Food Trucks"}], "rating": 4.5, "coordinates": {"latitude": 38.008129, "longitude": -121.320219}, "transactions": ["pickup", "delivery"], "price": "$", "location": {"address1": "6393 Pacific Ave", "address2": null, "address3": null, "city": "Stockton", "zip_code": "95207", "country": "US", "state": "CA", "display_address": ["6393 Pacific Ave", "Stockton, CA 95207"]}, "phone": "+12093026825", "display_phone": "(209) 302-6825", "distance": 101008.61403223895}, {"id": "Mij1ZvLLpqvNmJFWNz9IsQ", "alias": "paquitas-mexican-grill-sacramento-2", "name": "Paquitas Mexican Grill", "image_url": "https://s3-media2.fl.yelpcdn.com/bphoto/Onav96dKMe8cWeFXMNFcyQ/o.jpg", "is_closed": false, "url": "https://www.yelp.com/biz/paquitas-mexican-grill-sacramento-2?adjust_creative=R39z9kjZ-1HrCCc7SW6pcw&utm_campaign=yelp_api_v3&utm_medium=api_v3_business_search&utm_source=R39z9kjZ-1HrCCc7SW6pcw", "review_count": 73, "categories": [{"alias": "foodtrucks", "title": "Food Trucks"}, {"alias": "mexican", "title": "Mexican"}], "rating": 4.0, "coordinates": {"latitude": 38.549732, "longitude": -121.406281}, "transactions": [], "price": "$", "location": {"address1": "49 Bicentennial Cir", "address2": null, "address3": "", "city": "Sacramento", "zip_code": "95826", "country": "US", "state": "CA", "display_address": ["49 Bicentennial Cir", "Sacramento, CA 95826"]}, "phone": "+15308484666", "display_phone": "(530) 848-4666", "distance": 118588.55579041528}, {"id": "7ETh5878KSnGQnLxLE_yaQ", "alias": "gyrostop-sacramento", "name": "GyroStop", "image_url": "https://s3-media1.fl.yelpcdn.com/bphoto/xQsct4YKnW0qSJOmK_gsxw/o.jpg", "is_closed": false, "url": "https://www.yelp.com/biz/gyrostop-sacramento?adjust_creative=R39z9kjZ-1HrCCc7SW6pcw&utm_campaign=yelp_api_v3&utm_medium=api_v3_business_search&utm_source=R39z9kjZ-1HrCCc7SW6pcw", "review_count": 74, "categories": [{"alias": "mediterranean", "title": "Mediterranean"}, {"alias": "foodtrucks", "title": "Food Trucks"}], "rating": 4.0, "coordinates": {"latitude": 38.6621589660645, "longitude": -121.336738586426}, "transactions": [], "price": "$$", "location": {"address1": "", "address2": "", "address3": "", "city": "Sacramento", "zip_code": "95841", "country": "US", "state": "CA", "display_address": ["Sacramento, CA 95841"]}, "phone": "+19163044976", "display_phone": "(916) 304-4976", "distance": 130445.49651830478}]}