{"location": "Benicia, CA", "term": "restaurant", "radius": 3265, "businesses": [{"id": "q2sEOXAwldWVb0D5cg8AYQ", "alias": "the-workshop-benicia", "name": "The Workshop", "image_url": "https://s3-media1.fl.yelpcdn.com/bphoto/PPB4CkIpzjD9ERYtWp1MEA/o.jpg", "is_closed": false, "url": "https://www.yelp.com/biz/the-workshop-benicia?adjust_creative=R39z9kjZ-1HrCCc7SW6pcw&utm_campaign=yelp_api_v3&utm_medium=api_v3_business_search&utm_source=R39z9kjZ-1HrCCc7SW6pcw", "review_count": 388, "categories": [{"alias": "cajun", "title": "Cajun/Creole"}, {"alias": "seafood", "title": "Seafood"}, {"alias": "breakfast_brunch", "title": "Breakfast & Brunch"}], "rating": 4.5, "coordinates": {"latitude": 38.0562946200371, "longitude": -122.165350914001}, "transactions": ["delivery"], "price": "$$", "location": {"address1": "511 Claverie Way", "address2": null, "address3": "", "city": "Benicia", "zip_code": "94510", "country": "US", "state": "CA", "display_address": ["511 Claverie Way", "Benicia, CA 94510"]}, "phone": "+17077476028", "display_phone": "(707) 747-6028", "distance": 1410.4402608472788}, {"id": "VUuUQ67RjZ5i_P84iWWUKA", "alias": "bella-siena-benicia", "name": "Bella Siena", "image_url": "https://s3-media3.fl.yelpcdn.com/bphoto/ESxakqgDTHqEMdvWhE7tOA/o.jpg", "is_closed": false, "url": "https://www.yelp.com/biz/bella-siena-benicia?adjust_creative=R39z9kjZ-1HrCCc7SW6pcw&utm_campaign=yelp_api_v3&utm_medium=api_v3_business_search&utm_source=R39z9kjZ-1HrCCc7SW6pcw", "review_count": 380, "categories": [{"alias": "italian", "title": "Italian"}, {"alias": "newamerican", "title": "American (New)"}], "rating": 4.5, "coordinates": {"latitude": 38.045987, "longitude": -122.161559}, "transactions": [], "price": "$$", "location": {"address1": "127 1st St", "address2": "", "address3": null, "city": "Benicia", "zip_code": "94510", "country": "US", "state": "CA", "display_address": ["127 1st St", "Benicia, CA 94510"]}, "phone": "+17078050575", "display_phone": "(707) 805-0575", "distance": 2229.8979852126204}, {"id": "f4sC_nRl4iYK6V4UhVlJag", "alias": "got-plate-lunch-benicia", "name": "Got Plate Lunch", "image_url": "https://s3-media1.fl.yelpcdn.com/bphoto/oZR-F43jXRtkeLUr2LY8kg/o.jpg", "is_closed": false, "url": "https://www.yelp.com/biz/got-plate-lunch-benicia?adjust_creative=R39z9kjZ-1HrCCc7SW6pcw&utm_campaign=yelp_api_v3&utm_medium=api_v3_business_search&utm_source=R39z9kjZ-1HrCCc7SW6pcw", "review_count": 516, "categories": [{"alias": "hawaiian", "title": "Hawaiian"}, {"alias": "foodtrucks", "title": "Food Trucks"}], "rating": 4.5, "coordinates": {"latitude": 38.0526209, "longitude": -122.1562197}, "transactions": ["pickup"], "price": "$$", "location": {"address1": "1034 1st St", "address2": "", "address3": "", "city": "Benicia", "zip_code": "94510", "country": "US", "state": "CA", "display_address": ["1034 1st St", "Benicia, CA 94510"]}, "phone": "+17077454751", "display_phone": "(707) 745-4751", "distance": 1403.6800644276527}, {"id": "9kAlWgTSDgwqU6K7XqvrDw", "alias": "aung-maylika-benicia-4", "name": "Aung Maylika", "image_url": "https://s3-media4.fl.yelpcdn.com/bphoto/FKDgfg8ERLf3Fns423pISA/o.jpg", "is_closed": false, "url": "https://www.yelp.com/biz/aung-maylika-benicia-4?adjust_creative=R39z9kjZ-1HrCCc7SW6pcw&utm_campaign=yelp_api_v3&utm_medium=api_v3_business_search&utm_source=R39z9kjZ-1HrCCc7SW6pcw", "review_count": 247, "categories": [{"alias": "burmese", "title": "Burmese"}], "rating": 4.5, "coordinates": {"latitude": 38.0670912, "longitude": -122.1677763}, "transactions": ["delivery", "pickup"], "price": "$$", "location": {"address1": "836 Southampton Rd", "address2": "Ste E", "address3": null, "city": "Benicia", "zip_code": "94510", "country": "US", "state": "CA", "display_address": ["836 Southampton Rd", "Ste E", "Benicia, CA 94510"]}, "phone": "+17073615675", "display_phone": "(707) 361-5675", "distance": 1080.6060657756348}, {"id": "W9-DKuOIc95hQI8xMq9Ojw", "alias": "lucca-bar-and-grill-benicia", "name": "Lucca Bar & Grill", "image_url": "https://s3-media2.fl.yelpcdn.com/bphoto/2Sa-M_GWWX8pd2X4deuucw/o.jpg", "is_closed": false, "url": "https://www.yelp.com/biz/lucca-bar-and-grill-benicia?adjust_creative=R39z9kjZ-1HrCCc7SW6pcw&utm_campaign=yelp_api_v3&utm_medium=api_v3_business_search&utm_source=R39z9kjZ-1HrCCc7SW6pcw", "review_count": 654, "categories": [{"alias": "newamerican", "title": "American (New)"}, {"alias": "bars", "title": "Bars"}], "rating": 3.5, "coordinates": {"latitude": 38.0481135183944, "longitude": -122.159983916935}, "transactions": ["delivery", "restaurant_reservation"], "price": "$$", "location": {"address1": "439 1st St", "address2": "", "address3": "", "city": "Benicia", "zip_code": "94510", "country": "US", "state": "CA", "display_address": ["439 1st St", "Benicia, CA 94510"]}, "phone": "+17077453749", "display_phone": "(707) 745-3749", "distance": 1963.8191753129593}, {"id": "DrXWltY6NIXt1-R7ycXMXQ", "alias": "the-loft-wine-bar-and-restaurant-benicia-2", "name": "The Loft Wine Bar & Restaurant", "image_url": "https://s3-media3.fl.yelpcdn.com/bphoto/wC1AaUr3gA65xdVyp_PimA/o.jpg", "is_closed": false, "url": "https://www.yelp.com/biz/the-loft-wine-bar-and-restaurant-benicia-2?adjust_creative=R39z9kjZ-1HrCCc7SW6pcw&utm_campaign=yelp_api_v3&utm_medium=api_v3_business_search&utm_source=R39z9kjZ-1HrCCc7SW6pcw", "review_count": 319, "categories": [{"alias": "wine_bars", "title": "Wine Bars"}, {"alias": "newamerican", "title": "American (New)"}, {"alias": "cocktailbars", "title": "Cocktail Bars"}], "rating": 4.0, "coordinates": {"latitude": 38.04638, "longitude": -122.16081}, "transactions": ["restaurant_reservation"], "price": "$$", "location": {"address1": "280 1st St", "address2": "", "address3": "", "city": "Benicia", "zip_code": "94510", "country": "US", "state": "CA", "display_address": ["280 1st St", "Benicia, CA 94510"]}, "phone": "+17077454200", "display_phone": "(707) 745-4200", "distance": 2165.974441525624}, {"id": "vdVMVGyJRitqgTEXDcZViw", "alias": "farm-and-flour-benicia", "name": "Farm and Flour", "image_url": "https://s3-media2.fl.yelpcdn.com/bphoto/pxMZreA43t2fhWEeVbiGbg/o.jpg", "is_closed": false, "url": "https://www.yelp.com/biz/farm-and-flour-benicia?adjust_creative=R39z9kjZ-1HrCCc7SW6pcw&utm_campaign=yelp_api_v3&utm_medium=api_v3_business_search&utm_source=R39z9kjZ-1HrCCc7SW6pcw", "review_count": 257, "categories": [{"alias": "bakeries", "title": "Bakeries"}, {"alias": "coffee", "title": "Coffee & Tea"}, {"alias": "breakfast_brunch", "title": "Breakfast & Brunch"}], "rating": 4.5, "coordinates": {"latitude": 38.04977, "longitude": -122.1583}, "transactions": [], "location": {"address1": "700 1st St", "address2": "", "address3": null, "city": "Benicia", "zip_code": "94510", "country": "US", "state": "CA", "display_address": ["700 1st St", "Benicia, CA 94510"]}, "phone": "+17077505345", "display_phone": "(707) 750-5345", "distance": 1748.7544145381123}, {"id": "SzO1eLt79x0xionJdTBqUA", "alias": "pearl-thai-cuisine-benicia", "name": "Pearl Thai Cuisine", "image_url": "https://s3-media2.fl.yelpcdn.com/bphoto/s1-lGglf7A2WI6TzBjk7vw/o.jpg", "is_closed": false, "url": "https://www.yelp.com/biz/pearl-thai-cuisine-benicia?adjust_creative=R39z9kjZ-1HrCCc7SW6pcw&utm_campaign=yelp_api_v3&utm_medium=api_v3_business_search&utm_source=R39z9kjZ-1HrCCc7SW6pcw", "review_count": 499, "categories": [{"alias": "thai", "title": "Thai"}, {"alias": "seafood", "title": "Seafood"}, {"alias": "tradamerican", "title": "American (Traditional)"}], "rating": 4.5, "coordinates": {"latitude": 38.0658496876391, "longitude": -122.167168879959}, "transactions": [], "price": "$$", "location": {"address1": "870 Southampton Rd", "address2": null, "address3": "", "city": "Benicia", "zip_code": "94510", "country": "US", "state": "CA", "display_address": ["870 Southampton Rd", "Benicia, CA 94510"]}, "phone": "+17077479777", "display_phone": "(707) 747-9777", "distance": 1165.1715050948071}, {"id": "cC7MgBbaMtqruaupHLGynA", "alias": "one-house-bakery-benicia", "name": "One House Bakery", "image_url": "https://s3-media3.fl.yelpcdn.com/bphoto/HAiE7OFHPzcoh6TkuQSmog/o.jpg", "is_closed": false, "url": "https://www.yelp.com/biz/one-house-bakery-benicia?adjust_creative=R39z9kjZ-1HrCCc7SW6pcw&utm_campaign=yelp_api_v3&utm_medium=api_v3_business_search&utm_source=R39z9kjZ-1HrCCc7SW6pcw", "review_count": 370, "categories": [{"alias": "bakeries", "title": "Bakeries"}, {"alias": "sandwiches", "title": "Sandwiches"}], "rating": 4.5, "coordinates": {"latitude": 38.05147, "longitude": -122.15689}, "transactions": [], "price": "$$", "location": {"address1": "918 1st St", "address2": "", "address3": null, "city": "Benicia", "zip_code": "94510", "country": "US", "state": "CA", "display_address": ["918 1st St", "Benicia, CA 94510"]}, "phone": "+17073615919", "display_phone": "(707) 361-5919", "distance": 1537.1838936458446}, {"id": "qL75Cc3T57kmvuMu7puEcA", "alias": "kimono-japanese-restaurant-benicia-2", "name": "Kimono Japanese Restaurant", "image_url": "https://s3-media4.fl.yelpcdn.com/bphoto/3jLXzlJfTjMjoS7xT2XRjA/o.jpg", "is_closed": false, "url": "https://www.yelp.com/biz/kimono-japanese-restaurant-benicia-2?adjust_creative=R39z9kjZ-1HrCCc7SW6pcw&utm_campaign=yelp_api_v3&utm_medium=api_v3_business_search&utm_source=R39z9kjZ-1HrCCc7SW6pcw", "review_count": 408, "categories": [{"alias": "teppanyaki", "title": "Teppanyaki"}, {"alias": "sushi", "title": "Sushi Bars"}, {"alias": "steak", "title": "Steakhouses"}], "rating": 3.5, "coordinates": {"latitude": 38.0565, "longitude": -122.15035}, "transactions": [], "price": "$$$", "location": {"address1": "1654 E 2nd St", "address2": "", "address3": "", "city": "Benicia", "zip_code": "94510", "country": "US", "state": "CA", "display_address": ["1654 E 2nd St", "Benicia, CA 94510"]}, "phone": "+17077505418", "display_phone": "(707) 750-5418", "distance": 1017.797299622319}, {"id": "O-TKyEZbfcrhhLbU57GBlw", "alias": "sailor-jacks-benicia", "name": "Sailor Jack's", "image_url": "https://s3-media3.fl.yelpcdn.com/bphoto/SRVzOe-budyKeEYhhC3mgQ/o.jpg", "is_closed": false, "url": "https://www.yelp.com/biz/sailor-jacks-benicia?adjust_creative=R39z9kjZ-1HrCCc7SW6pcw&utm_campaign=yelp_api_v3&utm_medium=api_v3_business_search&utm_source=R39z9kjZ-1HrCCc7SW6pcw", "review_count": 803, "categories": [{"alias": "seafood", "title": "Seafood"}], "rating": 3.0, "coordinates": {"latitude": 38.0456733372247, "longitude": -122.161791985149}, "transactions": [], "price": "$$", "location": {"address1": "123 1st St", "address2": "", "address3": "", "city": "Benicia", "zip_code": "94510", "country": "US", "state": "CA", "display_address": ["123 1st St", "Benicia, CA 94510"]}, "phone": "+17077468500", "display_phone": "(707) 746-8500", "distance": 2269.3166931634823}, {"id": "TgmbriMbYo5VJ7XEaBEZlA", "alias": "matsuri-sushi-benicia", "name": "Matsuri Sushi", "image_url": "https://s3-media3.fl.yelpcdn.com/bphoto/aJSAgz-QppqMuHrfSYO8YQ/o.jpg", "is_closed": false, "url": "https://www.yelp.com/biz/matsuri-sushi-benicia?adjust_creative=R39z9kjZ-1HrCCc7SW6pcw&utm_campaign=yelp_api_v3&utm_medium=api_v3_business_search&utm_source=R39z9kjZ-1HrCCc7SW6pcw", "review_count": 334, "categories": [{"alias": "sushi", "title": "Sushi Bars"}, {"alias": "japanese", "title": "Japanese"}], "rating": 4.0, "coordinates": {"latitude": 38.05158, "longitude": -122.15683}, "transactions": [], "price": "$$", "location": {"address1": "920 1st St", "address2": "Ste 102", "address3": "", "city": "Benicia", "zip_code": "94510", "country": "US", "state": "CA", "display_address": ["920 1st St", "Ste 102", "Benicia, CA 94510"]}, "phone": "+17077471585", "display_phone": "(707) 747-1585", "distance": 1526.6533800841842}, {"id": "LA8Jfv1qIbr1G-w89AOcnw", "alias": "tacos-jalisco-benicia", "name": "Tacos Jalisco", "image_url": "https://s3-media1.fl.yelpcdn.com/bphoto/Zu4vSkI2HQ1ySQiPMeYLMg/o.jpg", "is_closed": false, "url": "https://www.yelp.com/biz/tacos-jalisco-benicia?adjust_creative=R39z9kjZ-1HrCCc7SW6pcw&utm_campaign=yelp_api_v3&utm_medium=api_v3_business_search&utm_source=R39z9kjZ-1HrCCc7SW6pcw", "review_count": 130, "categories": [{"alias": "mexican", "title": "Mexican"}], "rating": 4.5, "coordinates": {"latitude": 38.0515, "longitude": -122.147472}, "transactions": [], "price": "$", "location": {"address1": "457 Military E", "address2": "", "address3": "", "city": "Benicia", "zip_code": "94510", "country": "US", "state": "CA", "display_address": ["457 Military E", "Benicia, CA 94510"]}, "phone": "+17077125190", "display_phone": "(707) 712-5190", "distance": 1614.4761293200243}, {"id": "rK0c3leSylDO5RRvxNz2Nw", "alias": "raleys-benicia", "name": "Raley's", "image_url": "https://s3-media2.fl.yelpcdn.com/bphoto/wnGoKVU4fCnx6hB8kY6V6Q/o.jpg", "is_closed": false, "url": "https://www.yelp.com/biz/raleys-benicia?adjust_creative=R39z9kjZ-1HrCCc7SW6pcw&utm_campaign=yelp_api_v3&utm_medium=api_v3_business_search&utm_source=R39z9kjZ-1HrCCc7SW6pcw", "review_count": 138, "categories": [{"alias": "grocery", "title": "Grocery"}, {"alias": "delis", "title": "Delis"}, {"alias": "beer_and_wine", "title": "Beer, Wine & Spirits"}], "rating": 3.5, "coordinates": {"latitude": 38.06647421115, "longitude": -122.167854262971}, "transactions": [], "price": "$$", "location": {"address1": "890 Southampton Rd", "address2": "", "address3": "", "city": "Benicia", "zip_code": "94510", "country": "US", "state": "CA", "display_address": ["890 Southampton Rd", "Benicia, CA 94510"]}, "phone": "+17077461203", "display_phone": "(707) 746-1203", "distance": 1231.6335657685518}, {"id": "VnPkuK0XsJX_-rG2sUYhlw", "alias": "rosies-cafe-benicia", "name": "Rosie's Cafe", "image_url": "https://s3-media1.fl.yelpcdn.com/bphoto/F3jfAseUZDgIIpyvg6K9Jg/o.jpg", "is_closed": false, "url": "https://www.yelp.com/biz/rosies-cafe-benicia?adjust_creative=R39z9kjZ-1HrCCc7SW6pcw&utm_campaign=yelp_api_v3&utm_medium=api_v3_business_search&utm_source=R39z9kjZ-1HrCCc7SW6pcw", "review_count": 87, "categories": [{"alias": "tradamerican", "title": "American (Traditional)"}, {"alias": "newmexican", "title": "New Mexican Cuisine"}, {"alias": "burgers", "title": "Burgers"}], "rating": 4.0, "coordinates": {"latitude": 38.06248, "longitude": -122.12976}, "transactions": ["delivery", "pickup"], "price": "$", "location": {"address1": "3001 Bayshore Rd", "address2": "Ste 1", "address3": "", "city": "Benicia", "zip_code": "94510", "country": "US", "state": "CA", "display_address": ["3001 Bayshore Rd", "Ste 1", "Benicia, CA 94510"]}, "phone": "+17077451154", "display_phone": "(707) 745-1154", "distance": 2159.354125097025}, {"id": "2ikFYufTqPAN9AjFUOQ4Lw", "alias": "venticellos-ristorante-benicia", "name": "Venticello's Ristorante", "image_url": "https://s3-media4.fl.yelpcdn.com/bphoto/TKpvs6GXLC-a_t8gtvVf0Q/o.jpg", "is_closed": false, "url": "https://www.yelp.com/biz/venticellos-ristorante-benicia?adjust_creative=R39z9kjZ-1HrCCc7SW6pcw&utm_campaign=yelp_api_v3&utm_medium=api_v3_business_search&utm_source=R39z9kjZ-1HrCCc7SW6pcw", "review_count": 228, "categories": [{"alias": "italian", "title": "Italian"}, {"alias": "breakfast_brunch", "title": "Breakfast & Brunch"}, {"alias": "bars", "title": "Bars"}], "rating": 4.0, "coordinates": {"latitude": 38.051656, "longitude": -122.157329}, "transactions": [], "price": "$$", "location": {"address1": "911 1st St", "address2": null, "address3": "", "city": "Benicia", "zip_code": "94510", "country": "US", "state": "CA", "display_address": ["911 1st St", "Benicia, CA 94510"]}, "phone": "+17077475263", "display_phone": "(707) 747-5263", "distance": 1526.0593413217443}, {"id": "4G29dKDVhK0oFekfPiumVQ", "alias": "nine-zero-seven-benicia", "name": "Nine Zero Seven", "image_url": "https://s3-media2.fl.yelpcdn.com/bphoto/1RCsKukGr3bdbQaGHj25gQ/o.jpg", "is_closed": false, "url": "https://www.yelp.com/biz/nine-zero-seven-benicia?adjust_creative=R39z9kjZ-1HrCCc7SW6pcw&utm_campaign=yelp_api_v3&utm_medium=api_v3_business_search&utm_source=R39z9kjZ-1HrCCc7SW6pcw", "review_count": 289, "categories": [{"alias": "lounges", "title": "Lounges"}, {"alias": "newamerican", "title": "American (New)"}, {"alias": "cocktailbars", "title": "Cocktail Bars"}], "rating": 3.5, "coordinates": {"latitude": 38.051638796017, "longitude": -122.15745223081}, "transactions": [], "price": "$$", "location": {"address1": "907 1st St", "address2": "", "address3": "", "city": "Benicia", "zip_code": "94510", "country": "US", "state": "CA", "display_address": ["907 1st St", "Benicia, CA 94510"]}, "phone": "+17077460505", "display_phone": "(707) 746-0505", "distance": 1530.0959683016758}, {"id": "D8tf7v8oyWuTbBdtuJqtWw", "alias": "sprankles-village-deli-benicia", "name": "Sprankle's Village Deli", "image_url": "https://s3-media1.fl.yelpcdn.com/bphoto/TFLwZgjOMxB67gOoC6t50Q/o.jpg", "is_closed": false, "url": "https://www.yelp.com/biz/sprankles-village-deli-benicia?adjust_creative=R39z9kjZ-1HrCCc7SW6pcw&utm_campaign=yelp_api_v3&utm_medium=api_v3_business_search&utm_source=R39z9kjZ-1HrCCc7SW6pcw", "review_count": 259, "categories": [{"alias": "delis", "title": "Delis"}, {"alias": "salad", "title": "Salad"}, {"alias": "sandwiches", "title": "Sandwiches"}], "rating": 4.5, "coordinates": {"latitude": 38.0542299, "longitude": -122.1538}, "transactions": [], "price": "$", "location": {"address1": "155 military st", "address2": "", "address3": "", "city": "Benicia", "zip_code": "94510", "country": "US", "state": "CA", "display_address": ["155 military st", "Benicia, CA 94510"]}, "phone": "+17072976119", "display_phone": "(707) 297-6119", "distance": 1219.4434144969177}, {"id": "F_OxcAk8YD8d6kl5bxsGXg", "alias": "pizza-pirate-benicia", "name": "Pizza Pirate", "image_url": "https://s3-media1.fl.yelpcdn.com/bphoto/AzDaXI0zralEwyw2PFXI8Q/o.jpg", "is_closed": false, "url": "https://www.yelp.com/biz/pizza-pirate-benicia?adjust_creative=R39z9kjZ-1HrCCc7SW6pcw&utm_campaign=yelp_api_v3&utm_medium=api_v3_business_search&utm_source=R39z9kjZ-1HrCCc7SW6pcw", "review_count": 287, "categories": [{"alias": "pizza", "title": "Pizza"}], "rating": 4.0, "coordinates": {"latitude": 38.05483, "longitude": -122.15408}, "transactions": ["delivery", "pickup"], "price": "$$", "location": {"address1": "72 Solano Sq", "address2": "", "address3": "", "city": "Benicia", "zip_code": "94510", "country": "US", "state": "CA", "display_address": ["72 Solano Sq", "Benicia, CA 94510"]}, "phone": "+17077451667", "display_phone": "(707) 745-1667", "distance": 1134.0819026757183}, {"id": "6EQzQoSWKOvFvD-QJqUf4w", "alias": "mai-thai-benicia-3", "name": "Mai Thai", "image_url": "https://s3-media2.fl.yelpcdn.com/bphoto/o49WeScMQo55H4zEhM6Mwg/o.jpg", "is_closed": false, "url": "https://www.yelp.com/biz/mai-thai-benicia-3?adjust_creative=R39z9kjZ-1HrCCc7SW6pcw&utm_campaign=yelp_api_v3&utm_medium=api_v3_business_search&utm_source=R39z9kjZ-1HrCCc7SW6pcw", "review_count": 178, "categories": [{"alias": "thai", "title": "Thai"}], "rating": 4.0, "coordinates": {"latitude": 38.05099, "longitude": -122.15804}, "transactions": ["pickup"], "price": "$$", "location": {"address1": "807 1st St", "address2": "", "address3": "", "city": "Benicia", "zip_code": "94510", "country": "US", "state": "CA", "display_address": ["807 1st St", "Benicia, CA 94510"]}, "phone": "+17077471868", "display_phone": "(707) 747-1868", "distance": 1613.8613257094303}, {"id": "rgKtbRaPI5X1nsgGkim5PA", "alias": "bottom-of-the-fifth-sports-bar-and-grill-benicia", "name": "Bottom of the Fifth Sports Bar and Grill", "image_url": "https://s3-media1.fl.yelpcdn.com/bphoto/JZSShE5SD-W4-e7uqAx3TA/o.jpg", "is_closed": false, "url": "https://www.yelp.com/biz/bottom-of-the-fifth-sports-bar-and-grill-benicia?adjust_creative=R39z9kjZ-1HrCCc7SW6pcw&utm_campaign=yelp_api_v3&utm_medium=api_v3_business_search&utm_source=R39z9kjZ-1HrCCc7SW6pcw", "review_count": 216, "categories": [{"alias": "sportsbars", "title": "Sports Bars"}, {"alias": "burgers", "title": "Burgers"}, {"alias": "newamerican", "title": "American (New)"}], "rating": 4.0, "coordinates": {"latitude": 38.0509336, "longitude": -122.1472096}, "transactions": [], "price": "$$", "location": {"address1": "498 Military E", "address2": "Ste A", "address3": "", "city": "Benicia", "zip_code": "94510", "country": "US", "state": "CA", "display_address": ["498 Military E", "Ste A", "Benicia, CA 94510"]}, "phone": "+17077459949", "display_phone": "(707) 745-9949", "distance": 1681.5159020429364}, {"id": "4WYFwrMrgyn970eD2x-iJg", "alias": "the-rellik-tavern-benicia", "name": "The Rellik Tavern", "image_url": "https://s3-media1.fl.yelpcdn.com/bphoto/L3ag-fMIaYtAvOnPy6KbhQ/o.jpg", "is_closed": false, "url": "https://www.yelp.com/biz/the-rellik-tavern-benicia?adjust_creative=R39z9kjZ-1HrCCc7SW6pcw&utm_campaign=yelp_api_v3&utm_medium=api_v3_business_search&utm_source=R39z9kjZ-1HrCCc7SW6pcw", "review_count": 326, "categories": [{"alias": "lounges", "title": "Lounges"}, {"alias": "cocktailbars", "title": "Cocktail Bars"}, {"alias": "pizza", "title": "Pizza"}], "rating": 4.0, "coordinates": {"latitude": 38.05021, "longitude": -122.15784}, "transactions": [], "price": "$$", "location": {"address1": "726 1st St", "address2": "", "address3": "", "city": "Benicia", "zip_code": "94510", "country": "US", "state": "CA", "display_address": ["726 1st St", "Benicia, CA 94510"]}, "phone": "+17077461137", "display_phone": "(707) 746-1137", "distance": 1699.7203343429308}, {"id": "SSI1ciLpOQcCCwZY2TzrOQ", "alias": "szechwan-house-benicia", "name": "Szechwan House", "image_url": "https://s3-media4.fl.yelpcdn.com/bphoto/HWu5QIc9ilduTeYr-cGh2w/o.jpg", "is_closed": false, "url": "https://www.yelp.com/biz/szechwan-house-benicia?adjust_creative=R39z9kjZ-1HrCCc7SW6pcw&utm_campaign=yelp_api_v3&utm_medium=api_v3_business_search&utm_source=R39z9kjZ-1HrCCc7SW6pcw", "review_count": 155, "categories": [{"alias": "chinese", "title": "Chinese"}, {"alias": "noodles", "title": "Noodles"}, {"alias": "buffets", "title": "Buffets"}], "rating": 3.5, "coordinates": {"latitude": 38.04811, "longitude": -122.15937}, "transactions": [], "price": "$$", "location": {"address1": "500 1st St", "address2": "", "address3": "", "city": "Benicia", "zip_code": "94510", "country": "US", "state": "CA", "display_address": ["500 1st St", "Benicia, CA 94510"]}, "phone": "+17077454743", "display_phone": "(707) 745-4743", "distance": 1948.664850705729}, {"id": "_hn7UYKm4bS1-jqmbvSvRw", "alias": "buon-appetito-benicia", "name": "Buon Appetito", "image_url": "https://s3-media3.fl.yelpcdn.com/bphoto/u6bRoX0P2dEkU7dFS6aqYA/o.jpg", "is_closed": false, "url": "https://www.yelp.com/biz/buon-appetito-benicia?adjust_creative=R39z9kjZ-1HrCCc7SW6pcw&utm_campaign=yelp_api_v3&utm_medium=api_v3_business_search&utm_source=R39z9kjZ-1HrCCc7SW6pcw", "review_count": 108, "categories": [{"alias": "italian", "title": "Italian"}], "rating": 3.5, "coordinates": {"latitude": 38.05411, "longitude": -122.15322}, "transactions": [], "price": "$$", "location": {"address1": "191 Military E", "address2": "Ste F", "address3": "", "city": "Benicia", "zip_code": "94510", "country": "US", "state": "CA", "display_address": ["191 Military E", "Ste F", "Benicia, CA 94510"]}, "phone": "+17077467410", "display_phone": "(707) 746-7410", "distance": 1223.042321913188}, {"id": "vPMFrx6dZVe1IdzmpKI8Ug", "alias": "chars-hot-dogs-benicia-4", "name": "Char's Hot Dogs", "image_url": "https://s3-media2.fl.yelpcdn.com/bphoto/qEl3iL6sF1haBkjp3orK_g/o.jpg", "is_closed": false, "url": "https://www.yelp.com/biz/chars-hot-dogs-benicia-4?adjust_creative=R39z9kjZ-1HrCCc7SW6pcw&utm_campaign=yelp_api_v3&utm_medium=api_v3_business_search&utm_source=R39z9kjZ-1HrCCc7SW6pcw", "review_count": 43, "categories": [{"alias": "hotdog", "title": "Hot Dogs"}, {"alias": "burgers", "title": "Burgers"}], "rating": 4.5, "coordinates": {"latitude": 38.0459397, "longitude": -122.1615048}, "transactions": [], "price": "$", "location": {"address1": "131 1st St", "address2": "Ste A", "address3": "", "city": "Benicia", "zip_code": "94510", "country": "US", "state": "CA", "display_address": ["131 1st St", "Ste A", "Benicia, CA 94510"]}, "phone": "+17077454476", "display_phone": "(707) 745-4476", "distance": 2214.0864963835643}, {"id": "FhwPDAaIg4jP44ZYv52Cjw", "alias": "aroma-indian-cuisine-benicia", "name": "Aroma Indian Cuisine", "image_url": "https://s3-media2.fl.yelpcdn.com/bphoto/Jatgm0NBWnaxG5hG_KQo_Q/o.jpg", "is_closed": false, "url": "https://www.yelp.com/biz/aroma-indian-cuisine-benicia?adjust_creative=R39z9kjZ-1HrCCc7SW6pcw&utm_campaign=yelp_api_v3&utm_medium=api_v3_business_search&utm_source=R39z9kjZ-1HrCCc7SW6pcw", "review_count": 412, "categories": [{"alias": "indpak", "title": "Indian"}], "rating": 4.0, "coordinates": {"latitude": 38.050841057996, "longitude": -122.15765498588}, "transactions": ["delivery", "pickup"], "price": "$$", "location": {"address1": "818 1st St", "address2": "", "address3": "", "city": "Benicia", "zip_code": "94510", "country": "US", "state": "CA", "display_address": ["818 1st St", "Benicia, CA 94510"]}, "phone": "+17077451870", "display_phone": "(707) 745-1870", "distance": 1620.5570184838946}, {"id": "SkE86YIxQh1gK4lyXIeS5w", "alias": "warehouse-cafe-port-costa-3", "name": "Warehouse Cafe", "image_url": "https://s3-media3.fl.yelpcdn.com/bphoto/tGC61xvX6izpmfV56Yu8ug/o.jpg", "is_closed": false, "url": "https://www.yelp.com/biz/warehouse-cafe-port-costa-3?adjust_creative=R39z9kjZ-1HrCCc7SW6pcw&utm_campaign=yelp_api_v3&utm_medium=api_v3_business_search&utm_source=R39z9kjZ-1HrCCc7SW6pcw", "review_count": 342, "categories": [{"alias": "newamerican", "title": "American (New)"}, {"alias": "cocktailbars", "title": "Cocktail Bars"}, {"alias": "divebars", "title": "Dive Bars"}], "rating": 4.0, "coordinates": {"latitude": 38.04689, "longitude": -122.183108}, "transactions": [], "price": "$", "location": {"address1": "5 Canyon Lake Dr", "address2": "", "address3": "", "city": "Port Costa", "zip_code": "94569", "country": "US", "state": "CA", "display_address": ["5 Canyon Lake Dr", "Port Costa, CA 94569"]}, "phone": "+15107871827", "display_phone": "(510) 787-1827", "distance": 3263.157737300031}, {"id": "jkqPR1aFa7804t4gl2l-bQ", "alias": "camellia-tea-room-benicia", "name": "Camellia Tea Room", "image_url": "https://s3-media2.fl.yelpcdn.com/bphoto/nwSisrmBPV9L9AnmnT3I4A/o.jpg", "is_closed": false, "url": "https://www.yelp.com/biz/camellia-tea-room-benicia?adjust_creative=R39z9kjZ-1HrCCc7SW6pcw&utm_campaign=yelp_api_v3&utm_medium=api_v3_business_search&utm_source=R39z9kjZ-1HrCCc7SW6pcw", "review_count": 207, "categories": [{"alias": "coffee", "title": "Coffee & Tea"}, {"alias": "sandwiches", "title": "Sandwiches"}, {"alias": "tea", "title": "Tea Rooms"}], "rating": 4.0, "coordinates": {"latitude": 38.05091, "longitude": -122.15731}, "transactions": [], "price": "$$", "location": {"address1": "828 1st St", "address2": "", "address3": "", "city": "Benicia", "zip_code": "94510", "country": "US", "state": "CA", "display_address": ["828 1st St", "Benicia, CA 94510"]}, "phone": "+17077465293", "display_phone": "(707) 746-5293", "distance": 1604.4416003320216}, {"id": "vLa-PBaqumhB06q06amGaA", "alias": "sandovals-mexican-food-benicia", "name": "Sandoval's Mexican Food", "image_url": "https://s3-media4.fl.yelpcdn.com/bphoto/4TOYZk8wwnTIWhuzEL4cfw/o.jpg", "is_closed": false, "url": "https://www.yelp.com/biz/sandovals-mexican-food-benicia?adjust_creative=R39z9kjZ-1HrCCc7SW6pcw&utm_campaign=yelp_api_v3&utm_medium=api_v3_business_search&utm_source=R39z9kjZ-1HrCCc7SW6pcw", "review_count": 223, "categories": [{"alias": "mexican", "title": "Mexican"}], "rating": 3.0, "coordinates": {"latitude": 38.0492799729109, "longitude": -122.15887337923}, "transactions": [], "price": "$$", "location": {"address1": "640 1st St", "address2": "", "address3": "", "city": "Benicia", "zip_code": "94510", "country": "US", "state": "CA", "display_address": ["640 1st St", "Benicia, CA 94510"]}, "phone": "+17077467830", "display_phone": "(707) 746-7830", "distance": 1770.0616178382013}, {"id": "EddDuOaAIHOITybrh10mCQ", "alias": "java-point-cafe-benicia", "name": "Java Point Cafe", "image_url": "https://s3-media3.fl.yelpcdn.com/bphoto/LXNfaMcwPMnTH7WIMtGHzQ/o.jpg", "is_closed": false, "url": "https://www.yelp.com/biz/java-point-cafe-benicia?adjust_creative=R39z9kjZ-1HrCCc7SW6pcw&utm_campaign=yelp_api_v3&utm_medium=api_v3_business_search&utm_source=R39z9kjZ-1HrCCc7SW6pcw", "review_count": 391, "categories": [{"alias": "coffee", "title": "Coffee & Tea"}, {"alias": "breakfast_brunch", "title": "Breakfast & Brunch"}, {"alias": "cafes", "title": "Cafes"}], "rating": 4.5, "coordinates": {"latitude": 38.0469848, "longitude": -122.1603918}, "transactions": [], "price": "$$", "location": {"address1": "366 1st St", "address2": "", "address3": "", "city": "Benicia", "zip_code": "94510", "country": "US", "state": "CA", "display_address": ["366 1st St", "Benicia, CA 94510"]}, "phone": "+17077451449", "display_phone": "(707) 745-1449", "distance": 2091.91757230049}, {"id": "PlkJ_CCEDLQX_rDgNZb2fQ", "alias": "rookies-sports-bar-and-grill-benicia", "name": "Rookies Sports Bar & Grill", "image_url": "https://s3-media3.fl.yelpcdn.com/bphoto/7X4TWTytfhWYBxhSnckaEw/o.jpg", "is_closed": false, "url": "https://www.yelp.com/biz/rookies-sports-bar-and-grill-benicia?adjust_creative=R39z9kjZ-1HrCCc7SW6pcw&utm_campaign=yelp_api_v3&utm_medium=api_v3_business_search&utm_source=R39z9kjZ-1HrCCc7SW6pcw", "review_count": 286, "categories": [{"alias": "sportsbars", "title": "Sports Bars"}, {"alias": "tradamerican", "title": "American (Traditional)"}, {"alias": "cocktailbars", "title": "Cocktail Bars"}], "rating": 3.5, "coordinates": {"latitude": 38.047144, "longitude": -122.160845}, "transactions": ["delivery", "pickup"], "price": "$$", "location": {"address1": "321 1st St", "address2": "", "address3": "", "city": "Benicia", "zip_code": "94510", "country": "US", "state": "CA", "display_address": ["321 1st St", "Benicia, CA 94510"]}, "phone": "+17077467665", "display_phone": "(707) 746-7665", "distance": 2088.4974636934726}, {"id": "OfBzYZxJT20qeTGvlz-M-Q", "alias": "huckleberrys-benicia", "name": "Huckleberry's", "image_url": "https://s3-media1.fl.yelpcdn.com/bphoto/SSNWyIH4IrKYklQ5pX0jgA/o.jpg", "is_closed": false, "url": "https://www.yelp.com/biz/huckleberrys-benicia?adjust_creative=R39z9kjZ-1HrCCc7SW6pcw&utm_campaign=yelp_api_v3&utm_medium=api_v3_business_search&utm_source=R39z9kjZ-1HrCCc7SW6pcw", "review_count": 245, "categories": [{"alias": "cajun", "title": "Cajun/Creole"}, {"alias": "breakfast_brunch", "title": "Breakfast & Brunch"}], "rating": 3.5, "coordinates": {"latitude": 38.065932969483, "longitude": -122.164601970571}, "transactions": [], "price": "$$", "location": {"address1": "800 Southampton Rd", "address2": "", "address3": "", "city": "Benicia", "zip_code": "94510", "country": "US", "state": "CA", "display_address": ["800 Southampton Rd", "Benicia, CA 94510"]}, "phone": "+17077453739", "display_phone": "(707) 745-3739", "distance": 941.998738998696}, {"id": "GDVu7OCliNPaA_Ye82lYJw", "alias": "ensenada-restaurant-benicia", "name": "Ensenada Restaurant", "image_url": "https://s3-media1.fl.yelpcdn.com/bphoto/FGoQDechOIzWhRJv_R2wig/o.jpg", "is_closed": false, "url": "https://www.yelp.com/biz/ensenada-restaurant-benicia?adjust_creative=R39z9kjZ-1HrCCc7SW6pcw&utm_campaign=yelp_api_v3&utm_medium=api_v3_business_search&utm_source=R39z9kjZ-1HrCCc7SW6pcw", "review_count": 142, "categories": [{"alias": "mexican", "title": "Mexican"}], "rating": 2.5, "coordinates": {"latitude": 38.065813, "longitude": -122.167053}, "transactions": [], "price": "$$", "location": {"address1": "864 Southampton Rd", "address2": "", "address3": "", "city": "Benicia", "zip_code": "94510", "country": "US", "state": "CA", "display_address": ["864 Southampton Rd", "Benicia, CA 94510"]}, "phone": "+17077455536", "display_phone": "(707) 745-5536", "distance": 1144.8309734523054}, {"id": "xKv7qra5clSA6wnQkdRE4w", "alias": "elvia-ritas-benicia", "name": "Elvia Ritas", "image_url": "https://s3-media1.fl.yelpcdn.com/bphoto/9604f9T1Ryujo4U9IpVumw/o.jpg", "is_closed": false, "url": "https://www.yelp.com/biz/elvia-ritas-benicia?adjust_creative=R39z9kjZ-1HrCCc7SW6pcw&utm_campaign=yelp_api_v3&utm_medium=api_v3_business_search&utm_source=R39z9kjZ-1HrCCc7SW6pcw", "review_count": 92, "categories": [{"alias": "mexican", "title": "Mexican"}], "rating": 3.0, "coordinates": {"latitude": 38.0502584399535, "longitude": -122.158279940486}, "transactions": ["delivery"], "price": "$$", "location": {"address1": "727 1st St", "address2": "", "address3": "", "city": "Benicia", "zip_code": "94510", "country": "US", "state": "CA", "display_address": ["727 1st St", "Benicia, CA 94510"]}, "phone": "+17077511705", "display_phone": "(707) 751-1705", "distance": 1695.592905996925}, {"id": "GeEdw3-HP--VknhG3_IIIg", "alias": "nations-giant-hamburgers-benicia-2", "name": "Nation's Giant Hamburgers", "image_url": "https://s3-media3.fl.yelpcdn.com/bphoto/U69ewqT-6U63Kx88Rf7FFA/o.jpg", "is_closed": false, "url": "https://www.yelp.com/biz/nations-giant-hamburgers-benicia-2?adjust_creative=R39z9kjZ-1HrCCc7SW6pcw&utm_campaign=yelp_api_v3&utm_medium=api_v3_business_search&utm_source=R39z9kjZ-1HrCCc7SW6pcw", "review_count": 162, "categories": [{"alias": "bakeries", "title": "Bakeries"}, {"alias": "hotdogs", "title": "Fast Food"}], "rating": 2.5, "coordinates": {"latitude": 38.05411, "longitude": -122.15322}, "transactions": [], "price": "$", "location": {"address1": "191 Military E", "address2": "", "address3": "", "city": "Benicia", "zip_code": "94510", "country": "US", "state": "CA", "display_address": ["191 Military E", "Benicia, CA 94510"]}, "phone": "+17077470888", "display_phone": "(707) 747-0888", "distance": 1223.042321913188}, {"id": "0KKhW3Zm-G-_DKPFnysi2A", "alias": "benicia-grill-benicia", "name": "Benicia Grill", "image_url": "https://s3-media1.fl.yelpcdn.com/bphoto/8ZxQb2X4u0_yz7fqxd1J6w/o.jpg", "is_closed": false, "url": "https://www.yelp.com/biz/benicia-grill-benicia?adjust_creative=R39z9kjZ-1HrCCc7SW6pcw&utm_campaign=yelp_api_v3&utm_medium=api_v3_business_search&utm_source=R39z9kjZ-1HrCCc7SW6pcw", "review_count": 159, "categories": [{"alias": "breakfast_brunch", "title": "Breakfast & Brunch"}, {"alias": "tradamerican", "title": "American (Traditional)"}], "rating": 3.5, "coordinates": {"latitude": 38.08068, "longitude": -122.12812}, "transactions": [], "price": "$$", "location": {"address1": "4760 E 2nd St", "address2": "", "address3": "", "city": "Benicia", "zip_code": "94510", "country": "US", "state": "CA", "display_address": ["4760 E 2nd St", "Benicia, CA 94510"]}, "phone": "+17077510155", "display_phone": "(707) 751-0155", "distance": 2829.2614535518646}, {"id": "gjut6rY9-PxfGHr_qSl0kg", "alias": "first-street-cafe-benicia", "name": "First Street Cafe", "image_url": "https://s3-media2.fl.yelpcdn.com/bphoto/yf1tK4hgF_7_6M1Pc7dRJw/o.jpg", "is_closed": false, "url": "https://www.yelp.com/biz/first-street-cafe-benicia?adjust_creative=R39z9kjZ-1HrCCc7SW6pcw&utm_campaign=yelp_api_v3&utm_medium=api_v3_business_search&utm_source=R39z9kjZ-1HrCCc7SW6pcw", "review_count": 609, "categories": [{"alias": "newamerican", "title": "American (New)"}, {"alias": "cafes", "title": "Cafes"}, {"alias": "breakfast_brunch", "title": "Breakfast & Brunch"}], "rating": 3.5, "coordinates": {"latitude": 38.04798, "longitude": -122.15959}, "transactions": [], "price": "$$", "location": {"address1": "440 1st St", "address2": "", "address3": "", "city": "Benicia", "zip_code": "94510", "country": "US", "state": "CA", "display_address": ["440 1st St", "Benicia, CA 94510"]}, "phone": "+17077451400", "display_phone": "(707) 745-1400", "distance": 1972.792869190322}, {"id": "m4p59fxQbX2LjFECS-CAiQ", "alias": "kaigan-sushi-benicia", "name": "Kaigan Sushi", "image_url": "https://s3-media2.fl.yelpcdn.com/bphoto/LbPfgdyD4UGdPdgByPQDJA/o.jpg", "is_closed": false, "url": "https://www.yelp.com/biz/kaigan-sushi-benicia?adjust_creative=R39z9kjZ-1HrCCc7SW6pcw&utm_campaign=yelp_api_v3&utm_medium=api_v3_business_search&utm_source=R39z9kjZ-1HrCCc7SW6pcw", "review_count": 134, "categories": [{"alias": "sushi", "title": "Sushi Bars"}, {"alias": "japanese", "title": "Japanese"}], "rating": 3.5, "coordinates": {"latitude": 38.04837, "longitude": -122.15871}, "transactions": ["pickup"], "price": "$$", "location": {"address1": "560 1st St", "address2": "Ste A103", "address3": "", "city": "Benicia", "zip_code": "94510", "country": "US", "state": "CA", "display_address": ["560 1st St", "Ste A103", "Benicia, CA 94510"]}, "phone": "+17077471084", "display_phone": "(707) 747-1084", "distance": 1882.9729318067193}, {"id": "7_WTEe4kPnzMpGWBAr29ZA", "alias": "pacifica-pizza-benicia", "name": "Pacifica Pizza", "image_url": "https://s3-media2.fl.yelpcdn.com/bphoto/-ls7ySpXwh-lKN-9RfSiTw/o.jpg", "is_closed": false, "url": "https://www.yelp.com/biz/pacifica-pizza-benicia?adjust_creative=R39z9kjZ-1HrCCc7SW6pcw&utm_campaign=yelp_api_v3&utm_medium=api_v3_business_search&utm_source=R39z9kjZ-1HrCCc7SW6pcw", "review_count": 130, "categories": [{"alias": "pizza", "title": "Pizza"}], "rating": 3.0, "coordinates": {"latitude": 38.051734189521, "longitude": -122.15738074571}, "transactions": ["delivery", "pickup"], "price": "$$", "location": {"address1": "915 1st St", "address2": "", "address3": "", "city": "Benicia", "zip_code": "94510", "country": "US", "state": "CA", "display_address": ["915 1st St", "Benicia, CA 94510"]}, "phone": "+17077461790", "display_phone": "(707) 746-1790", "distance": 1518.4413896480414}, {"id": "lhwtqZUf2If1sUSapTb-LA", "alias": "round-table-pizza-benicia", "name": "Round Table Pizza", "image_url": "https://s3-media2.fl.yelpcdn.com/bphoto/3Rl7fEekD5XC7aeTXE0NuQ/o.jpg", "is_closed": false, "url": "https://www.yelp.com/biz/round-table-pizza-benicia?adjust_creative=R39z9kjZ-1HrCCc7SW6pcw&utm_campaign=yelp_api_v3&utm_medium=api_v3_business_search&utm_source=R39z9kjZ-1HrCCc7SW6pcw", "review_count": 67, "categories": [{"alias": "pizza", "title": "Pizza"}], "rating": 2.5, "coordinates": {"latitude": 38.0659349217865, "longitude": -122.167459059684}, "transactions": ["delivery", "pickup"], "price": "$$", "location": {"address1": "878 Southampton Rd", "address2": "", "address3": "", "city": "Benicia", "zip_code": "94510", "country": "US", "state": "CA", "display_address": ["878 Southampton Rd", "Benicia, CA 94510"]}, "phone": "+17077467000", "display_phone": "(707) 746-7000", "distance": 1191.2041272771155}, {"id": "Oygsbqr_ILqVdpvftE6zgA", "alias": "panda-express-benicia", "name": "Panda Express", "image_url": "https://s3-media2.fl.yelpcdn.com/bphoto/ZRzF0vV_xHLX1z2uqfpSFQ/o.jpg", "is_closed": false, "url": "https://www.yelp.com/biz/panda-express-benicia?adjust_creative=R39z9kjZ-1HrCCc7SW6pcw&utm_campaign=yelp_api_v3&utm_medium=api_v3_business_search&utm_source=R39z9kjZ-1HrCCc7SW6pcw", "review_count": 94, "categories": [{"alias": "hotdogs", "title": "Fast Food"}, {"alias": "chinese", "title": "Chinese"}], "rating": 2.5, "coordinates": {"latitude": 38.0663955729314, "longitude": -122.164665833027}, "transactions": [], "price": "$", "location": {"address1": "804 Southampton Rd", "address2": "", "address3": "", "city": "Benicia", "zip_code": "94510", "country": "US", "state": "CA", "display_address": ["804 Southampton Rd", "Benicia, CA 94510"]}, "phone": "+17077453763", "display_phone": "(707) 745-3763", "distance": 953.89811428072}, {"id": "o0W4mx5cLAJzC8N7tuVz6A", "alias": "taco-bell-benicia", "name": "Taco Bell", "image_url": "https://s3-media4.fl.yelpcdn.com/bphoto/AzBB98xBfYFhuU4mYUgEqw/o.jpg", "is_closed": false, "url": "https://www.yelp.com/biz/taco-bell-benicia?adjust_creative=R39z9kjZ-1HrCCc7SW6pcw&utm_campaign=yelp_api_v3&utm_medium=api_v3_business_search&utm_source=R39z9kjZ-1HrCCc7SW6pcw", "review_count": 132, "categories": [{"alias": "hotdogs", "title": "Fast Food"}, {"alias": "tacos", "title": "Tacos"}], "rating": 1.5, "coordinates": {"latitude": 38.058897471024, "longitude": -122.167158074786}, "transactions": ["delivery"], "price": "$", "location": {"address1": "700 Military West", "address2": "", "address3": "", "city": "Benicia", "zip_code": "94510", "country": "US", "state": "CA", "display_address": ["700 Military West", "Benicia, CA 94510"]}, "phone": "+17077510877", "display_phone": "(707) 751-0877", "distance": 1351.3460056189176}, {"id": "vJO6e1QRV94SeognNxK5LA", "alias": "diannas-bakery-cafe-and-deli-benicia", "name": "Dianna's Bakery Cafe and Deli", "image_url": "https://s3-media1.fl.yelpcdn.com/bphoto/1wB0LD6gMVyS6p09Q2vFVQ/o.jpg", "is_closed": false, "url": "https://www.yelp.com/biz/diannas-bakery-cafe-and-deli-benicia?adjust_creative=R39z9kjZ-1HrCCc7SW6pcw&utm_campaign=yelp_api_v3&utm_medium=api_v3_business_search&utm_source=R39z9kjZ-1HrCCc7SW6pcw", "review_count": 147, "categories": [{"alias": "bakeries", "title": "Bakeries"}, {"alias": "breakfast_brunch", "title": "Breakfast & Brunch"}, {"alias": "coffee", "title": "Coffee & Tea"}], "rating": 3.0, "coordinates": {"latitude": 38.0497512232432, "longitude": -122.158725139251}, "transactions": ["pickup", "delivery"], "price": "$$", "location": {"address1": "639 1st St", "address2": null, "address3": "", "city": "Benicia", "zip_code": "94510", "country": "US", "state": "CA", "display_address": ["639 1st St", "Benicia, CA 94510"]}, "phone": "+17072976186", "display_phone": "(707) 297-6186", "distance": 1759.537623119714}, {"id": "SeQtatxP5BrPJ8tSvh1ZwQ", "alias": "mcdonalds-benicia", "name": "McDonald's", "image_url": "https://s3-media2.fl.yelpcdn.com/bphoto/auUK5JRu5WIgNgaJDH3QTQ/o.jpg", "is_closed": false, "url": "https://www.yelp.com/biz/mcdonalds-benicia?adjust_creative=R39z9kjZ-1HrCCc7SW6pcw&utm_campaign=yelp_api_v3&utm_medium=api_v3_business_search&utm_source=R39z9kjZ-1HrCCc7SW6pcw", "review_count": 43, "categories": [{"alias": "hotdogs", "title": "Fast Food"}, {"alias": "burgers", "title": "Burgers"}, {"alias": "coffee", "title": "Coffee & Tea"}], "rating": 2.0, "coordinates": {"latitude": 38.0562426859822, "longitude": -122.150737415075}, "transactions": [], "price": "$", "location": {"address1": "1602 E 2nd St", "address2": "", "address3": "", "city": "Benicia", "zip_code": "94510", "country": "US", "state": "CA", "display_address": ["1602 E 2nd St", "Benicia, CA 94510"]}, "phone": "+17077456340", "display_phone": "(707) 745-6340", "distance": 1024.0489253219093}, {"id": "z1vbT9M0Ckct2_3A1FDJDw", "alias": "burger-king-benicia", "name": "Burger King", "image_url": "https://s3-media1.fl.yelpcdn.com/bphoto/_AJYrsSmvnNfpixZWioABw/o.jpg", "is_closed": false, "url": "https://www.yelp.com/biz/burger-king-benicia?adjust_creative=R39z9kjZ-1HrCCc7SW6pcw&utm_campaign=yelp_api_v3&utm_medium=api_v3_business_search&utm_source=R39z9kjZ-1HrCCc7SW6pcw", "review_count": 20, "categories": [{"alias": "burgers", "title": "Burgers"}, {"alias": "hotdogs", "title": "Fast Food"}], "rating": 2.5, "coordinates": {"latitude": 38.0670261, "longitude": -122.167646}, "transactions": [], "price": "$", "location": {"address1": "828 Southampton Rd", "address2": "", "address3": "", "city": "Benicia", "zip_code": "94510", "country": "US", "state": "CA", "display_address": ["828 Southampton Rd", "Benicia, CA 94510"]}, "phone": "+17077456685", "display_phone": "(707) 745-6685", "distance": 1034.801481093176}, {"id": "yCp6qhiGFG95PAvEWcEd4A", "alias": "subway-restaurants-benicia-3", "name": "Subway Restaurants", "image_url": "https://s3-media2.fl.yelpcdn.com/bphoto/mmt2l15A66k5EbwIcaZD1Q/o.jpg", "is_closed": false, "url": "https://www.yelp.com/biz/subway-restaurants-benicia-3?adjust_creative=R39z9kjZ-1HrCCc7SW6pcw&utm_campaign=yelp_api_v3&utm_medium=api_v3_business_search&utm_source=R39z9kjZ-1HrCCc7SW6pcw", "review_count": 17, "categories": [{"alias": "sandwiches", "title": "Sandwiches"}], "rating": 2.0, "coordinates": {"latitude": 38.066571, "longitude": -122.166013}, "transactions": [], "price": "$", "location": {"address1": "836 Hampton Ctr S", "address2": "Ste D", "address3": "", "city": "Benicia", "zip_code": "94510", "country": "US", "state": "CA", "display_address": ["836 Hampton Ctr S", "Ste D", "Benicia, CA 94510"]}, "phone": "+17077470532", "display_phone": "(707) 747-0532", "distance": 1073.425844381409}, {"id": "b7HqAL_aJU4jN7t46ajaqg", "alias": "subway-restaurants-benicia", "name": "Subway Restaurants", "image_url": "https://s3-media1.fl.yelpcdn.com/bphoto/BMtZNGUO9dVF2Wczjt1emg/o.jpg", "is_closed": false, "url": "https://www.yelp.com/biz/subway-restaurants-benicia?adjust_creative=R39z9kjZ-1HrCCc7SW6pcw&utm_campaign=yelp_api_v3&utm_medium=api_v3_business_search&utm_source=R39z9kjZ-1HrCCc7SW6pcw", "review_count": 18, "categories": [{"alias": "sandwiches", "title": "Sandwiches"}], "rating": 3.0, "coordinates": {"latitude": 38.0542449951172, "longitude": -122.153205871582}, "transactions": [], "price": "$", "location": {"address1": "1371 E. Second Street", "address2": "", "address3": "", "city": "Benicia", "zip_code": "94510", "country": "US", "state": "CA", "display_address": ["1371 E. Second Street", "Benicia, CA 94510"]}, "phone": "+17077453018", "display_phone": "(707) 745-3018", "distance": 1209.717454573122}, {"id": "UgpER14Qy4CiwlxC5ZwsqA", "alias": "la-cuchara-de-do\u00f1a-rosa-vallejo", "name": "La cuchara de Do\u00f1a Rosa", "image_url": "https://s3-media3.fl.yelpcdn.com/bphoto/IlLx-PG3Jt6VZBcxToYRng/o.jpg", "is_closed": false, "url": "https://www.yelp.com/biz/la-cuchara-de-do%C3%B1a-rosa-vallejo?adjust_creative=R39z9kjZ-1HrCCc7SW6pcw&utm_campaign=yelp_api_v3&utm_medium=api_v3_business_search&utm_source=R39z9kjZ-1HrCCc7SW6pcw", "review_count": 14, "categories": [{"alias": "foodtrucks", "title": "Food Trucks"}, {"alias": "tacos", "title": "Tacos"}], "rating": 4.0, "coordinates": {"latitude": 38.115436, "longitude": -122.2541558}, "transactions": ["delivery", "pickup"], "price": "$$", "location": {"address1": "105 Couch St", "address2": "", "address3": null, "city": "Vallejo", "zip_code": "94590", "country": "US", "state": "CA", "display_address": ["105 Couch St", "Vallejo, CA 94590"]}, "phone": "+15103138892", "display_phone": "(510) 313-8892", "distance": 10407.024750348819}, {"id": "RsgxKM4y5V_po23Iy3lTww", "alias": "fiya-spice-caribbean-pittsburg", "name": "Fiya Spice Caribbean", "image_url": "https://s3-media1.fl.yelpcdn.com/bphoto/7NBUdJXMLVWdJqIumy-GBg/o.jpg", "is_closed": false, "url": "https://www.yelp.com/biz/fiya-spice-caribbean-pittsburg?adjust_creative=R39z9kjZ-1HrCCc7SW6pcw&utm_campaign=yelp_api_v3&utm_medium=api_v3_business_search&utm_source=R39z9kjZ-1HrCCc7SW6pcw", "review_count": 1, "categories": [{"alias": "foodtrucks", "title": "Food Trucks"}, {"alias": "caribbean", "title": "Caribbean"}, {"alias": "catering", "title": "Caterers"}], "rating": 5.0, "coordinates": {"latitude": 38.011279, "longitude": -121.876098}, "transactions": [], "location": {"address1": "", "address2": null, "address3": "", "city": "Pittsburg", "zip_code": "94565", "country": "US", "state": "CA", "display_address": ["Pittsburg, CA 94565"]}, "phone": "+15106863325", "display_phone": "(510) 686-3325", "distance": 25053.97411237785}, {"id": "CUwBAy6lrFi4x6Neu9eRVw", "alias": "mini-street-burger-alameda-3", "name": "Mini Street Burger", "image_url": "https://s3-media2.fl.yelpcdn.com/bphoto/Kh-OQKBIclWY1dCeIuu57w/o.jpg", "is_closed": false, "url": "https://www.yelp.com/biz/mini-street-burger-alameda-3?adjust_creative=R39z9kjZ-1HrCCc7SW6pcw&utm_campaign=yelp_api_v3&utm_medium=api_v3_business_search&utm_source=R39z9kjZ-1HrCCc7SW6pcw", "review_count": 28, "categories": [{"alias": "foodtrucks", "title": "Food Trucks"}, {"alias": "burgers", "title": "Burgers"}], "rating": 4.0, "coordinates": {"latitude": 37.82628, "longitude": -122.25101}, "transactions": [], "location": {"address1": null, "address2": null, "address3": null, "city": "Alameda", "zip_code": "94611", "country": "US", "state": "CA", "display_address": ["Alameda, CA 94611"]}, "phone": "+15108278982", "display_phone": "(510) 827-8982", "distance": 26097.10492130239}, {"id": "i6ZwMjYIbmFZ8EGYz6x5Bw", "alias": "phat-salads-and-wraps-napa", "name": "Phat Salads and Wraps", "image_url": "https://s3-media2.fl.yelpcdn.com/bphoto/FbrUwtrVIx2cLXiPdBhHkw/o.jpg", "is_closed": false, "url": "https://www.yelp.com/biz/phat-salads-and-wraps-napa?adjust_creative=R39z9kjZ-1HrCCc7SW6pcw&utm_campaign=yelp_api_v3&utm_medium=api_v3_business_search&utm_source=R39z9kjZ-1HrCCc7SW6pcw", "review_count": 48, "categories": [{"alias": "foodtrucks", "title": "Food Trucks"}, {"alias": "wraps", "title": "Wraps"}], "rating": 4.0, "coordinates": {"latitude": 38.3234491, "longitude": -122.3023962}, "transactions": [], "price": "$", "location": {"address1": "", "address2": "", "address3": "", "city": "Napa", "zip_code": "94558", "country": "US", "state": "CA", "display_address": ["Napa, CA 94558"]}, "phone": "+17073639658", "display_phone": "(707) 363-9658", "distance": 31521.372737931615}, {"id": "jCcAuXhCpeJP2n-8ol7mxg", "alias": "kolobok-russian-soul-food-truck-oakland", "name": "Kolobok Russian Soul Food Truck", "image_url": "https://s3-media1.fl.yelpcdn.com/bphoto/k8s1Bfc05Iw7SJXE6VJ74Q/o.jpg", "is_closed": false, "url": "https://www.yelp.com/biz/kolobok-russian-soul-food-truck-oakland?adjust_creative=R39z9kjZ-1HrCCc7SW6pcw&utm_campaign=yelp_api_v3&utm_medium=api_v3_business_search&utm_source=R39z9kjZ-1HrCCc7SW6pcw", "review_count": 47, "categories": [{"alias": "foodtrucks", "title": "Food Trucks"}, {"alias": "russian", "title": "Russian"}], "rating": 4.5, "coordinates": {"latitude": 37.7883087690458, "longitude": -122.309032460882}, "transactions": [], "price": "$$", "location": {"address1": null, "address2": null, "address3": "", "city": "Oakland", "zip_code": "94577", "country": "US", "state": "CA", "display_address": ["Oakland, CA 94577"]}, "phone": "+15105996542", "display_phone": "(510) 599-6542", "distance": 33652.67843811223}, {"id": "uuouQQIFQ1B9mkmcxaAKFA", "alias": "tacos-el-rey-oakland", "name": "Tacos El Rey", "image_url": "https://s3-media2.fl.yelpcdn.com/bphoto/DblyFrtT9uyPCQAUfPbYbQ/o.jpg", "is_closed": false, "url": "https://www.yelp.com/biz/tacos-el-rey-oakland?adjust_creative=R39z9kjZ-1HrCCc7SW6pcw&utm_campaign=yelp_api_v3&utm_medium=api_v3_business_search&utm_source=R39z9kjZ-1HrCCc7SW6pcw", "review_count": 9, "categories": [{"alias": "foodtrucks", "title": "Food Trucks"}, {"alias": "mexican", "title": "Mexican"}], "rating": 4.0, "coordinates": {"latitude": 37.8294034, "longitude": -122.2875758}, "transactions": [], "price": "$", "location": {"address1": "40th & Horton", "address2": "", "address3": null, "city": "Oakland", "zip_code": "94608", "country": "US", "state": "CA", "display_address": ["40th & Horton", "Oakland, CA 94608"]}, "phone": "+15108130232", "display_phone": "(510) 813-0232", "distance": 28711.356975487648}, {"id": "rM6pPB_qmQ3de5yGpfLT1g", "alias": "lomo-libre-san-francisco-2", "name": "Lomo Libre", "image_url": "https://s3-media1.fl.yelpcdn.com/bphoto/vjnO-EUjFHKoLMy2_JQYvg/o.jpg", "is_closed": false, "url": "https://www.yelp.com/biz/lomo-libre-san-francisco-2?adjust_creative=R39z9kjZ-1HrCCc7SW6pcw&utm_campaign=yelp_api_v3&utm_medium=api_v3_business_search&utm_source=R39z9kjZ-1HrCCc7SW6pcw", "review_count": 8, "categories": [{"alias": "foodtrucks", "title": "Food Trucks"}, {"alias": "peruvian", "title": "Peruvian"}], "rating": 5.0, "coordinates": {"latitude": 37.799634, "longitude": -122.436301}, "transactions": [], "location": {"address1": "2101 Lombard St", "address2": "", "address3": null, "city": "San Francisco", "zip_code": "94123", "country": "US", "state": "CA", "display_address": ["2101 Lombard St", "San Francisco, CA 94123"]}, "phone": "+14156198149", "display_phone": "(415) 619-8149", "distance": 38533.99870263335}, {"id": "C8QSWh3j0xkXwiWC8h-7ag", "alias": "three-amigos-market-and-deli-oakland", "name": "Three Amigos Market & Deli", "image_url": "https://s3-media1.fl.yelpcdn.com/bphoto/B4LNxfyWsiyHibJqkrK1gQ/o.jpg", "is_closed": false, "url": "https://www.yelp.com/biz/three-amigos-market-and-deli-oakland?adjust_creative=R39z9kjZ-1HrCCc7SW6pcw&utm_campaign=yelp_api_v3&utm_medium=api_v3_business_search&utm_source=R39z9kjZ-1HrCCc7SW6pcw", "review_count": 9, "categories": [{"alias": "grocery", "title": "Grocery"}, {"alias": "sandwiches", "title": "Sandwiches"}, {"alias": "delis", "title": "Delis"}], "rating": 4.5, "coordinates": {"latitude": 37.791048, "longitude": -122.245431}, "transactions": [], "price": "$", "location": {"address1": "1554 13th Ave", "address2": "", "address3": "", "city": "Oakland", "zip_code": "94606", "country": "US", "state": "CA", "display_address": ["1554 13th Ave", "Oakland, CA 94606"]}, "phone": "+15102612353", "display_phone": "(510) 261-2353", "distance": 31514.226728547274}, {"id": "xomxVUXe8Sy5R2nt7qBxxg", "alias": "fired-mobile-pizza-oven-stockton", "name": "FIRED Mobile Pizza Oven", "image_url": "https://s3-media4.fl.yelpcdn.com/bphoto/JV4MGBFFrJGZQbmtdoOLFQ/o.jpg", "is_closed": false, "url": "https://www.yelp.com/biz/fired-mobile-pizza-oven-stockton?adjust_creative=R39z9kjZ-1HrCCc7SW6pcw&utm_campaign=yelp_api_v3&utm_medium=api_v3_business_search&utm_source=R39z9kjZ-1HrCCc7SW6pcw", "review_count": 8, "categories": [{"alias": "pizza", "title": "Pizza"}, {"alias": "catering", "title": "Caterers"}, {"alias": "foodtrucks", "title": "Food Trucks"}], "rating": 5.0, "coordinates": {"latitude": 38.0521138, "longitude": -121.3484448}, "transactions": [], "location": {"address1": null, "address2": null, "address3": "", "city": "Stockton", "zip_code": "95209", "country": "US", "state": "CA", "display_address": ["Stockton, CA 95209"]}, "phone": "+12092424105", "display_phone": "(209) 242-4105", "distance": 70533.64694776444}, {"id": "DC42MrpWtqEeWRmMsn6Z8w", "alias": "the-everest-momo-fremont-2", "name": "The Everest Momo", "image_url": "https://s3-media2.fl.yelpcdn.com/bphoto/T2f7tUQ1c104otx9oSdqYw/o.jpg", "is_closed": false, "url": "https://www.yelp.com/biz/the-everest-momo-fremont-2?adjust_creative=R39z9kjZ-1HrCCc7SW6pcw&utm_campaign=yelp_api_v3&utm_medium=api_v3_business_search&utm_source=R39z9kjZ-1HrCCc7SW6pcw", "review_count": 23, "categories": [{"alias": "foodtrucks", "title": "Food Trucks"}, {"alias": "indpak", "title": "Indian"}, {"alias": "himalayan", "title": "Himalayan/Nepalese"}], "rating": 4.5, "coordinates": {"latitude": 37.54643, "longitude": -121.98512}, "transactions": [], "price": "$", "location": {"address1": "39233 Fremont Blvd", "address2": null, "address3": null, "city": "Fremont", "zip_code": "94538", "country": "US", "state": "CA", "display_address": ["39233 Fremont Blvd", "Fremont, CA 94538"]}, "phone": "+14088406369", "display_phone": "(408) 840-6369", "distance": 59542.50627286174}, {"id": "XTJJ_PUQoJKIh31ZIzsFzw", "alias": "cochinita-food-truck-san-francisco-6", "name": "Cochinita Food Truck", "image_url": "https://s3-media2.fl.yelpcdn.com/bphoto/w77SOd2jVJjOh1lwuYQ42w/o.jpg", "is_closed": false, "url": "https://www.yelp.com/biz/cochinita-food-truck-san-francisco-6?adjust_creative=R39z9kjZ-1HrCCc7SW6pcw&utm_campaign=yelp_api_v3&utm_medium=api_v3_business_search&utm_source=R39z9kjZ-1HrCCc7SW6pcw", "review_count": 49, "categories": [{"alias": "foodtrucks", "title": "Food Trucks"}, {"alias": "mexican", "title": "Mexican"}], "rating": 4.5, "coordinates": {"latitude": 37.770753, "longitude": -122.3916722}, "transactions": [], "price": "$", "location": {"address1": "601 Mission Blvd N", "address2": null, "address3": "", "city": "San Francisco", "zip_code": "94103", "country": "US", "state": "CA", "display_address": ["601 Mission Blvd N", "San Francisco, CA 94103"]}, "phone": "+14159883663", "display_phone": "(415) 988-3663", "distance": 38812.15677034016}, {"id": "jW66693LVPlyDtzAoeb7KQ", "alias": "travelin-joe-espresso-berkeley", "name": "Travelin Joe Espresso", "image_url": "https://s3-media2.fl.yelpcdn.com/bphoto/XiqMQnnnbGe4g2SzU4Wm-A/o.jpg", "is_closed": false, "url": "https://www.yelp.com/biz/travelin-joe-espresso-berkeley?adjust_creative=R39z9kjZ-1HrCCc7SW6pcw&utm_campaign=yelp_api_v3&utm_medium=api_v3_business_search&utm_source=R39z9kjZ-1HrCCc7SW6pcw", "review_count": 33, "categories": [{"alias": "coffee", "title": "Coffee & Tea"}, {"alias": "foodstands", "title": "Food Stands"}, {"alias": "waffles", "title": "Waffles"}], "rating": 4.5, "coordinates": {"latitude": 37.85571, "longitude": -122.2893}, "transactions": [], "price": "$$", "location": {"address1": "1016 Grayson St", "address2": "", "address3": "", "city": "Berkeley", "zip_code": "94710", "country": "US", "state": "CA", "display_address": ["1016 Grayson St", "Berkeley, CA 94710"]}, "phone": "+15109197279", "display_phone": "(510) 919-7279", "distance": 26133.37961527611}, {"id": "lgheXsHqe66AEZwoPDIEpw", "alias": "taco-coma-newark", "name": "Taco Coma", "image_url": "https://s3-media3.fl.yelpcdn.com/bphoto/DDz5lZDL5lDiRR_Ph0L4Sg/o.jpg", "is_closed": false, "url": "https://www.yelp.com/biz/taco-coma-newark?adjust_creative=R39z9kjZ-1HrCCc7SW6pcw&utm_campaign=yelp_api_v3&utm_medium=api_v3_business_search&utm_source=R39z9kjZ-1HrCCc7SW6pcw", "review_count": 3, "categories": [{"alias": "foodstands", "title": "Food Stands"}, {"alias": "tacos", "title": "Tacos"}], "rating": 5.0, "coordinates": {"latitude": 37.53453, "longitude": -122.03284}, "transactions": [], "location": {"address1": "", "address2": null, "address3": "", "city": "Newark", "zip_code": "94560", "country": "US", "state": "CA", "display_address": ["Newark, CA 94560"]}, "phone": "+15106971448", "display_phone": "(510) 697-1448", "distance": 60363.25591360252}, {"id": "sR0Wy3LYGdYV9HLszRlMmw", "alias": "tacos-la-palmita-stockton", "name": "Tacos La Palmita", "image_url": "https://s3-media2.fl.yelpcdn.com/bphoto/pzYoRmZjUQqxZ7qOyU7hUQ/o.jpg", "is_closed": false, "url": "https://www.yelp.com/biz/tacos-la-palmita-stockton?adjust_creative=R39z9kjZ-1HrCCc7SW6pcw&utm_campaign=yelp_api_v3&utm_medium=api_v3_business_search&utm_source=R39z9kjZ-1HrCCc7SW6pcw", "review_count": 90, "categories": [{"alias": "tacos", "title": "Tacos"}, {"alias": "foodtrucks", "title": "Food Trucks"}], "rating": 4.5, "coordinates": {"latitude": 38.008129, "longitude": -121.320219}, "transactions": ["pickup", "delivery"], "price": "$", "location": {"address1": "6393 Pacific Ave", "address2": null, "address3": null, "city": "Stockton", "zip_code": "95207", "country": "US", "state": "CA", "display_address": ["6393 Pacific Ave", "Stockton, CA 95207"]}, "phone": "+12093026825", "display_phone": "(209) 302-6825", "distance": 73286.39165041811}, {"id": "8SNGFcMWZkvS4GWDUL8w1Q", "alias": "noon-o-kabob-san-jose-4", "name": "Noon O Kabob", "image_url": "https://s3-media2.fl.yelpcdn.com/bphoto/5GmY5FRw0m0XEWC5XXbVlA/o.jpg", "is_closed": false, "url": "https://www.yelp.com/biz/noon-o-kabob-san-jose-4?adjust_creative=R39z9kjZ-1HrCCc7SW6pcw&utm_campaign=yelp_api_v3&utm_medium=api_v3_business_search&utm_source=R39z9kjZ-1HrCCc7SW6pcw", "review_count": 29, "categories": [{"alias": "foodtrucks", "title": "Food Trucks"}, {"alias": "kebab", "title": "Kebab"}, {"alias": "persian", "title": "Persian/Iranian"}], "rating": 4.5, "coordinates": {"latitude": 37.3940232, "longitude": -122.0288052}, "transactions": [], "price": "$$", "location": {"address1": null, "address2": null, "address3": null, "city": "San Jose", "zip_code": "95101", "country": "US", "state": "CA", "display_address": ["San Jose, CA 95101"]}, "phone": "+14083346777", "display_phone": "(408) 334-6777", "distance": 75427.94565218805}, {"id": "4HaUjRfwmHUOoFAeKi84dw", "alias": "mudville-mcs-stockton", "name": "Mudville Mc's", "image_url": "https://s3-media4.fl.yelpcdn.com/bphoto/yOlLV3w6yY7iPmRFJQbA5A/o.jpg", "is_closed": false, "url": "https://www.yelp.com/biz/mudville-mcs-stockton?adjust_creative=R39z9kjZ-1HrCCc7SW6pcw&utm_campaign=yelp_api_v3&utm_medium=api_v3_business_search&utm_source=R39z9kjZ-1HrCCc7SW6pcw", "review_count": 3, "categories": [{"alias": "foodtrucks", "title": "Food Trucks"}, {"alias": "soulfood", "title": "Soul Food"}, {"alias": "spanish", "title": "Spanish"}], "rating": 3.0, "coordinates": {"latitude": 37.9772033691406, "longitude": -121.298080444336}, "transactions": [], "location": {"address1": "", "address2": "", "address3": "", "city": "Stockton", "zip_code": "95204", "country": "US", "state": "CA", "display_address": ["Stockton, CA 95204"]}, "phone": "+16572294627", "display_phone": "(657) 229-4627", "distance": 73284.10356233171}, {"id": "SbjAjfh2riT7rWxo2OITJA", "alias": "candies-kitchen-sacramento", "name": "Candies Kitchen", "image_url": "https://s3-media1.fl.yelpcdn.com/bphoto/wZehoZn9-gQLuWPX4QIOLA/o.jpg", "is_closed": false, "url": "https://www.yelp.com/biz/candies-kitchen-sacramento?adjust_creative=R39z9kjZ-1HrCCc7SW6pcw&utm_campaign=yelp_api_v3&utm_medium=api_v3_business_search&utm_source=R39z9kjZ-1HrCCc7SW6pcw", "review_count": 2, "categories": [{"alias": "cajun", "title": "Cajun/Creole"}, {"alias": "soulfood", "title": "Soul Food"}, {"alias": "foodtrucks", "title": "Food Trucks"}], "rating": 3.5, "coordinates": {"latitude": 38.59429, "longitude": -121.48536}, "transactions": [], "location": {"address1": "1100 Richards Blvd", "address2": null, "address3": "", "city": "Sacramento", "zip_code": "95811", "country": "US", "state": "CA", "display_address": ["1100 Richards Blvd", "Sacramento, CA 95811"]}, "phone": "+19164399922", "display_phone": "(916) 439-9922", "distance": 82849.7234065134}, {"id": "Mij1ZvLLpqvNmJFWNz9IsQ", "alias": "paquitas-mexican-grill-sacramento-2", "name": "Paquitas Mexican Grill", "image_url": "https://s3-media2.fl.yelpcdn.com/bphoto/Onav96dKMe8cWeFXMNFcyQ/o.jpg", "is_closed": false, "url": "https://www.yelp.com/biz/paquitas-mexican-grill-sacramento-2?adjust_creative=R39z9kjZ-1HrCCc7SW6pcw&utm_campaign=yelp_api_v3&utm_medium=api_v3_business_search&utm_source=R39z9kjZ-1HrCCc7SW6pcw", "review_count": 73, "categories": [{"alias": "foodtrucks", "title": "Food Trucks"}, {"alias": "mexican", "title": "Mexican"}], "rating": 4.0, "coordinates": {"latitude": 38.549732, "longitude": -121.406281}, "transactions": [], "price": "$", "location": {"address1": "49 Bicentennial Cir", "address2": null, "address3": "", "city": "Sacramento", "zip_code": "95826", "country": "US", "state": "CA", "display_address": ["49 Bicentennial Cir", "Sacramento, CA 95826"]}, "phone": "+15308484666", "display_phone": "(530) 848-4666", "distance": 84610.81398808218}, {"id": "7ETh5878KSnGQnLxLE_yaQ", "alias": "gyrostop-sacramento", "name": "GyroStop", "image_url": "https://s3-media1.fl.yelpcdn.com/bphoto/xQsct4YKnW0qSJOmK_gsxw/o.jpg", "is_closed": false, "url": "https://www.yelp.com/biz/gyrostop-sacramento?adjust_creative=R39z9kjZ-1HrCCc7SW6pcw&utm_campaign=yelp_api_v3&utm_medium=api_v3_business_search&utm_source=R39z9kjZ-1HrCCc7SW6pcw", "review_count": 74, "categories": [{"alias": "mediterranean", "title": "Mediterranean"}, {"alias": "foodtrucks", "title": "Food Trucks"}], "rating": 4.0, "coordinates": {"latitude": 38.6621589660645, "longitude": -121.336738586426}, "transactions": [], "price": "$$", "location": {"address1": "", "address2": "", "address3": "", "city": "Sacramento", "zip_code": "95841", "country": "US", "state": "CA", "display_address": ["Sacramento, CA 95841"]}, "phone": "+19163044976", "display_phone": "(916) 304-4976", "distance": 96583.76884293994}, {"id": "C9uewBH5505NV0EWYBIJAA", "alias": "lady-and-l-aperitivo-san-jose", "name": "Lady & L'Aperitivo", "image_url": "https://s3-media4.fl.yelpcdn.com/bphoto/3nz0sRE9MlOq_4xVRQRt9w/o.jpg", "is_closed": false, "url": "https://www.yelp.com/biz/lady-and-l-aperitivo-san-jose?adjust_creative=R39z9kjZ-1HrCCc7SW6pcw&utm_campaign=yelp_api_v3&utm_medium=api_v3_business_search&utm_source=R39z9kjZ-1HrCCc7SW6pcw", "review_count": 1, "categories": [{"alias": "bakeries", "title": "Bakeries"}, {"alias": "desserts", "title": "Desserts"}, {"alias": "cheesesteaks", "title": "Cheesesteaks"}], "rating": 5.0, "coordinates": {"latitude": 37.2208938598633, "longitude": -121.861633300781}, "transactions": [], "location": {"address1": null, "address2": null, "address3": "", "city": "San Jose", "zip_code": "95120", "country": "US", "state": "CA", "display_address": ["San Jose, CA 95120"]}, "phone": "", "display_phone": "", "distance": 103217.99861016682}]}