{"location": "Brisbane, CA", "term": "restaurant", "radius": 1596, "businesses": [{"id": "wSsuLcdgXat_g69PswYWxw", "alias": "ichika-sushi-house-brisbane", "name": "Ichika Sushi House", "image_url": "https://s3-media2.fl.yelpcdn.com/bphoto/raoX65C3QsLdUZuDk_BrUQ/o.jpg", "is_closed": false, "url": "https://www.yelp.com/biz/ichika-sushi-house-brisbane?adjust_creative=R39z9kjZ-1HrCCc7SW6pcw&utm_campaign=yelp_api_v3&utm_medium=api_v3_business_search&utm_source=R39z9kjZ-1HrCCc7SW6pcw", "review_count": 198, "categories": [{"alias": "sushi", "title": "Sushi Bars"}, {"alias": "ramen", "title": "Ramen"}, {"alias": "japacurry", "title": "Japanese Curry"}], "rating": 4.5, "coordinates": {"latitude": 37.6859500052105, "longitude": -122.399458607462}, "transactions": [], "price": "$$", "location": {"address1": "118 Old County Rd", "address2": null, "address3": "", "city": "Brisbane", "zip_code": "94005", "country": "US", "state": "CA", "display_address": ["118 Old County Rd", "Brisbane, CA 94005"]}, "phone": "+14158255790", "display_phone": "(415) 825-5790", "distance": 330.8218788330697}, {"id": "Zo9QI6EcLDl_4T6_s7Hy-A", "alias": "brisbane-lunch-truck-brisbane", "name": "Brisbane Lunch Truck", "image_url": "https://s3-media4.fl.yelpcdn.com/bphoto/oUb1vaTWvAv0Mdfp3nfKTw/o.jpg", "is_closed": false, "url": "https://www.yelp.com/biz/brisbane-lunch-truck-brisbane?adjust_creative=R39z9kjZ-1HrCCc7SW6pcw&utm_campaign=yelp_api_v3&utm_medium=api_v3_business_search&utm_source=R39z9kjZ-1HrCCc7SW6pcw", "review_count": 11, "categories": [{"alias": "foodtrucks", "title": "Food Trucks"}, {"alias": "comfortfood", "title": "Comfort Food"}], "rating": 5.0, "coordinates": {"latitude": 37.6852672, "longitude": -122.3975662}, "transactions": [], "location": {"address1": "3501 Bayshore Blvd", "address2": null, "address3": "", "city": "Brisbane", "zip_code": "94005", "country": "US", "state": "CA", "display_address": ["3501 Bayshore Blvd", "Brisbane, CA 94005"]}, "phone": "+14156606320", "display_phone": "(415) 660-6320", "distance": 510.7274682459674}, {"id": "SWaPo-ndcw3CzxXrnaiKXg", "alias": "round-n-round-pot-brisbane", "name": "Round N Round Pot", "image_url": "https://s3-media4.fl.yelpcdn.com/bphoto/WN-aGqZuYAKNz6jEQh4nLQ/o.jpg", "is_closed": false, "url": "https://www.yelp.com/biz/round-n-round-pot-brisbane?adjust_creative=R39z9kjZ-1HrCCc7SW6pcw&utm_campaign=yelp_api_v3&utm_medium=api_v3_business_search&utm_source=R39z9kjZ-1HrCCc7SW6pcw", "review_count": 172, "categories": [{"alias": "hotpot", "title": "Hot Pot"}, {"alias": "seafood", "title": "Seafood"}], "rating": 4.0, "coordinates": {"latitude": 37.68563, "longitude": -122.40113}, "transactions": [], "price": "$$", "location": {"address1": "182 Old County Rd", "address2": null, "address3": "", "city": "Brisbane", "zip_code": "94005", "country": "US", "state": "CA", "display_address": ["182 Old County Rd", "Brisbane, CA 94005"]}, "phone": "+14157158419", "display_phone": "(415) 715-8419", "distance": 280.06320769602996}, {"id": "cBTzK6nOOEIt_In98CF0fA", "alias": "na-nas-kitchen-brisbane", "name": "Na Na's Kitchen", "image_url": "https://s3-media4.fl.yelpcdn.com/bphoto/WbtYxGibh54BOsx9Gz7oSQ/o.jpg", "is_closed": false, "url": "https://www.yelp.com/biz/na-nas-kitchen-brisbane?adjust_creative=R39z9kjZ-1HrCCc7SW6pcw&utm_campaign=yelp_api_v3&utm_medium=api_v3_business_search&utm_source=R39z9kjZ-1HrCCc7SW6pcw", "review_count": 167, "categories": [{"alias": "chinese", "title": "Chinese"}, {"alias": "asianfusion", "title": "Asian Fusion"}], "rating": 4.0, "coordinates": {"latitude": 37.68218, "longitude": -122.40344}, "transactions": ["pickup"], "price": "$$", "location": {"address1": "301 Visitacion Ave", "address2": "", "address3": "", "city": "Brisbane", "zip_code": "94005", "country": "US", "state": "CA", "display_address": ["301 Visitacion Ave", "Brisbane, CA 94005"]}, "phone": "+14154675370", "display_phone": "(415) 467-5370", "distance": 472.6421639194733}, {"id": "ythw7XHMLeaQX2aJw-wUOQ", "alias": "saigon-bbq-brisbane", "name": "Saigon BBQ", "image_url": "https://s3-media3.fl.yelpcdn.com/bphoto/hbAxGS6lqddR3T1pJUpuzg/o.jpg", "is_closed": false, "url": "https://www.yelp.com/biz/saigon-bbq-brisbane?adjust_creative=R39z9kjZ-1HrCCc7SW6pcw&utm_campaign=yelp_api_v3&utm_medium=api_v3_business_search&utm_source=R39z9kjZ-1HrCCc7SW6pcw", "review_count": 166, "categories": [{"alias": "vietnamese", "title": "Vietnamese"}, {"alias": "bbq", "title": "Barbeque"}], "rating": 3.5, "coordinates": {"latitude": 37.685394, "longitude": -122.400662}, "transactions": ["pickup"], "price": "$$", "location": {"address1": "140 Old County Rd", "address2": "", "address3": "", "city": "Brisbane", "zip_code": "94005", "country": "US", "state": "CA", "display_address": ["140 Old County Rd", "Brisbane, CA 94005"]}, "phone": "+14154681310", "display_phone": "(415) 468-1310", "distance": 252.62092329809477}, {"id": "42c0wtXFgNiOlv2pChZfuA", "alias": "teriyaki-house-brisbane", "name": "Teriyaki House", "image_url": "https://s3-media3.fl.yelpcdn.com/bphoto/LF1qgWvKkCh_0NjJNEj62Q/o.jpg", "is_closed": false, "url": "https://www.yelp.com/biz/teriyaki-house-brisbane?adjust_creative=R39z9kjZ-1HrCCc7SW6pcw&utm_campaign=yelp_api_v3&utm_medium=api_v3_business_search&utm_source=R39z9kjZ-1HrCCc7SW6pcw", "review_count": 124, "categories": [{"alias": "japanese", "title": "Japanese"}], "rating": 3.0, "coordinates": {"latitude": 37.6851709, "longitude": -122.4002087}, "transactions": ["pickup", "delivery"], "price": "$", "location": {"address1": "114 Old County Rd", "address2": null, "address3": "", "city": "Brisbane", "zip_code": "94005", "country": "US", "state": "CA", "display_address": ["114 Old County Rd", "Brisbane, CA 94005"]}, "phone": "+14153582271", "display_phone": "(415) 358-2271", "distance": 325.696350745765}, {"id": "lrmSPqGUtryI_Jb4CXBlOQ", "alias": "le-gourmet-brisbane", "name": "Le Gourmet", "image_url": "https://s3-media2.fl.yelpcdn.com/bphoto/3-wNNUz_ktQIdPkZ6ydkaA/o.jpg", "is_closed": false, "url": "https://www.yelp.com/biz/le-gourmet-brisbane?adjust_creative=R39z9kjZ-1HrCCc7SW6pcw&utm_campaign=yelp_api_v3&utm_medium=api_v3_business_search&utm_source=R39z9kjZ-1HrCCc7SW6pcw", "review_count": 24, "categories": [{"alias": "delis", "title": "Delis"}], "rating": 4.5, "coordinates": {"latitude": 37.6919555664062, "longitude": -122.40559387207}, "transactions": [], "price": "$", "location": {"address1": "150 N Hill Dr", "address2": "Ste 11", "address3": "", "city": "Brisbane", "zip_code": "94005", "country": "US", "state": "CA", "display_address": ["150 N Hill Dr", "Ste 11", "Brisbane, CA 94005"]}, "phone": "+14154687970", "display_phone": "(415) 468-7970", "distance": 631.5462464204436}, {"id": "Ze6vgTqp_NEHFD-09jfTLQ", "alias": "star-box-food-brisbane", "name": "Star Box Food", "image_url": "https://s3-media4.fl.yelpcdn.com/bphoto/eO6XJ_smPwBDlBdWOFhwew/o.jpg", "is_closed": false, "url": "https://www.yelp.com/biz/star-box-food-brisbane?adjust_creative=R39z9kjZ-1HrCCc7SW6pcw&utm_campaign=yelp_api_v3&utm_medium=api_v3_business_search&utm_source=R39z9kjZ-1HrCCc7SW6pcw", "review_count": 96, "categories": [{"alias": "french", "title": "French"}, {"alias": "catering", "title": "Caterers"}, {"alias": "sandwiches", "title": "Sandwiches"}], "rating": 4.0, "coordinates": {"latitude": 37.6839411, "longitude": -122.4026189}, "transactions": ["delivery"], "price": "$", "location": {"address1": "33 Visitacion Ave", "address2": "", "address3": "", "city": "Brisbane", "zip_code": "94005", "country": "US", "state": "CA", "display_address": ["33 Visitacion Ave", "Brisbane, CA 94005"]}, "phone": "+14154674663", "display_phone": "(415) 467-4663", "distance": 286.37351550304453}, {"id": "hTRpHK4GuJCwd056URbOng", "alias": "lucky-house-restaurant-brisbane", "name": "Lucky House Restaurant", "image_url": "https://s3-media2.fl.yelpcdn.com/bphoto/5i9w-fJPzUmVgkHAoDIUIA/o.jpg", "is_closed": false, "url": "https://www.yelp.com/biz/lucky-house-restaurant-brisbane?adjust_creative=R39z9kjZ-1HrCCc7SW6pcw&utm_campaign=yelp_api_v3&utm_medium=api_v3_business_search&utm_source=R39z9kjZ-1HrCCc7SW6pcw", "review_count": 60, "categories": [{"alias": "chinese", "title": "Chinese"}], "rating": 3.5, "coordinates": {"latitude": 37.68345, "longitude": -122.4034}, "transactions": [], "price": "$", "location": {"address1": "148 Visitacion Ave", "address2": "", "address3": "", "city": "Brisbane", "zip_code": "94005", "country": "US", "state": "CA", "display_address": ["148 Visitacion Ave", "Brisbane, CA 94005"]}, "phone": "+14154670836", "display_phone": "(415) 467-0836", "distance": 345.1034537633803}, {"id": "anBLkCcEtv5jNK6nJSxWiw", "alias": "daisys-taqueria-brisbane-2", "name": "Daisy's Taqueria", "image_url": "https://s3-media4.fl.yelpcdn.com/bphoto/XvAuQwtRI_tGfeNMJn6GlA/o.jpg", "is_closed": false, "url": "https://www.yelp.com/biz/daisys-taqueria-brisbane-2?adjust_creative=R39z9kjZ-1HrCCc7SW6pcw&utm_campaign=yelp_api_v3&utm_medium=api_v3_business_search&utm_source=R39z9kjZ-1HrCCc7SW6pcw", "review_count": 44, "categories": [{"alias": "mexican", "title": "Mexican"}], "rating": 4.0, "coordinates": {"latitude": 37.6853142678738, "longitude": -122.400760352612}, "transactions": ["delivery"], "price": "$", "location": {"address1": "142 Old County Rd", "address2": null, "address3": "", "city": "Brisbane", "zip_code": "94005", "country": "US", "state": "CA", "display_address": ["142 Old County Rd", "Brisbane, CA 94005"]}, "phone": "+14154676761", "display_phone": "(415) 467-6761", "distance": 267.6335866924149}, {"id": "f1wCrwF1ggcJQQogaFP1zQ", "alias": "melissas-taqueria-brisbane", "name": "Melissa's Taqueria", "image_url": "https://s3-media2.fl.yelpcdn.com/bphoto/o9LlIL6OJN2FvywYMET5SA/o.jpg", "is_closed": false, "url": "https://www.yelp.com/biz/melissas-taqueria-brisbane?adjust_creative=R39z9kjZ-1HrCCc7SW6pcw&utm_campaign=yelp_api_v3&utm_medium=api_v3_business_search&utm_source=R39z9kjZ-1HrCCc7SW6pcw", "review_count": 134, "categories": [{"alias": "mexican", "title": "Mexican"}, {"alias": "salad", "title": "Salad"}, {"alias": "breakfast_brunch", "title": "Breakfast & Brunch"}], "rating": 3.5, "coordinates": {"latitude": 37.68338, "longitude": -122.40343}, "transactions": ["pickup", "delivery"], "price": "$", "location": {"address1": "160 Visitacion Ave", "address2": "", "address3": "", "city": "Brisbane", "zip_code": "94005", "country": "US", "state": "CA", "display_address": ["160 Visitacion Ave", "Brisbane, CA 94005"]}, "phone": "+14156561369", "display_phone": "(415) 656-1369", "distance": 351.4379660767372}, {"id": "sPzrs5XTm8qXt4XnBZGeyA", "alias": "julies-brisbane-liquor-and-deli-brisbane-2", "name": "Julie's Brisbane Liquor & Deli", "image_url": "https://s3-media1.fl.yelpcdn.com/bphoto/PYoZH3Rp0T3f-iUshQ8PZA/o.jpg", "is_closed": false, "url": "https://www.yelp.com/biz/julies-brisbane-liquor-and-deli-brisbane-2?adjust_creative=R39z9kjZ-1HrCCc7SW6pcw&utm_campaign=yelp_api_v3&utm_medium=api_v3_business_search&utm_source=R39z9kjZ-1HrCCc7SW6pcw", "review_count": 109, "categories": [{"alias": "beer_and_wine", "title": "Beer, Wine & Spirits"}, {"alias": "burgers", "title": "Burgers"}, {"alias": "sandwiches", "title": "Sandwiches"}], "rating": 4.5, "coordinates": {"latitude": 37.68379, "longitude": -122.40259}, "transactions": ["pickup", "delivery"], "price": "$", "location": {"address1": "45 Visitacion Ave", "address2": "", "address3": "", "city": "Brisbane", "zip_code": "94005", "country": "US", "state": "CA", "display_address": ["45 Visitacion Ave", "Brisbane, CA 94005"]}, "phone": "+14154672161", "display_phone": "(415) 467-2161", "distance": 308.93221025833776}, {"id": "n-6o-ylamawkWq_fvA2lZA", "alias": "midtown-market-brisbane", "name": "Midtown Market", "image_url": "https://s3-media2.fl.yelpcdn.com/bphoto/hoeenoQ7BnlKf7UOg1XL9A/o.jpg", "is_closed": false, "url": "https://www.yelp.com/biz/midtown-market-brisbane?adjust_creative=R39z9kjZ-1HrCCc7SW6pcw&utm_campaign=yelp_api_v3&utm_medium=api_v3_business_search&utm_source=R39z9kjZ-1HrCCc7SW6pcw", "review_count": 26, "categories": [{"alias": "grocery", "title": "Grocery"}, {"alias": "meats", "title": "Meat Shops"}, {"alias": "delis", "title": "Delis"}], "rating": 3.0, "coordinates": {"latitude": 37.6826705932617, "longitude": -122.403190612793}, "transactions": [], "price": "$$$", "location": {"address1": "249 Visitacion Ave", "address2": "", "address3": "", "city": "Brisbane", "zip_code": "94005", "country": "US", "state": "CA", "display_address": ["249 Visitacion Ave", "Brisbane, CA 94005"]}, "phone": "+14154671424", "display_phone": "(415) 467-1424", "distance": 427.8799649909781}, {"id": "978OXAckmacKlNN_fzjdrA", "alias": "christys-donuts-and-ice-cream-brisbane", "name": "Christy's Donuts & Ice Cream", "image_url": "https://s3-media2.fl.yelpcdn.com/bphoto/7hXU38VlpzBbVOpkf_JC_w/o.jpg", "is_closed": false, "url": "https://www.yelp.com/biz/christys-donuts-and-ice-cream-brisbane?adjust_creative=R39z9kjZ-1HrCCc7SW6pcw&utm_campaign=yelp_api_v3&utm_medium=api_v3_business_search&utm_source=R39z9kjZ-1HrCCc7SW6pcw", "review_count": 40, "categories": [{"alias": "donuts", "title": "Donuts"}, {"alias": "icecream", "title": "Ice Cream & Frozen Yogurt"}, {"alias": "sandwiches", "title": "Sandwiches"}], "rating": 2.5, "coordinates": {"latitude": 37.6853596, "longitude": -122.4006743}, "transactions": [], "price": "$", "location": {"address1": "138 Old County Rd", "address2": "", "address3": "", "city": "Brisbane", "zip_code": "94005", "country": "US", "state": "CA", "display_address": ["138 Old County Rd", "Brisbane, CA 94005"]}, "phone": "+14153494727", "display_phone": "(415) 349-4727", "distance": 315.6067452837466}, {"id": "Oil9Uutn6DT3P4106u8YhQ", "alias": "mama-mia-pizza-brisbane", "name": "Mama Mia Pizza", "image_url": "https://s3-media3.fl.yelpcdn.com/bphoto/SSn2iVDBZTPcWKn8_ZnAMA/o.jpg", "is_closed": false, "url": "https://www.yelp.com/biz/mama-mia-pizza-brisbane?adjust_creative=R39z9kjZ-1HrCCc7SW6pcw&utm_campaign=yelp_api_v3&utm_medium=api_v3_business_search&utm_source=R39z9kjZ-1HrCCc7SW6pcw", "review_count": 125, "categories": [{"alias": "pizza", "title": "Pizza"}, {"alias": "burgers", "title": "Burgers"}, {"alias": "sandwiches", "title": "Sandwiches"}], "rating": 3.0, "coordinates": {"latitude": 37.6840001814807, "longitude": -122.402743773016}, "transactions": ["pickup", "delivery"], "price": "$$", "location": {"address1": "35 Visitacion Ave", "address2": "", "address3": "", "city": "Brisbane", "zip_code": "94005", "country": "US", "state": "CA", "display_address": ["35 Visitacion Ave", "Brisbane, CA 94005"]}, "phone": "+14154681032", "display_phone": "(415) 468-1032", "distance": 284.0067476359093}, {"id": "FfSVs7xbAcgR8xPLcV_O7Q", "alias": "subway-restaurants-brisbane", "name": "Subway Restaurants", "image_url": "https://s3-media4.fl.yelpcdn.com/bphoto/xmswU56XKh4vbweT_i9GsA/o.jpg", "is_closed": false, "url": "https://www.yelp.com/biz/subway-restaurants-brisbane?adjust_creative=R39z9kjZ-1HrCCc7SW6pcw&utm_campaign=yelp_api_v3&utm_medium=api_v3_business_search&utm_source=R39z9kjZ-1HrCCc7SW6pcw", "review_count": 35, "categories": [{"alias": "sandwiches", "title": "Sandwiches"}], "rating": 2.5, "coordinates": {"latitude": 37.685746, "longitude": -122.399939}, "transactions": [], "price": "$", "location": {"address1": "150 Old County Rd", "address2": "", "address3": "", "city": "Brisbane", "zip_code": "94005", "country": "US", "state": "CA", "display_address": ["150 Old County Rd", "Brisbane, CA 94005"]}, "phone": "+14154671442", "display_phone": "(415) 467-1442", "distance": 296.82563579997145}, {"id": "7dHj1XDVA_7AYXTfp5i-BQ", "alias": "momo-noodle-san-francisco", "name": "MOMO noodle", "image_url": "https://s3-media4.fl.yelpcdn.com/bphoto/7zlv0Fz-2CTVIPLa767RVw/o.jpg", "is_closed": false, "url": "https://www.yelp.com/biz/momo-noodle-san-francisco?adjust_creative=R39z9kjZ-1HrCCc7SW6pcw&utm_campaign=yelp_api_v3&utm_medium=api_v3_business_search&utm_source=R39z9kjZ-1HrCCc7SW6pcw", "review_count": 46, "categories": [{"alias": "noodles", "title": "Noodles"}, {"alias": "foodtrucks", "title": "Food Trucks"}, {"alias": "szechuan", "title": "Szechuan"}], "rating": 4.0, "coordinates": {"latitude": 37.79106, "longitude": -122.40175}, "transactions": [], "price": "$$", "location": {"address1": null, "address2": null, "address3": "", "city": "San Francisco", "zip_code": "94104", "country": "US", "state": "CA", "display_address": ["San Francisco, CA 94104"]}, "phone": "+14088006819", "display_phone": "(408) 800-6819", "distance": 11629.12778878471}, {"id": "Vx33sns5f7JCVLwL15Ks4A", "alias": "da-poke-man-san-francisco-4", "name": "Da Poke-Man", "image_url": "https://s3-media3.fl.yelpcdn.com/bphoto/VzggrHRfb88L_3IW6um5lA/o.jpg", "is_closed": false, "url": "https://www.yelp.com/biz/da-poke-man-san-francisco-4?adjust_creative=R39z9kjZ-1HrCCc7SW6pcw&utm_campaign=yelp_api_v3&utm_medium=api_v3_business_search&utm_source=R39z9kjZ-1HrCCc7SW6pcw", "review_count": 31, "categories": [{"alias": "poke", "title": "Poke"}, {"alias": "hawaiian", "title": "Hawaiian"}, {"alias": "foodtrucks", "title": "Food Trucks"}], "rating": 4.5, "coordinates": {"latitude": 37.7784199, "longitude": -122.3906212}, "transactions": [], "price": "$$", "location": {"address1": "24 Willie Mays Plz", "address2": null, "address3": null, "city": "San Francisco", "zip_code": "94107", "country": "US", "state": "CA", "display_address": ["24 Willie Mays Plz", "San Francisco, CA 94107"]}, "phone": "+15107899447", "display_phone": "(510) 789-9447", "distance": 10276.36419242317}, {"id": "1e93gYXXlBHA0-XJXicJhQ", "alias": "inshallah-food-truck-south-san-francisco-2", "name": "Inshallah Food Truck", "image_url": "https://s3-media1.fl.yelpcdn.com/bphoto/IBFIlRI2k5jz_4uMvkIIUw/o.jpg", "is_closed": false, "url": "https://www.yelp.com/biz/inshallah-food-truck-south-san-francisco-2?adjust_creative=R39z9kjZ-1HrCCc7SW6pcw&utm_campaign=yelp_api_v3&utm_medium=api_v3_business_search&utm_source=R39z9kjZ-1HrCCc7SW6pcw", "review_count": 1, "categories": [{"alias": "mediterranean", "title": "Mediterranean"}, {"alias": "foodtrucks", "title": "Food Trucks"}], "rating": 3.0, "coordinates": {"latitude": 37.66737, "longitude": -122.38249}, "transactions": [], "location": {"address1": "395 Oyster Point", "address2": null, "address3": "", "city": "South San Francisco", "zip_code": "94080", "country": "US", "state": "CA", "display_address": ["395 Oyster Point", "South San Francisco, CA 94080"]}, "phone": "+16502716848", "display_phone": "(650) 271-6848", "distance": 2739.751936326551}, {"id": "lGLyIlp2qqAVu5Zxeomy9Q", "alias": "gondo-fusion-south-san-francisco", "name": "Gondo Fusion", "image_url": "https://s3-media2.fl.yelpcdn.com/bphoto/Ry4KFwoAev_BGRpe2WtcYA/o.jpg", "is_closed": false, "url": "https://www.yelp.com/biz/gondo-fusion-south-san-francisco?adjust_creative=R39z9kjZ-1HrCCc7SW6pcw&utm_campaign=yelp_api_v3&utm_medium=api_v3_business_search&utm_source=R39z9kjZ-1HrCCc7SW6pcw", "review_count": 13, "categories": [{"alias": "foodtrucks", "title": "Food Trucks"}, {"alias": "cuban", "title": "Cuban"}, {"alias": "mexican", "title": "Mexican"}], "rating": 4.0, "coordinates": {"latitude": 37.65774, "longitude": -122.41407}, "transactions": [], "location": {"address1": "", "address2": null, "address3": "", "city": "South San Francisco", "zip_code": "94080", "country": "US", "state": "CA", "display_address": ["South San Francisco, CA 94080"]}, "phone": "+16502185404", "display_phone": "(650) 218-5404", "distance": 3943.65945678374}, {"id": "rM6pPB_qmQ3de5yGpfLT1g", "alias": "lomo-libre-san-francisco-2", "name": "Lomo Libre", "image_url": "https://s3-media1.fl.yelpcdn.com/bphoto/vjnO-EUjFHKoLMy2_JQYvg/o.jpg", "is_closed": false, "url": "https://www.yelp.com/biz/lomo-libre-san-francisco-2?adjust_creative=R39z9kjZ-1HrCCc7SW6pcw&utm_campaign=yelp_api_v3&utm_medium=api_v3_business_search&utm_source=R39z9kjZ-1HrCCc7SW6pcw", "review_count": 8, "categories": [{"alias": "foodtrucks", "title": "Food Trucks"}, {"alias": "peruvian", "title": "Peruvian"}], "rating": 5.0, "coordinates": {"latitude": 37.799634, "longitude": -122.436301}, "transactions": [], "location": {"address1": "2101 Lombard St", "address2": "", "address3": null, "city": "San Francisco", "zip_code": "94123", "country": "US", "state": "CA", "display_address": ["2101 Lombard St", "San Francisco, CA 94123"]}, "phone": "+14156198149", "display_phone": "(415) 619-8149", "distance": 12910.070593834382}, {"id": "QKGpQ5T6Aqdbay7iqp51sA", "alias": "mobowl-san-francisco-2", "name": "MoBowL", "image_url": "https://s3-media2.fl.yelpcdn.com/bphoto/LKlIUfrfmmV88C_WhbGFOg/o.jpg", "is_closed": false, "url": "https://www.yelp.com/biz/mobowl-san-francisco-2?adjust_creative=R39z9kjZ-1HrCCc7SW6pcw&utm_campaign=yelp_api_v3&utm_medium=api_v3_business_search&utm_source=R39z9kjZ-1HrCCc7SW6pcw", "review_count": 22, "categories": [{"alias": "foodtrucks", "title": "Food Trucks"}, {"alias": "asianfusion", "title": "Asian Fusion"}], "rating": 4.0, "coordinates": {"latitude": 37.7744674682617, "longitude": -122.409156799316}, "transactions": [], "location": {"address1": null, "address2": null, "address3": null, "city": "San Francisco", "zip_code": "94103", "country": "US", "state": "CA", "display_address": ["San Francisco, CA 94103"]}, "phone": "+14155481268", "display_phone": "(415) 548-1268", "distance": 9593.001181179943}, {"id": "PxzM_zNIOy7jdtwT-fbB0w", "alias": "minnie-bells-san-francisco-2", "name": "Minnie Bells", "image_url": "https://s3-media2.fl.yelpcdn.com/bphoto/5YNxEigMmu8anIwGkIsEzg/o.jpg", "is_closed": false, "url": "https://www.yelp.com/biz/minnie-bells-san-francisco-2?adjust_creative=R39z9kjZ-1HrCCc7SW6pcw&utm_campaign=yelp_api_v3&utm_medium=api_v3_business_search&utm_source=R39z9kjZ-1HrCCc7SW6pcw", "review_count": 15, "categories": [{"alias": "soulfood", "title": "Soul Food"}, {"alias": "foodtrucks", "title": "Food Trucks"}, {"alias": "comfortfood", "title": "Comfort Food"}], "rating": 4.5, "coordinates": {"latitude": 37.7769775466477, "longitude": -122.416963241994}, "transactions": [], "location": {"address1": "", "address2": "", "address3": null, "city": "San Francisco", "zip_code": "94103", "country": "US", "state": "CA", "display_address": ["San Francisco, CA 94103"]}, "phone": "+14152739340", "display_phone": "(415) 273-9340", "distance": 10129.949527840703}, {"id": "XCC2GEmWwwsb6LoeZLaqXA", "alias": "momolicious-san-francisco-2", "name": "MOMOlicious", "image_url": "https://s3-media1.fl.yelpcdn.com/bphoto/3yNgEihH74gOY8BSlXWZtg/o.jpg", "is_closed": false, "url": "https://www.yelp.com/biz/momolicious-san-francisco-2?adjust_creative=R39z9kjZ-1HrCCc7SW6pcw&utm_campaign=yelp_api_v3&utm_medium=api_v3_business_search&utm_source=R39z9kjZ-1HrCCc7SW6pcw", "review_count": 100, "categories": [{"alias": "foodtrucks", "title": "Food Trucks"}, {"alias": "himalayan", "title": "Himalayan/Nepalese"}, {"alias": "noodles", "title": "Noodles"}], "rating": 4.5, "coordinates": {"latitude": 37.7945413, "longitude": -122.3949711}, "transactions": [], "price": "$$", "location": {"address1": "10 Market St", "address2": null, "address3": "", "city": "San Francisco", "zip_code": "94105", "country": "US", "state": "CA", "display_address": ["10 Market St", "San Francisco, CA 94105"]}, "phone": "+15102876606", "display_phone": "(510) 287-6606", "distance": 12014.981300772917}, {"id": "2foqEQPQVy91S_ze4Win-A", "alias": "lamas-peruvian-truck-daly-city-2", "name": "Lamas Peruvian Truck", "image_url": "https://s3-media3.fl.yelpcdn.com/bphoto/G81twUQQu_9iDQMlyq58AA/o.jpg", "is_closed": false, "url": "https://www.yelp.com/biz/lamas-peruvian-truck-daly-city-2?adjust_creative=R39z9kjZ-1HrCCc7SW6pcw&utm_campaign=yelp_api_v3&utm_medium=api_v3_business_search&utm_source=R39z9kjZ-1HrCCc7SW6pcw", "review_count": 32, "categories": [{"alias": "foodtrucks", "title": "Food Trucks"}, {"alias": "peruvian", "title": "Peruvian"}], "rating": 3.5, "coordinates": {"latitude": 37.69158, "longitude": -122.46252}, "transactions": [], "price": "$$", "location": {"address1": "", "address2": null, "address3": null, "city": "Daly City", "zip_code": "94014", "country": "US", "state": "CA", "display_address": ["Daly City, CA 94014"]}, "phone": "+16507979866", "display_phone": "(650) 797-9866", "distance": 4354.746941414855}, {"id": "N2Kq4-36805J47tCC0gqvw", "alias": "tokyo-meet-hanoi-burlingame-2", "name": "Tokyo Meet Hanoi", "image_url": "https://s3-media3.fl.yelpcdn.com/bphoto/Y-jsJ9PS_JnCy9dbE3K84Q/o.jpg", "is_closed": false, "url": "https://www.yelp.com/biz/tokyo-meet-hanoi-burlingame-2?adjust_creative=R39z9kjZ-1HrCCc7SW6pcw&utm_campaign=yelp_api_v3&utm_medium=api_v3_business_search&utm_source=R39z9kjZ-1HrCCc7SW6pcw", "review_count": 1, "categories": [{"alias": "japanese", "title": "Japanese"}, {"alias": "foodtrucks", "title": "Food Trucks"}, {"alias": "vietnamese", "title": "Vietnamese"}], "rating": 5.0, "coordinates": {"latitude": 37.57779, "longitude": -122.3468}, "transactions": [], "location": {"address1": "261 Park Rd", "address2": "", "address3": "", "city": "Burlingame", "zip_code": "94010", "country": "US", "state": "CA", "display_address": ["261 Park Rd", "Burlingame, CA 94010"]}, "phone": "+14153707721", "display_phone": "(415) 370-7721", "distance": 13062.537130796165}, {"id": "WTtLB137UZmS1WbKrnXuAg", "alias": "borsch-mobile-san-francisco", "name": "Borsch Mobile", "image_url": "https://s3-media4.fl.yelpcdn.com/bphoto/xzNCVt8nwmvwdWuUEEbvaA/o.jpg", "is_closed": false, "url": "https://www.yelp.com/biz/borsch-mobile-san-francisco?adjust_creative=R39z9kjZ-1HrCCc7SW6pcw&utm_campaign=yelp_api_v3&utm_medium=api_v3_business_search&utm_source=R39z9kjZ-1HrCCc7SW6pcw", "review_count": 30, "categories": [{"alias": "russian", "title": "Russian"}, {"alias": "foodtrucks", "title": "Food Trucks"}, {"alias": "modern_european", "title": "Modern European"}], "rating": 4.5, "coordinates": {"latitude": 37.7713890075684, "longitude": -122.393447875977}, "transactions": [], "price": "$$", "location": {"address1": "", "address2": "", "address3": null, "city": "San Francisco", "zip_code": "94158", "country": "US", "state": "CA", "display_address": ["San Francisco, CA 94158"]}, "phone": "+14157704371", "display_phone": "(415) 770-4371", "distance": 9917.608506293083}, {"id": "Lg73M4FnC1QQmUGpGHD4hA", "alias": "kabob-trolley-san-francisco-5", "name": "Kabob Trolley", "image_url": "https://s3-media2.fl.yelpcdn.com/bphoto/6WneQFOu-WWB-80KhY5TeA/o.jpg", "is_closed": false, "url": "https://www.yelp.com/biz/kabob-trolley-san-francisco-5?adjust_creative=R39z9kjZ-1HrCCc7SW6pcw&utm_campaign=yelp_api_v3&utm_medium=api_v3_business_search&utm_source=R39z9kjZ-1HrCCc7SW6pcw", "review_count": 86, "categories": [{"alias": "foodtrucks", "title": "Food Trucks"}, {"alias": "afghani", "title": "Afghan"}, {"alias": "halal", "title": "Halal"}], "rating": 3.5, "coordinates": {"latitude": 37.776774, "longitude": -122.3940414}, "transactions": ["pickup"], "price": "$", "location": {"address1": "298 King St", "address2": "", "address3": "", "city": "San Francisco", "zip_code": "94107", "country": "US", "state": "CA", "display_address": ["298 King St", "San Francisco, CA 94107"]}, "phone": "+14154049756", "display_phone": "(415) 404-9756", "distance": 10066.047580477109}, {"id": "RZuGdsSkwvpIt3Nnjyga8A", "alias": "serendipity-food-truck-san-francisco", "name": "Serendipity Food Truck", "image_url": "https://s3-media1.fl.yelpcdn.com/bphoto/HM1b2tiz7b-odiAGU6SY8g/o.jpg", "is_closed": false, "url": "https://www.yelp.com/biz/serendipity-food-truck-san-francisco?adjust_creative=R39z9kjZ-1HrCCc7SW6pcw&utm_campaign=yelp_api_v3&utm_medium=api_v3_business_search&utm_source=R39z9kjZ-1HrCCc7SW6pcw", "review_count": 23, "categories": [{"alias": "newamerican", "title": "American (New)"}, {"alias": "foodtrucks", "title": "Food Trucks"}, {"alias": "comfortfood", "title": "Comfort Food"}], "rating": 4.5, "coordinates": {"latitude": 37.73053, "longitude": -122.38523}, "transactions": [], "price": "$$", "location": {"address1": "", "address2": null, "address3": "", "city": "San Francisco", "zip_code": "94124", "country": "US", "state": "CA", "display_address": ["San Francisco, CA 94124"]}, "phone": "+19164791437", "display_phone": "(916) 479-1437", "distance": 5149.866044592245}, {"id": "jCcAuXhCpeJP2n-8ol7mxg", "alias": "kolobok-russian-soul-food-truck-oakland", "name": "Kolobok Russian Soul Food Truck", "image_url": "https://s3-media1.fl.yelpcdn.com/bphoto/k8s1Bfc05Iw7SJXE6VJ74Q/o.jpg", "is_closed": false, "url": "https://www.yelp.com/biz/kolobok-russian-soul-food-truck-oakland?adjust_creative=R39z9kjZ-1HrCCc7SW6pcw&utm_campaign=yelp_api_v3&utm_medium=api_v3_business_search&utm_source=R39z9kjZ-1HrCCc7SW6pcw", "review_count": 47, "categories": [{"alias": "foodtrucks", "title": "Food Trucks"}, {"alias": "russian", "title": "Russian"}], "rating": 4.5, "coordinates": {"latitude": 37.7883087690458, "longitude": -122.309032460882}, "transactions": [], "price": "$$", "location": {"address1": null, "address2": null, "address3": "", "city": "Oakland", "zip_code": "94577", "country": "US", "state": "CA", "display_address": ["Oakland, CA 94577"]}, "phone": "+15105996542", "display_phone": "(510) 599-6542", "distance": 14019.927595943484}, {"id": "XTJJ_PUQoJKIh31ZIzsFzw", "alias": "cochinita-food-truck-san-francisco-6", "name": "Cochinita Food Truck", "image_url": "https://s3-media2.fl.yelpcdn.com/bphoto/w77SOd2jVJjOh1lwuYQ42w/o.jpg", "is_closed": false, "url": "https://www.yelp.com/biz/cochinita-food-truck-san-francisco-6?adjust_creative=R39z9kjZ-1HrCCc7SW6pcw&utm_campaign=yelp_api_v3&utm_medium=api_v3_business_search&utm_source=R39z9kjZ-1HrCCc7SW6pcw", "review_count": 49, "categories": [{"alias": "foodtrucks", "title": "Food Trucks"}, {"alias": "mexican", "title": "Mexican"}], "rating": 4.5, "coordinates": {"latitude": 37.770753, "longitude": -122.3916722}, "transactions": [], "price": "$", "location": {"address1": "601 Mission Blvd N", "address2": null, "address3": "", "city": "San Francisco", "zip_code": "94103", "country": "US", "state": "CA", "display_address": ["601 Mission Blvd N", "San Francisco, CA 94103"]}, "phone": "+14159883663", "display_phone": "(415) 988-3663", "distance": 9418.854940254845}, {"id": "jVGGp6ZQ_0jMVcDA8zC3nA", "alias": "mobile-food-fleet-san-bruno", "name": "Mobile Food Fleet", "image_url": "https://s3-media2.fl.yelpcdn.com/bphoto/mdPFUd9IwfEUibv4sFZ5Jg/o.jpg", "is_closed": false, "url": "https://www.yelp.com/biz/mobile-food-fleet-san-bruno?adjust_creative=R39z9kjZ-1HrCCc7SW6pcw&utm_campaign=yelp_api_v3&utm_medium=api_v3_business_search&utm_source=R39z9kjZ-1HrCCc7SW6pcw", "review_count": 1, "categories": [{"alias": "foodtrucks", "title": "Food Trucks"}, {"alias": "tacos", "title": "Tacos"}], "rating": 5.0, "coordinates": {"latitude": 37.6276206970215, "longitude": -122.425605773926}, "transactions": [], "location": {"address1": "", "address2": null, "address3": "", "city": "San Bruno", "zip_code": "94066", "country": "US", "state": "CA", "display_address": ["San Bruno, CA 94066"]}, "phone": "+16507735397", "display_phone": "(650) 773-5397", "distance": 7646.532958166928}, {"id": "78rWDhqKjjvzFFPPZGJp5A", "alias": "sams-chowdermobile-half-moon-bay", "name": "Sam's Chowdermobile", "image_url": "https://s3-media4.fl.yelpcdn.com/bphoto/4HUbwA98mAWTdv1l55DR2A/o.jpg", "is_closed": false, "url": "https://www.yelp.com/biz/sams-chowdermobile-half-moon-bay?adjust_creative=R39z9kjZ-1HrCCc7SW6pcw&utm_campaign=yelp_api_v3&utm_medium=api_v3_business_search&utm_source=R39z9kjZ-1HrCCc7SW6pcw", "review_count": 392, "categories": [{"alias": "seafood", "title": "Seafood"}, {"alias": "foodtrucks", "title": "Food Trucks"}], "rating": 4.0, "coordinates": {"latitude": 37.5024966279369, "longitude": -122.475846760164}, "transactions": [], "price": "$$", "location": {"address1": "4210 N Cabrillo Hwy", "address2": "", "address3": "", "city": "Half Moon Bay", "zip_code": "94019", "country": "US", "state": "CA", "display_address": ["4210 N Cabrillo Hwy", "Half Moon Bay, CA 94019"]}, "phone": "+16502889348", "display_phone": "(650) 288-9348", "distance": 21443.104135804217}, {"id": "_HuNiaPs0WOo4R_3-8Qp1w", "alias": "adams-grub-truck-san-francisco-2", "name": "Adam's Grub Truck", "image_url": "https://s3-media3.fl.yelpcdn.com/bphoto/0mWV2kVfZJyPxats8bu-Rg/o.jpg", "is_closed": false, "url": "https://www.yelp.com/biz/adams-grub-truck-san-francisco-2?adjust_creative=R39z9kjZ-1HrCCc7SW6pcw&utm_campaign=yelp_api_v3&utm_medium=api_v3_business_search&utm_source=R39z9kjZ-1HrCCc7SW6pcw", "review_count": 329, "categories": [{"alias": "sandwiches", "title": "Sandwiches"}, {"alias": "asianfusion", "title": "Asian Fusion"}, {"alias": "foodtrucks", "title": "Food Trucks"}], "rating": 4.0, "coordinates": {"latitude": 37.770765, "longitude": -122.391708}, "transactions": ["pickup", "delivery"], "price": "$$", "location": {"address1": "601 Mission Bay Blvd N", "address2": "", "address3": "", "city": "San Francisco", "zip_code": "94158", "country": "US", "state": "CA", "display_address": ["601 Mission Bay Blvd N", "San Francisco, CA 94158"]}, "phone": "+14153078844", "display_phone": "(415) 307-8844", "distance": 9419.84488848806}, {"id": "CUwBAy6lrFi4x6Neu9eRVw", "alias": "mini-street-burger-alameda-3", "name": "Mini Street Burger", "image_url": "https://s3-media2.fl.yelpcdn.com/bphoto/Kh-OQKBIclWY1dCeIuu57w/o.jpg", "is_closed": false, "url": "https://www.yelp.com/biz/mini-street-burger-alameda-3?adjust_creative=R39z9kjZ-1HrCCc7SW6pcw&utm_campaign=yelp_api_v3&utm_medium=api_v3_business_search&utm_source=R39z9kjZ-1HrCCc7SW6pcw", "review_count": 28, "categories": [{"alias": "foodtrucks", "title": "Food Trucks"}, {"alias": "burgers", "title": "Burgers"}], "rating": 4.0, "coordinates": {"latitude": 37.82628, "longitude": -122.25101}, "transactions": [], "location": {"address1": null, "address2": null, "address3": null, "city": "Alameda", "zip_code": "94611", "country": "US", "state": "CA", "display_address": ["Alameda, CA 94611"]}, "phone": "+15108278982", "display_phone": "(510) 827-8982", "distance": 24023.658622800573}, {"id": "8xDPfxmlMWVn-OQPTPU_wA", "alias": "crazy-curry-belmont-2", "name": "Crazy Curry", "image_url": "https://s3-media4.fl.yelpcdn.com/bphoto/6V2onr7ftDPTZyg9t0UOMw/o.jpg", "is_closed": false, "url": "https://www.yelp.com/biz/crazy-curry-belmont-2?adjust_creative=R39z9kjZ-1HrCCc7SW6pcw&utm_campaign=yelp_api_v3&utm_medium=api_v3_business_search&utm_source=R39z9kjZ-1HrCCc7SW6pcw", "review_count": 3, "categories": [{"alias": "japacurry", "title": "Japanese Curry"}, {"alias": "foodtrucks", "title": "Food Trucks"}], "rating": 3.5, "coordinates": {"latitude": 37.5265, "longitude": -122.28178}, "transactions": [], "location": {"address1": "407 Old County Rd", "address2": null, "address3": "", "city": "Belmont", "zip_code": "94002", "country": "US", "state": "CA", "display_address": ["407 Old County Rd", "Belmont, CA 94002"]}, "phone": "+14154832691", "display_phone": "(415) 483-2691", "distance": 20754.461627277193}, {"id": "nIMGujCOfyiOM0JFpbOg-A", "alias": "alfaro-catering-san-francisco-2", "name": "Alfaro Catering", "image_url": "https://s3-media3.fl.yelpcdn.com/bphoto/E8EeZDBV7lG98ghOCooFIg/o.jpg", "is_closed": false, "url": "https://www.yelp.com/biz/alfaro-catering-san-francisco-2?adjust_creative=R39z9kjZ-1HrCCc7SW6pcw&utm_campaign=yelp_api_v3&utm_medium=api_v3_business_search&utm_source=R39z9kjZ-1HrCCc7SW6pcw", "review_count": 21, "categories": [{"alias": "foodtrucks", "title": "Food Trucks"}, {"alias": "tacos", "title": "Tacos"}], "rating": 4.0, "coordinates": {"latitude": 37.767240216789, "longitude": -122.422148774681}, "transactions": [], "price": "$", "location": {"address1": "332 Valencia St", "address2": null, "address3": "", "city": "San Francisco", "zip_code": "94103", "country": "US", "state": "CA", "display_address": ["332 Valencia St", "San Francisco, CA 94103"]}, "phone": "+14158504247", "display_phone": "(415) 850-4247", "distance": 9176.250537691656}, {"id": "-arrRYJYGEejjYaBa8gJ5Q", "alias": "la-flamme-oakland-2", "name": "La Flamme", "image_url": "https://s3-media1.fl.yelpcdn.com/bphoto/RnuD-0Cj1J9SYQIuky76mQ/o.jpg", "is_closed": false, "url": "https://www.yelp.com/biz/la-flamme-oakland-2?adjust_creative=R39z9kjZ-1HrCCc7SW6pcw&utm_campaign=yelp_api_v3&utm_medium=api_v3_business_search&utm_source=R39z9kjZ-1HrCCc7SW6pcw", "review_count": 20, "categories": [{"alias": "pizza", "title": "Pizza"}, {"alias": "foodtrucks", "title": "Food Trucks"}], "rating": 4.0, "coordinates": {"latitude": 37.8089442, "longitude": -122.2652352}, "transactions": ["pickup", "delivery"], "price": "$$", "location": {"address1": "344 Thomas L Berkeley Way -", "address2": "Ste 310", "address3": "", "city": "OAKLAND", "zip_code": "94612", "country": "US", "state": "CA", "display_address": ["344 Thomas L Berkeley Way -", "Ste 310", "OAKLAND, CA 94612"]}, "phone": "+14153168541", "display_phone": "(415) 316-8541", "distance": 18228.95342787216}, {"id": "DC42MrpWtqEeWRmMsn6Z8w", "alias": "the-everest-momo-fremont-2", "name": "The Everest Momo", "image_url": "https://s3-media2.fl.yelpcdn.com/bphoto/T2f7tUQ1c104otx9oSdqYw/o.jpg", "is_closed": false, "url": "https://www.yelp.com/biz/the-everest-momo-fremont-2?adjust_creative=R39z9kjZ-1HrCCc7SW6pcw&utm_campaign=yelp_api_v3&utm_medium=api_v3_business_search&utm_source=R39z9kjZ-1HrCCc7SW6pcw", "review_count": 23, "categories": [{"alias": "foodtrucks", "title": "Food Trucks"}, {"alias": "indpak", "title": "Indian"}, {"alias": "himalayan", "title": "Himalayan/Nepalese"}], "rating": 4.5, "coordinates": {"latitude": 37.54643, "longitude": -121.98512}, "transactions": [], "price": "$", "location": {"address1": "39233 Fremont Blvd", "address2": null, "address3": null, "city": "Fremont", "zip_code": "94538", "country": "US", "state": "CA", "display_address": ["39233 Fremont Blvd", "Fremont, CA 94538"]}, "phone": "+14088406369", "display_phone": "(408) 840-6369", "distance": 39982.56646622392}, {"id": "S9MYGapWK7T7oKUEYLz6Iw", "alias": "the-boneyard-san-bruno-3", "name": "The Boneyard", "image_url": "https://s3-media3.fl.yelpcdn.com/bphoto/uG6EEbOomy5tsXTsHGodxg/o.jpg", "is_closed": false, "url": "https://www.yelp.com/biz/the-boneyard-san-bruno-3?adjust_creative=R39z9kjZ-1HrCCc7SW6pcw&utm_campaign=yelp_api_v3&utm_medium=api_v3_business_search&utm_source=R39z9kjZ-1HrCCc7SW6pcw", "review_count": 87, "categories": [{"alias": "foodtrucks", "title": "Food Trucks"}, {"alias": "bbq", "title": "Barbeque"}, {"alias": "catering", "title": "Caterers"}], "rating": 3.5, "coordinates": {"latitude": 37.7939188282826, "longitude": -122.400518522289}, "transactions": ["pickup", "delivery"], "price": "$$", "location": {"address1": "1225 San Mateo Ave", "address2": null, "address3": "", "city": "San Bruno", "zip_code": "94066", "country": "US", "state": "CA", "display_address": ["1225 San Mateo Ave", "San Bruno, CA 94066"]}, "phone": "+14159350696", "display_phone": "(415) 935-0696", "distance": 11942.809959101407}, {"id": "C8QSWh3j0xkXwiWC8h-7ag", "alias": "three-amigos-market-and-deli-oakland", "name": "Three Amigos Market & Deli", "image_url": "https://s3-media1.fl.yelpcdn.com/bphoto/B4LNxfyWsiyHibJqkrK1gQ/o.jpg", "is_closed": false, "url": "https://www.yelp.com/biz/three-amigos-market-and-deli-oakland?adjust_creative=R39z9kjZ-1HrCCc7SW6pcw&utm_campaign=yelp_api_v3&utm_medium=api_v3_business_search&utm_source=R39z9kjZ-1HrCCc7SW6pcw", "review_count": 9, "categories": [{"alias": "grocery", "title": "Grocery"}, {"alias": "sandwiches", "title": "Sandwiches"}, {"alias": "delis", "title": "Delis"}], "rating": 4.5, "coordinates": {"latitude": 37.791048, "longitude": -122.245431}, "transactions": [], "price": "$", "location": {"address1": "1554 13th Ave", "address2": "", "address3": "", "city": "Oakland", "zip_code": "94606", "country": "US", "state": "CA", "display_address": ["1554 13th Ave", "Oakland, CA 94606"]}, "phone": "+15102612353", "display_phone": "(510) 261-2353", "distance": 18093.865724089166}, {"id": "lgheXsHqe66AEZwoPDIEpw", "alias": "taco-coma-newark", "name": "Taco Coma", "image_url": "https://s3-media3.fl.yelpcdn.com/bphoto/DDz5lZDL5lDiRR_Ph0L4Sg/o.jpg", "is_closed": false, "url": "https://www.yelp.com/biz/taco-coma-newark?adjust_creative=R39z9kjZ-1HrCCc7SW6pcw&utm_campaign=yelp_api_v3&utm_medium=api_v3_business_search&utm_source=R39z9kjZ-1HrCCc7SW6pcw", "review_count": 3, "categories": [{"alias": "foodstands", "title": "Food Stands"}, {"alias": "tacos", "title": "Tacos"}], "rating": 5.0, "coordinates": {"latitude": 37.53453, "longitude": -122.03284}, "transactions": [], "location": {"address1": "", "address2": null, "address3": "", "city": "Newark", "zip_code": "94560", "country": "US", "state": "CA", "display_address": ["Newark, CA 94560"]}, "phone": "+15106971448", "display_phone": "(510) 697-1448", "distance": 36543.118017013956}, {"id": "eQphqtQx_0KiltdsmnB07g", "alias": "wezy-cuisine-truck-hayward-4", "name": "Wezy Cuisine Truck", "image_url": "https://s3-media1.fl.yelpcdn.com/bphoto/uIsUoM74AtTEasvrnO33bQ/o.jpg", "is_closed": false, "url": "https://www.yelp.com/biz/wezy-cuisine-truck-hayward-4?adjust_creative=R39z9kjZ-1HrCCc7SW6pcw&utm_campaign=yelp_api_v3&utm_medium=api_v3_business_search&utm_source=R39z9kjZ-1HrCCc7SW6pcw", "review_count": 26, "categories": [{"alias": "asianfusion", "title": "Asian Fusion"}, {"alias": "foodtrucks", "title": "Food Trucks"}], "rating": 4.0, "coordinates": {"latitude": 37.60532, "longitude": -122.06126}, "transactions": [], "location": {"address1": "2430 Whipple Rd", "address2": null, "address3": "", "city": "Hayward", "zip_code": "94544", "country": "US", "state": "CA", "display_address": ["2430 Whipple Rd", "Hayward, CA 94544"]}, "phone": "+13212289393", "display_phone": "(321) 228-9393", "distance": 31424.900389124963}, {"id": "uuouQQIFQ1B9mkmcxaAKFA", "alias": "tacos-el-rey-oakland", "name": "Tacos El Rey", "image_url": "https://s3-media2.fl.yelpcdn.com/bphoto/DblyFrtT9uyPCQAUfPbYbQ/o.jpg", "is_closed": false, "url": "https://www.yelp.com/biz/tacos-el-rey-oakland?adjust_creative=R39z9kjZ-1HrCCc7SW6pcw&utm_campaign=yelp_api_v3&utm_medium=api_v3_business_search&utm_source=R39z9kjZ-1HrCCc7SW6pcw", "review_count": 9, "categories": [{"alias": "foodtrucks", "title": "Food Trucks"}, {"alias": "mexican", "title": "Mexican"}], "rating": 4.0, "coordinates": {"latitude": 37.8294034, "longitude": -122.2875758}, "transactions": [], "price": "$", "location": {"address1": "40th & Horton", "address2": "", "address3": null, "city": "Oakland", "zip_code": "94608", "country": "US", "state": "CA", "display_address": ["40th & Horton", "Oakland, CA 94608"]}, "phone": "+15108130232", "display_phone": "(510) 813-0232", "distance": 18857.231928285233}, {"id": "Is1KN9f5THyPgo1RjAxRzg", "alias": "madd-mex-cantina-food-truck-san-mateo-3", "name": "Madd Mex Cantina Food Truck", "image_url": "https://s3-media3.fl.yelpcdn.com/bphoto/sqUQfoUkNqzsWDktPN09Dg/o.jpg", "is_closed": false, "url": "https://www.yelp.com/biz/madd-mex-cantina-food-truck-san-mateo-3?adjust_creative=R39z9kjZ-1HrCCc7SW6pcw&utm_campaign=yelp_api_v3&utm_medium=api_v3_business_search&utm_source=R39z9kjZ-1HrCCc7SW6pcw", "review_count": 225, "categories": [{"alias": "foodtrucks", "title": "Food Trucks"}, {"alias": "mexican", "title": "Mexican"}, {"alias": "catering", "title": "Caterers"}], "rating": 4.5, "coordinates": {"latitude": 37.5521392822266, "longitude": -122.260833740234}, "transactions": [], "price": "$", "location": {"address1": "", "address2": null, "address3": "", "city": "San Mateo", "zip_code": "94404", "country": "US", "state": "CA", "display_address": ["San Mateo, CA 94404"]}, "phone": "", "display_phone": "", "distance": 18692.766113299913}, {"id": "X1NgPMMREoTTDAZPe6D-kA", "alias": "whisk-on-wheels-redwood-city", "name": "Whisk on Wheels", "image_url": "https://s3-media1.fl.yelpcdn.com/bphoto/qt-YlMlVl6G5a2wXxHgtJA/o.jpg", "is_closed": false, "url": "https://www.yelp.com/biz/whisk-on-wheels-redwood-city?adjust_creative=R39z9kjZ-1HrCCc7SW6pcw&utm_campaign=yelp_api_v3&utm_medium=api_v3_business_search&utm_source=R39z9kjZ-1HrCCc7SW6pcw", "review_count": 119, "categories": [{"alias": "catering", "title": "Caterers"}, {"alias": "foodtrucks", "title": "Food Trucks"}, {"alias": "tradamerican", "title": "American (Traditional)"}], "rating": 4.0, "coordinates": {"latitude": 37.48853, "longitude": -122.22662}, "transactions": [], "price": "$$", "location": {"address1": "", "address2": null, "address3": "", "city": "Redwood City", "zip_code": "94063", "country": "US", "state": "CA", "display_address": ["Redwood City, CA 94063"]}, "phone": "+14159021188", "display_phone": "(415) 902-1188", "distance": 26719.577621494205}, {"id": "jW66693LVPlyDtzAoeb7KQ", "alias": "travelin-joe-espresso-berkeley", "name": "Travelin Joe Espresso", "image_url": "https://s3-media2.fl.yelpcdn.com/bphoto/XiqMQnnnbGe4g2SzU4Wm-A/o.jpg", "is_closed": false, "url": "https://www.yelp.com/biz/travelin-joe-espresso-berkeley?adjust_creative=R39z9kjZ-1HrCCc7SW6pcw&utm_campaign=yelp_api_v3&utm_medium=api_v3_business_search&utm_source=R39z9kjZ-1HrCCc7SW6pcw", "review_count": 33, "categories": [{"alias": "coffee", "title": "Coffee & Tea"}, {"alias": "foodstands", "title": "Food Stands"}, {"alias": "waffles", "title": "Waffles"}], "rating": 4.5, "coordinates": {"latitude": 37.85571, "longitude": -122.2893}, "transactions": [], "price": "$$", "location": {"address1": "1016 Grayson St", "address2": "", "address3": "", "city": "Berkeley", "zip_code": "94710", "country": "US", "state": "CA", "display_address": ["1016 Grayson St", "Berkeley, CA 94710"]}, "phone": "+15109197279", "display_phone": "(510) 919-7279", "distance": 21309.638554532936}, {"id": "qOKiXV4yxm40m3Ni9vsQlA", "alias": "momo-cook-fremont-3", "name": "MoMo CooK", "image_url": "https://s3-media1.fl.yelpcdn.com/bphoto/ZAM_gtFZMwrxbsxML0Qm2w/o.jpg", "is_closed": false, "url": "https://www.yelp.com/biz/momo-cook-fremont-3?adjust_creative=R39z9kjZ-1HrCCc7SW6pcw&utm_campaign=yelp_api_v3&utm_medium=api_v3_business_search&utm_source=R39z9kjZ-1HrCCc7SW6pcw", "review_count": 143, "categories": [{"alias": "chinese", "title": "Chinese"}, {"alias": "indpak", "title": "Indian"}, {"alias": "foodtrucks", "title": "Food Trucks"}], "rating": 4.5, "coordinates": {"latitude": 37.5536230879515, "longitude": -121.982570104301}, "transactions": [], "price": "$", "location": {"address1": "39039 Capitol Ave", "address2": null, "address3": "", "city": "Fremont", "zip_code": "94538", "country": "US", "state": "CA", "display_address": ["39039 Capitol Ave", "Fremont, CA 94538"]}, "phone": "+16012126767", "display_phone": "(601) 212-6767", "distance": 39881.40179619526}, {"id": "y7jjHpDrYUI7YGpE8e31-g", "alias": "pita-and-salt-santa-clara-2", "name": "Pita & Salt", "image_url": "https://s3-media4.fl.yelpcdn.com/bphoto/OzeFWYEgK2L4rl5VOSyEHQ/o.jpg", "is_closed": false, "url": "https://www.yelp.com/biz/pita-and-salt-santa-clara-2?adjust_creative=R39z9kjZ-1HrCCc7SW6pcw&utm_campaign=yelp_api_v3&utm_medium=api_v3_business_search&utm_source=R39z9kjZ-1HrCCc7SW6pcw", "review_count": 74, "categories": [{"alias": "mediterranean", "title": "Mediterranean"}, {"alias": "halal", "title": "Halal"}, {"alias": "foodtrucks", "title": "Food Trucks"}], "rating": 4.5, "coordinates": {"latitude": 37.3400871, "longitude": -121.987255}, "transactions": ["pickup", "delivery"], "price": "$", "location": {"address1": null, "address2": null, "address3": "", "city": "Santa Clara", "zip_code": "95051", "country": "US", "state": "CA", "display_address": ["Santa Clara, CA 95051"]}, "phone": "+16128765509", "display_phone": "(612) 876-5509", "distance": 53193.822446277154}, {"id": "iA2CQeT9iWbUifpYrqtRbw", "alias": "yeeshaans-grubb-san-mateo-san-mateo-3", "name": "YeeShaans Grubb - San Mateo", "image_url": "https://s3-media1.fl.yelpcdn.com/bphoto/4Feev8zrWsRWiaBTiBDXCQ/o.jpg", "is_closed": false, "url": "https://www.yelp.com/biz/yeeshaans-grubb-san-mateo-san-mateo-3?adjust_creative=R39z9kjZ-1HrCCc7SW6pcw&utm_campaign=yelp_api_v3&utm_medium=api_v3_business_search&utm_source=R39z9kjZ-1HrCCc7SW6pcw", "review_count": 4, "categories": [{"alias": "halal", "title": "Halal"}, {"alias": "burgers", "title": "Burgers"}, {"alias": "foodtrucks", "title": "Food Trucks"}], "rating": 5.0, "coordinates": {"latitude": 37.5528491, "longitude": -122.3145976}, "transactions": ["pickup", "delivery"], "location": {"address1": "1619 S El Camino Real", "address2": null, "address3": "", "city": "San Mateo", "zip_code": "94402", "country": "US", "state": "CA", "display_address": ["1619 S El Camino Real", "San Mateo, CA 94402"]}, "phone": "+15106059510", "display_phone": "(510) 605-9510", "distance": 16759.696106892847}, {"id": "or6vgjw2EFtsWUW_F_eW3A", "alias": "yoshi-food-truck-fremont-2", "name": "Yoshi Food Truck", "image_url": "https://s3-media3.fl.yelpcdn.com/bphoto/YTdMb9ocRxHjMv-CEYwN5g/o.jpg", "is_closed": false, "url": "https://www.yelp.com/biz/yoshi-food-truck-fremont-2?adjust_creative=R39z9kjZ-1HrCCc7SW6pcw&utm_campaign=yelp_api_v3&utm_medium=api_v3_business_search&utm_source=R39z9kjZ-1HrCCc7SW6pcw", "review_count": 27, "categories": [{"alias": "foodtrucks", "title": "Food Trucks"}, {"alias": "poke", "title": "Poke"}, {"alias": "japanese", "title": "Japanese"}], "rating": 4.5, "coordinates": {"latitude": 37.494597, "longitude": -121.94160967}, "transactions": [], "location": {"address1": "45500 Fremont Blvd", "address2": null, "address3": "", "city": "Fremont", "zip_code": "94538", "country": "US", "state": "CA", "display_address": ["45500 Fremont Blvd", "Fremont, CA 94538"]}, "phone": "+16693776666", "display_phone": "(669) 377-6666", "distance": 46160.74685238216}, {"id": "8SNGFcMWZkvS4GWDUL8w1Q", "alias": "noon-o-kabob-san-jose-4", "name": "Noon O Kabob", "image_url": "https://s3-media2.fl.yelpcdn.com/bphoto/5GmY5FRw0m0XEWC5XXbVlA/o.jpg", "is_closed": false, "url": "https://www.yelp.com/biz/noon-o-kabob-san-jose-4?adjust_creative=R39z9kjZ-1HrCCc7SW6pcw&utm_campaign=yelp_api_v3&utm_medium=api_v3_business_search&utm_source=R39z9kjZ-1HrCCc7SW6pcw", "review_count": 29, "categories": [{"alias": "foodtrucks", "title": "Food Trucks"}, {"alias": "kebab", "title": "Kebab"}, {"alias": "persian", "title": "Persian/Iranian"}], "rating": 4.5, "coordinates": {"latitude": 37.3940232, "longitude": -122.0288052}, "transactions": [], "price": "$$", "location": {"address1": null, "address2": null, "address3": null, "city": "San Jose", "zip_code": "95101", "country": "US", "state": "CA", "display_address": ["San Jose, CA 95101"]}, "phone": "+14083346777", "display_phone": "(408) 334-6777", "distance": 46338.53323958145}, {"id": "kQEPAzL76d_4F8RJwpmYCQ", "alias": "3-3-3-fremont", "name": "3-3-3", "image_url": "https://s3-media1.fl.yelpcdn.com/bphoto/WrUzEXSitGcLpQkVQsUgWg/o.jpg", "is_closed": false, "url": "https://www.yelp.com/biz/3-3-3-fremont?adjust_creative=R39z9kjZ-1HrCCc7SW6pcw&utm_campaign=yelp_api_v3&utm_medium=api_v3_business_search&utm_source=R39z9kjZ-1HrCCc7SW6pcw", "review_count": 182, "categories": [{"alias": "korean", "title": "Korean"}, {"alias": "foodtrucks", "title": "Food Trucks"}, {"alias": "indpak", "title": "Indian"}], "rating": 4.0, "coordinates": {"latitude": 37.3595859789331, "longitude": -121.923039561035}, "transactions": [], "price": "$", "location": {"address1": "", "address2": null, "address3": "", "city": "Fremont", "zip_code": "94539", "country": "US", "state": "CA", "display_address": ["Fremont, CA 94539"]}, "phone": "+15104498360", "display_phone": "(510) 449-8360", "distance": 55806.48802294071}, {"id": "0x_iVQeDq7YVMjNGUNuloA", "alias": "holy-cannoli-san-jose-3", "name": "Holy Cannoli", "image_url": "https://s3-media1.fl.yelpcdn.com/bphoto/-2Pxy7VYA8-CTgdvUf58Og/o.jpg", "is_closed": false, "url": "https://www.yelp.com/biz/holy-cannoli-san-jose-3?adjust_creative=R39z9kjZ-1HrCCc7SW6pcw&utm_campaign=yelp_api_v3&utm_medium=api_v3_business_search&utm_source=R39z9kjZ-1HrCCc7SW6pcw", "review_count": 58, "categories": [{"alias": "cafes", "title": "Cafes"}, {"alias": "catering", "title": "Caterers"}, {"alias": "foodtrucks", "title": "Food Trucks"}], "rating": 4.5, "coordinates": {"latitude": 37.337298, "longitude": -121.88759}, "transactions": ["delivery", "pickup"], "price": "$", "location": {"address1": "138 E Santa Clara St", "address2": null, "address3": null, "city": "San Jose", "zip_code": "95113", "country": "US", "state": "CA", "display_address": ["138 E Santa Clara St", "San Jose, CA 95113"]}, "phone": "+14085612223", "display_phone": "(408) 561-2223", "distance": 59798.19644450349}, {"id": "-SnIHr-tALmciy_J1VqXRg", "alias": "cielito-lindo-mexican-street-kitchen-san-jos\u00e9-5", "name": "Cielito Lindo Mexican Street Kitchen", "image_url": "https://s3-media4.fl.yelpcdn.com/bphoto/kCSoIcRPwQ0tPiGQh3gEFw/o.jpg", "is_closed": false, "url": "https://www.yelp.com/biz/cielito-lindo-mexican-street-kitchen-san-jos%C3%A9-5?adjust_creative=R39z9kjZ-1HrCCc7SW6pcw&utm_campaign=yelp_api_v3&utm_medium=api_v3_business_search&utm_source=R39z9kjZ-1HrCCc7SW6pcw", "review_count": 40, "categories": [{"alias": "foodtrucks", "title": "Food Trucks"}, {"alias": "mexican", "title": "Mexican"}], "rating": 4.0, "coordinates": {"latitude": 37.3853149414062, "longitude": -121.893257141113}, "transactions": [], "price": "$", "location": {"address1": null, "address2": null, "address3": "", "city": "San Jos\u00e9", "zip_code": "95131", "country": "US", "state": "CA", "display_address": ["San Jos\u00e9, CA 95131"]}, "phone": "+16508629836", "display_phone": "(650) 862-9836", "distance": 55531.12193383473}, {"id": "_Y526-jjGzk_fjXBj1EePA", "alias": "paddy-wagon-sliders-san-jose-11", "name": "Paddy Wagon Sliders", "image_url": "https://s3-media1.fl.yelpcdn.com/bphoto/ESoDFDH27crUaTgFNhJB0w/o.jpg", "is_closed": false, "url": "https://www.yelp.com/biz/paddy-wagon-sliders-san-jose-11?adjust_creative=R39z9kjZ-1HrCCc7SW6pcw&utm_campaign=yelp_api_v3&utm_medium=api_v3_business_search&utm_source=R39z9kjZ-1HrCCc7SW6pcw", "review_count": 225, "categories": [{"alias": "foodtrucks", "title": "Food Trucks"}, {"alias": "burgers", "title": "Burgers"}, {"alias": "catering", "title": "Caterers"}], "rating": 4.0, "coordinates": {"latitude": 37.3382082, "longitude": -121.8863286}, "transactions": [], "price": "$", "location": {"address1": "", "address2": null, "address3": "", "city": "San Jose", "zip_code": "95112", "country": "US", "state": "CA", "display_address": ["San Jose, CA 95112"]}, "phone": "+14086435254", "display_phone": "(408) 643-5254", "distance": 59817.050741680054}, {"id": "GcfdjsPGaXrY02Q3bsKvew", "alias": "el-diferente-san-jose-4", "name": "El Diferente", "image_url": "https://s3-media4.fl.yelpcdn.com/bphoto/bTeYqqJp0YrJkkfM5OiPZg/o.jpg", "is_closed": false, "url": "https://www.yelp.com/biz/el-diferente-san-jose-4?adjust_creative=R39z9kjZ-1HrCCc7SW6pcw&utm_campaign=yelp_api_v3&utm_medium=api_v3_business_search&utm_source=R39z9kjZ-1HrCCc7SW6pcw", "review_count": 41, "categories": [{"alias": "foodtrucks", "title": "Food Trucks"}, {"alias": "tacos", "title": "Tacos"}, {"alias": "catering", "title": "Caterers"}], "rating": 5.0, "coordinates": {"latitude": 37.324611, "longitude": -121.880933}, "transactions": [], "price": "$", "location": {"address1": "795 S 2nd St", "address2": "", "address3": null, "city": "San Jose", "zip_code": "95112", "country": "US", "state": "CA", "display_address": ["795 S 2nd St", "San Jose, CA 95112"]}, "phone": "+14086651936", "display_phone": "(408) 665-1936", "distance": 61167.67870745441}, {"id": "ai1PcujD1397VPMNc8Ffcg", "alias": "cross-hatch-eatery-sunnyvale", "name": "Cross Hatch Eatery", "image_url": "https://s3-media1.fl.yelpcdn.com/bphoto/HPquQAnn8mSmsNlng5Z-_A/o.jpg", "is_closed": false, "url": "https://www.yelp.com/biz/cross-hatch-eatery-sunnyvale?adjust_creative=R39z9kjZ-1HrCCc7SW6pcw&utm_campaign=yelp_api_v3&utm_medium=api_v3_business_search&utm_source=R39z9kjZ-1HrCCc7SW6pcw", "review_count": 1, "categories": [{"alias": "asianfusion", "title": "Asian Fusion"}, {"alias": "foodtrucks", "title": "Food Trucks"}], "rating": 1.0, "coordinates": {"latitude": 37.3998374938965, "longitude": -121.997146606445}, "transactions": [], "location": {"address1": "", "address2": null, "address3": "", "city": "Sunnyvale", "zip_code": "94089", "country": "US", "state": "CA", "display_address": ["Sunnyvale, CA 94089"]}, "phone": "+16692322267", "display_phone": "(669) 232-2267", "distance": 45714.78643983445}, {"id": "C9uewBH5505NV0EWYBIJAA", "alias": "lady-and-l-aperitivo-san-jose", "name": "Lady & L'Aperitivo", "image_url": "https://s3-media4.fl.yelpcdn.com/bphoto/3nz0sRE9MlOq_4xVRQRt9w/o.jpg", "is_closed": false, "url": "https://www.yelp.com/biz/lady-and-l-aperitivo-san-jose?adjust_creative=R39z9kjZ-1HrCCc7SW6pcw&utm_campaign=yelp_api_v3&utm_medium=api_v3_business_search&utm_source=R39z9kjZ-1HrCCc7SW6pcw", "review_count": 1, "categories": [{"alias": "bakeries", "title": "Bakeries"}, {"alias": "desserts", "title": "Desserts"}, {"alias": "cheesesteaks", "title": "Cheesesteaks"}], "rating": 5.0, "coordinates": {"latitude": 37.2208938598633, "longitude": -121.861633300781}, "transactions": [], "location": {"address1": null, "address2": null, "address3": "", "city": "San Jose", "zip_code": "95120", "country": "US", "state": "CA", "display_address": ["San Jose, CA 95120"]}, "phone": "", "display_phone": "", "distance": 75715.1488189812}, {"id": "M3vYD__s0sSkOie_Uwft3A", "alias": "taste-buds-bbq-tracy-2", "name": "Taste Buds BBQ", "image_url": "https://s3-media1.fl.yelpcdn.com/bphoto/pX1yclRMlmo1S7Db6iO6Lg/o.jpg", "is_closed": false, "url": "https://www.yelp.com/biz/taste-buds-bbq-tracy-2?adjust_creative=R39z9kjZ-1HrCCc7SW6pcw&utm_campaign=yelp_api_v3&utm_medium=api_v3_business_search&utm_source=R39z9kjZ-1HrCCc7SW6pcw", "review_count": 3, "categories": [{"alias": "bbq", "title": "Barbeque"}, {"alias": "catering", "title": "Caterers"}, {"alias": "foodtrucks", "title": "Food Trucks"}], "rating": 4.5, "coordinates": {"latitude": 37.74251, "longitude": -121.42994}, "transactions": [], "location": {"address1": "", "address2": null, "address3": "", "city": "Tracy", "zip_code": "95376", "country": "US", "state": "CA", "display_address": ["Tracy, CA 95376"]}, "phone": "+16502241324", "display_phone": "(650) 224-1324", "distance": 85402.97731219529}, {"id": "IU3OJCdlT92FsM8ohRiWig", "alias": "el-buen-taco-santa-cruz-2", "name": "El Buen Taco", "image_url": "https://s3-media2.fl.yelpcdn.com/bphoto/A_KAIKX-yDTTk2TTkFnFhw/o.jpg", "is_closed": false, "url": "https://www.yelp.com/biz/el-buen-taco-santa-cruz-2?adjust_creative=R39z9kjZ-1HrCCc7SW6pcw&utm_campaign=yelp_api_v3&utm_medium=api_v3_business_search&utm_source=R39z9kjZ-1HrCCc7SW6pcw", "review_count": 22, "categories": [{"alias": "tacos", "title": "Tacos"}, {"alias": "foodtrucks", "title": "Food Trucks"}], "rating": 4.5, "coordinates": {"latitude": 36.97017, "longitude": -122.02429}, "transactions": [], "location": {"address1": null, "address2": null, "address3": "", "city": "Santa Cruz", "zip_code": "95060", "country": "US", "state": "CA", "display_address": ["Santa Cruz, CA 95060"]}, "phone": "+18317130703", "display_phone": "(831) 713-0703", "distance": 85785.55721728428}, {"id": "sR0Wy3LYGdYV9HLszRlMmw", "alias": "tacos-la-palmita-stockton", "name": "Tacos La Palmita", "image_url": "https://s3-media2.fl.yelpcdn.com/bphoto/pzYoRmZjUQqxZ7qOyU7hUQ/o.jpg", "is_closed": false, "url": "https://www.yelp.com/biz/tacos-la-palmita-stockton?adjust_creative=R39z9kjZ-1HrCCc7SW6pcw&utm_campaign=yelp_api_v3&utm_medium=api_v3_business_search&utm_source=R39z9kjZ-1HrCCc7SW6pcw", "review_count": 90, "categories": [{"alias": "tacos", "title": "Tacos"}, {"alias": "foodtrucks", "title": "Food Trucks"}], "rating": 4.5, "coordinates": {"latitude": 38.008129, "longitude": -121.320219}, "transactions": ["delivery", "pickup"], "price": "$", "location": {"address1": "6393 Pacific Ave", "address2": null, "address3": null, "city": "Stockton", "zip_code": "95207", "country": "US", "state": "CA", "display_address": ["6393 Pacific Ave", "Stockton, CA 95207"]}, "phone": "+12093026825", "display_phone": "(209) 302-6825", "distance": 101587.1424028272}]}