{"location": "Calistoga, CA", "term": "restaurant", "radius": 1460, "businesses": [{"id": "ucXuxH-JOwyL_hi0uzXjVw", "alias": "lovina-calistoga", "name": "Lovina", "image_url": "https://s3-media1.fl.yelpcdn.com/bphoto/fiMg4W475YCh2BWvyTxh6w/o.jpg", "is_closed": false, "url": "https://www.yelp.com/biz/lovina-calistoga?adjust_creative=R39z9kjZ-1HrCCc7SW6pcw&utm_campaign=yelp_api_v3&utm_medium=api_v3_business_search&utm_source=R39z9kjZ-1HrCCc7SW6pcw", "review_count": 327, "categories": [{"alias": "newamerican", "title": "American (New)"}], "rating": 4.0, "coordinates": {"latitude": 38.57659, "longitude": -122.57964}, "transactions": [], "price": "$$", "location": {"address1": "1107 Cedar St", "address2": null, "address3": null, "city": "Calistoga", "zip_code": "94515", "country": "US", "state": "CA", "display_address": ["1107 Cedar St", "Calistoga, CA 94515"]}, "phone": "+17079426500", "display_phone": "(707) 942-6500", "distance": 704.6146695549795}, {"id": "U69SHL0P_DGbjaB8TNIwLg", "alias": "sams-social-club-calistoga-2", "name": "Sam's Social Club", "image_url": "https://s3-media1.fl.yelpcdn.com/bphoto/uzjx9KTkfdZXt6ek7T0CrA/o.jpg", "is_closed": false, "url": "https://www.yelp.com/biz/sams-social-club-calistoga-2?adjust_creative=R39z9kjZ-1HrCCc7SW6pcw&utm_campaign=yelp_api_v3&utm_medium=api_v3_business_search&utm_source=R39z9kjZ-1HrCCc7SW6pcw", "review_count": 640, "categories": [{"alias": "newamerican", "title": "American (New)"}, {"alias": "breakfast_brunch", "title": "Breakfast & Brunch"}], "rating": 4.0, "coordinates": {"latitude": 38.5822062, "longitude": -122.5752484}, "transactions": [], "price": "$$", "location": {"address1": "1712 Lincoln Ave", "address2": "", "address3": "", "city": "Calistoga", "zip_code": "94515", "country": "US", "state": "CA", "display_address": ["1712 Lincoln Ave", "Calistoga, CA 94515"]}, "phone": "+17079424969", "display_phone": "(707) 942-4969", "distance": 373.119116340177}, {"id": "XITkuNFTKXeDKotFD9dPxA", "alias": "solbar-calistoga", "name": "SolBar", "image_url": "https://s3-media1.fl.yelpcdn.com/bphoto/_5YbbLDJi15hVNEcpyuMSg/o.jpg", "is_closed": false, "url": "https://www.yelp.com/biz/solbar-calistoga?adjust_creative=R39z9kjZ-1HrCCc7SW6pcw&utm_campaign=yelp_api_v3&utm_medium=api_v3_business_search&utm_source=R39z9kjZ-1HrCCc7SW6pcw", "review_count": 1047, "categories": [{"alias": "newamerican", "title": "American (New)"}], "rating": 4.0, "coordinates": {"latitude": 38.585059, "longitude": -122.570257}, "transactions": [], "price": "$$$", "location": {"address1": "755 Silverado Trl", "address2": "", "address3": "Solage Hotel", "city": "Calistoga", "zip_code": "94515", "country": "US", "state": "CA", "display_address": ["755 Silverado Trl", "Solage Hotel", "Calistoga, CA 94515"]}, "phone": "+17072260860", "display_phone": "(707) 226-0860", "distance": 832.775111950216}, {"id": "41jZtOex0ITMwM353GYUFw", "alias": "evangeline-calistoga", "name": "Evangeline", "image_url": "https://s3-media1.fl.yelpcdn.com/bphoto/fkquwFV6Z3XgdHErBZSBEA/o.jpg", "is_closed": false, "url": "https://www.yelp.com/biz/evangeline-calistoga?adjust_creative=R39z9kjZ-1HrCCc7SW6pcw&utm_campaign=yelp_api_v3&utm_medium=api_v3_business_search&utm_source=R39z9kjZ-1HrCCc7SW6pcw", "review_count": 375, "categories": [{"alias": "cajun", "title": "Cajun/Creole"}, {"alias": "french", "title": "French"}, {"alias": "breakfast_brunch", "title": "Breakfast & Brunch"}], "rating": 4.0, "coordinates": {"latitude": 38.57905, "longitude": -122.57948}, "transactions": [], "price": "$$", "location": {"address1": "1226 Washington St", "address2": "", "address3": "", "city": "Calistoga", "zip_code": "94515", "country": "US", "state": "CA", "display_address": ["1226 Washington St", "Calistoga, CA 94515"]}, "phone": "+17073413131", "display_phone": "(707) 341-3131", "distance": 443.16885458802506}, {"id": "yPLq0SrnSnkTH1jQfgVMTA", "alias": "calistoga-inn-calistoga-7", "name": "Calistoga Inn", "image_url": "https://s3-media1.fl.yelpcdn.com/bphoto/BRpXx4V-EI-R8jsxmXkzkQ/o.jpg", "is_closed": false, "url": "https://www.yelp.com/biz/calistoga-inn-calistoga-7?adjust_creative=R39z9kjZ-1HrCCc7SW6pcw&utm_campaign=yelp_api_v3&utm_medium=api_v3_business_search&utm_source=R39z9kjZ-1HrCCc7SW6pcw", "review_count": 611, "categories": [{"alias": "newamerican", "title": "American (New)"}], "rating": 4.0, "coordinates": {"latitude": 38.576928, "longitude": -122.579623}, "transactions": [], "price": "$$", "location": {"address1": "1250 Lincoln Ave", "address2": "", "address3": "", "city": "Calistoga", "zip_code": "94515", "country": "US", "state": "CA", "display_address": ["1250 Lincoln Ave", "Calistoga, CA 94515"]}, "phone": "+17079424101", "display_phone": "(707) 942-4101", "distance": 667.1234587988743}, {"id": "k-qHjfk7xgFSp6meF_OOoQ", "alias": "all-seasons-calistoga", "name": "All Seasons", "image_url": "https://s3-media4.fl.yelpcdn.com/bphoto/lzektrpZDLZgIPBkpN-lNA/o.jpg", "is_closed": false, "url": "https://www.yelp.com/biz/all-seasons-calistoga?adjust_creative=R39z9kjZ-1HrCCc7SW6pcw&utm_campaign=yelp_api_v3&utm_medium=api_v3_business_search&utm_source=R39z9kjZ-1HrCCc7SW6pcw", "review_count": 379, "categories": [{"alias": "newamerican", "title": "American (New)"}], "rating": 4.0, "coordinates": {"latitude": 38.5786977, "longitude": -122.5787317}, "transactions": [], "price": "$$", "location": {"address1": "1400 Lincoln Ave", "address2": "", "address3": "", "city": "Calistoga", "zip_code": "94515", "country": "US", "state": "CA", "display_address": ["1400 Lincoln Ave", "Calistoga, CA 94515"]}, "phone": "+17079429111", "display_phone": "(707) 942-9111", "distance": 474.1808097745411}, {"id": "jem8ynMBXKVOFYc0c1009Q", "alias": "busters-original-southern-barbeque-calistoga", "name": "Buster's Original Southern Barbeque", "image_url": "https://s3-media3.fl.yelpcdn.com/bphoto/1HEsptzAu2H54fHNSRcDbw/o.jpg", "is_closed": false, "url": "https://www.yelp.com/biz/busters-original-southern-barbeque-calistoga?adjust_creative=R39z9kjZ-1HrCCc7SW6pcw&utm_campaign=yelp_api_v3&utm_medium=api_v3_business_search&utm_source=R39z9kjZ-1HrCCc7SW6pcw", "review_count": 810, "categories": [{"alias": "bbq", "title": "Barbeque"}], "rating": 3.5, "coordinates": {"latitude": 38.5751190185547, "longitude": -122.581123352051}, "transactions": [], "price": "$$", "location": {"address1": "1207 Foothill Blvd", "address2": "", "address3": "", "city": "Calistoga", "zip_code": "94515", "country": "US", "state": "CA", "display_address": ["1207 Foothill Blvd", "Calistoga, CA 94515"]}, "phone": "+17079425605", "display_phone": "(707) 942-5605", "distance": 861.4608754166933}, {"id": "o7p6KGbYXLhidd4io1G5zQ", "alias": "sushi-mambo-calistoga-2", "name": "Sushi Mambo", "image_url": "https://s3-media4.fl.yelpcdn.com/bphoto/ziEvdMLsp0jvsSAacJaqKA/o.jpg", "is_closed": false, "url": "https://www.yelp.com/biz/sushi-mambo-calistoga-2?adjust_creative=R39z9kjZ-1HrCCc7SW6pcw&utm_campaign=yelp_api_v3&utm_medium=api_v3_business_search&utm_source=R39z9kjZ-1HrCCc7SW6pcw", "review_count": 185, "categories": [{"alias": "japanese", "title": "Japanese"}, {"alias": "sushi", "title": "Sushi Bars"}], "rating": 4.0, "coordinates": {"latitude": 38.58158, "longitude": -122.57721}, "transactions": [], "price": "$$", "location": {"address1": "1631 Lincoln Ave", "address2": "", "address3": "", "city": "Calistoga", "zip_code": "94515", "country": "US", "state": "CA", "display_address": ["1631 Lincoln Ave", "Calistoga, CA 94515"]}, "phone": "+17079424699", "display_phone": "(707) 942-4699", "distance": 244.25712887486537}, {"id": "wUtgoHzUJqAKeu8LXxTgsw", "alias": "palisades-deli-cafe-calistoga", "name": "Palisades Deli Cafe", "image_url": "https://s3-media2.fl.yelpcdn.com/bphoto/axTadtM3iT-4Omaemdngkg/o.jpg", "is_closed": false, "url": "https://www.yelp.com/biz/palisades-deli-cafe-calistoga?adjust_creative=R39z9kjZ-1HrCCc7SW6pcw&utm_campaign=yelp_api_v3&utm_medium=api_v3_business_search&utm_source=R39z9kjZ-1HrCCc7SW6pcw", "review_count": 236, "categories": [{"alias": "delis", "title": "Delis"}], "rating": 4.0, "coordinates": {"latitude": 38.57981, "longitude": -122.57797}, "transactions": [], "price": "$", "location": {"address1": "1458 Lincoln Ave", "address2": "", "address3": "", "city": "Calistoga", "zip_code": "94515", "country": "US", "state": "CA", "display_address": ["1458 Lincoln Ave", "Calistoga, CA 94515"]}, "phone": "", "display_phone": "", "distance": 367.14229599688014}, {"id": "5ItSbBpo_w4ZF1idaURhPg", "alias": "lincoln-avenue-brewery-calistoga", "name": "Lincoln Avenue Brewery", "image_url": "https://s3-media3.fl.yelpcdn.com/bphoto/TUkW7I9fa2zslHL_-d11fg/o.jpg", "is_closed": false, "url": "https://www.yelp.com/biz/lincoln-avenue-brewery-calistoga?adjust_creative=R39z9kjZ-1HrCCc7SW6pcw&utm_campaign=yelp_api_v3&utm_medium=api_v3_business_search&utm_source=R39z9kjZ-1HrCCc7SW6pcw", "review_count": 28, "categories": [{"alias": "brewpubs", "title": "Brewpubs"}, {"alias": "salad", "title": "Salad"}, {"alias": "breakfast_brunch", "title": "Breakfast & Brunch"}], "rating": 4.5, "coordinates": {"latitude": 38.5801855468901, "longitude": -122.578512812423}, "transactions": [], "price": "$$", "location": {"address1": "1473 Lincoln Ave", "address2": "", "address3": null, "city": "Calistoga", "zip_code": "94515", "country": "US", "state": "CA", "display_address": ["1473 Lincoln Ave", "Calistoga, CA 94515"]}, "phone": "+17074035028", "display_phone": "(707) 403-5028", "distance": 315.2156141182289}, {"id": "K9qk5oKinmnD0NKg4tgjng", "alias": "veraison-calistoga", "name": "Veraison", "image_url": "https://s3-media1.fl.yelpcdn.com/bphoto/Wg3_hATgC9VnfYLcO9XhtQ/o.jpg", "is_closed": false, "url": "https://www.yelp.com/biz/veraison-calistoga?adjust_creative=R39z9kjZ-1HrCCc7SW6pcw&utm_campaign=yelp_api_v3&utm_medium=api_v3_business_search&utm_source=R39z9kjZ-1HrCCc7SW6pcw", "review_count": 99, "categories": [{"alias": "newamerican", "title": "American (New)"}, {"alias": "cocktailbars", "title": "Cocktail Bars"}, {"alias": "wine_bars", "title": "Wine Bars"}], "rating": 4.0, "coordinates": {"latitude": 38.5797271728516, "longitude": -122.579055786133}, "transactions": [], "price": "$$$", "location": {"address1": "1457 Lincoln Ave", "address2": null, "address3": "", "city": "Calistoga", "zip_code": "94515", "country": "US", "state": "CA", "display_address": ["1457 Lincoln Ave", "Calistoga, CA 94515"]}, "phone": "+17079425938", "display_phone": "(707) 942-5938", "distance": 367.1756653008855}, {"id": "y-FNcs8aDMkmXq-wrBhDXA", "alias": "johnnys-restaurant-and-bar-calistoga", "name": "Johnny's Restaurant & Bar", "image_url": "https://s3-media1.fl.yelpcdn.com/bphoto/Ax2kRVHYToTskq8F6qsrDg/o.jpg", "is_closed": false, "url": "https://www.yelp.com/biz/johnnys-restaurant-and-bar-calistoga?adjust_creative=R39z9kjZ-1HrCCc7SW6pcw&utm_campaign=yelp_api_v3&utm_medium=api_v3_business_search&utm_source=R39z9kjZ-1HrCCc7SW6pcw", "review_count": 199, "categories": [{"alias": "sportsbars", "title": "Sports Bars"}, {"alias": "breakfast_brunch", "title": "Breakfast & Brunch"}, {"alias": "tradamerican", "title": "American (Traditional)"}], "rating": 4.0, "coordinates": {"latitude": 38.5797271728516, "longitude": -122.579055786133}, "transactions": [], "price": "$$", "location": {"address1": "1457 Lincoln Ave", "address2": null, "address3": "", "city": "Calistoga", "zip_code": "94515", "country": "US", "state": "CA", "display_address": ["1457 Lincoln Ave", "Calistoga, CA 94515"]}, "phone": "+17079425938", "display_phone": "(707) 942-5938", "distance": 367.1756653008855}, {"id": "FMyOgYsgtBnlNi4qJSrTGQ", "alias": "puerto-vallarta-restaurant-calistoga", "name": "Puerto Vallarta Restaurant", "image_url": "https://s3-media2.fl.yelpcdn.com/bphoto/Zen8FFTO1R9qxSHiPd4oHQ/o.jpg", "is_closed": false, "url": "https://www.yelp.com/biz/puerto-vallarta-restaurant-calistoga?adjust_creative=R39z9kjZ-1HrCCc7SW6pcw&utm_campaign=yelp_api_v3&utm_medium=api_v3_business_search&utm_source=R39z9kjZ-1HrCCc7SW6pcw", "review_count": 8, "categories": [{"alias": "mexican", "title": "Mexican"}], "rating": 4.5, "coordinates": {"latitude": 38.578131, "longitude": -122.578917}, "transactions": [], "location": {"address1": "1350 Lincoln Ave", "address2": null, "address3": "", "city": "Calistoga", "zip_code": "94515", "country": "US", "state": "CA", "display_address": ["1350 Lincoln Ave", "Calistoga, CA 94515"]}, "phone": "+17073413442", "display_phone": "(707) 341-3442", "distance": 535.5374248960768}, {"id": "KZRZB5_7UqUGHq7rOFXKog", "alias": "hydro-bar-and-grill-calistoga", "name": "Hydro Bar & Grill", "image_url": "https://s3-media4.fl.yelpcdn.com/bphoto/rsXxAdYdNnFSVb4aO2PuMg/o.jpg", "is_closed": false, "url": "https://www.yelp.com/biz/hydro-bar-and-grill-calistoga?adjust_creative=R39z9kjZ-1HrCCc7SW6pcw&utm_campaign=yelp_api_v3&utm_medium=api_v3_business_search&utm_source=R39z9kjZ-1HrCCc7SW6pcw", "review_count": 483, "categories": [{"alias": "bars", "title": "Bars"}, {"alias": "tradamerican", "title": "American (Traditional)"}], "rating": 3.5, "coordinates": {"latitude": 38.578824, "longitude": -122.579121}, "transactions": [], "price": "$$", "location": {"address1": "1403 Lincoln Ave", "address2": "", "address3": "", "city": "Calistoga", "zip_code": "94515", "country": "US", "state": "CA", "display_address": ["1403 Lincoln Ave", "Calistoga, CA 94515"]}, "phone": "+17079429777", "display_phone": "(707) 942-9777", "distance": 456.9583975070059}, {"id": "Sd1z-T6kAYBGS5CLkpnzVg", "alias": "vallarta-market-calistoga", "name": "Vallarta Market", "image_url": "https://s3-media3.fl.yelpcdn.com/bphoto/xvGVjcUBsA-irhls4C248w/o.jpg", "is_closed": false, "url": "https://www.yelp.com/biz/vallarta-market-calistoga?adjust_creative=R39z9kjZ-1HrCCc7SW6pcw&utm_campaign=yelp_api_v3&utm_medium=api_v3_business_search&utm_source=R39z9kjZ-1HrCCc7SW6pcw", "review_count": 50, "categories": [{"alias": "grocery", "title": "Grocery"}, {"alias": "mexican", "title": "Mexican"}], "rating": 4.5, "coordinates": {"latitude": 38.57471, "longitude": -122.57952}, "transactions": [], "price": "$", "location": {"address1": "1009 Foothill Blvd", "address2": "", "address3": "", "city": "Calistoga", "zip_code": "94515", "country": "US", "state": "CA", "display_address": ["1009 Foothill Blvd", "Calistoga, CA 94515"]}, "phone": "+17079428664", "display_phone": "(707) 942-8664", "distance": 912.2806266719668}, {"id": "45n5-hnOmEAf5TEJ9QHuHg", "alias": "calistoga-roastery-calistoga", "name": "Calistoga Roastery", "image_url": "https://s3-media2.fl.yelpcdn.com/bphoto/ewm92dtyjV9Tc8yoDWyCvw/o.jpg", "is_closed": false, "url": "https://www.yelp.com/biz/calistoga-roastery-calistoga?adjust_creative=R39z9kjZ-1HrCCc7SW6pcw&utm_campaign=yelp_api_v3&utm_medium=api_v3_business_search&utm_source=R39z9kjZ-1HrCCc7SW6pcw", "review_count": 316, "categories": [{"alias": "breakfast_brunch", "title": "Breakfast & Brunch"}, {"alias": "coffeeroasteries", "title": "Coffee Roasteries"}], "rating": 4.0, "coordinates": {"latitude": 38.5791283347789, "longitude": -122.578565636525}, "transactions": [], "price": "$", "location": {"address1": "1426 Lincoln Ave", "address2": "", "address3": "", "city": "Calistoga", "zip_code": "94515", "country": "US", "state": "CA", "display_address": ["1426 Lincoln Ave", "Calistoga, CA 94515"]}, "phone": "+17079425757", "display_phone": "(707) 942-5757", "distance": 429.0719693457412}, {"id": "EwUAYicCXf-TAc-7nl-mzQ", "alias": "pacifico-calistoga", "name": "Pacifico", "image_url": "https://s3-media2.fl.yelpcdn.com/bphoto/Z2bLp80luA4XapzGLpwH8A/o.jpg", "is_closed": false, "url": "https://www.yelp.com/biz/pacifico-calistoga?adjust_creative=R39z9kjZ-1HrCCc7SW6pcw&utm_campaign=yelp_api_v3&utm_medium=api_v3_business_search&utm_source=R39z9kjZ-1HrCCc7SW6pcw", "review_count": 231, "categories": [{"alias": "mexican", "title": "Mexican"}], "rating": 3.5, "coordinates": {"latitude": 38.57677, "longitude": -122.58015}, "transactions": [], "price": "$$", "location": {"address1": "1237 Lincoln Ave", "address2": "", "address3": "", "city": "Calistoga", "zip_code": "94515", "country": "US", "state": "CA", "display_address": ["1237 Lincoln Ave", "Calistoga, CA 94515"]}, "phone": "+17079424400", "display_phone": "(707) 942-4400", "distance": 690.2630523977535}, {"id": "jwIUjTQtk9jFHl_ttoWxIw", "alias": "calistoga-thai-kitchen-calistoga", "name": "Calistoga Thai Kitchen", "image_url": "https://s3-media1.fl.yelpcdn.com/bphoto/bv06IzjK2qitR3tBf_QHGg/o.jpg", "is_closed": false, "url": "https://www.yelp.com/biz/calistoga-thai-kitchen-calistoga?adjust_creative=R39z9kjZ-1HrCCc7SW6pcw&utm_campaign=yelp_api_v3&utm_medium=api_v3_business_search&utm_source=R39z9kjZ-1HrCCc7SW6pcw", "review_count": 170, "categories": [{"alias": "thai", "title": "Thai"}], "rating": 3.5, "coordinates": {"latitude": 38.5783226539701, "longitude": -122.579304948449}, "transactions": [], "price": "$$", "location": {"address1": "1359 Lincoln Ave", "address2": "", "address3": "", "city": "Calistoga", "zip_code": "94515", "country": "US", "state": "CA", "display_address": ["1359 Lincoln Ave", "Calistoga, CA 94515"]}, "phone": "+17079421176", "display_phone": "(707) 942-1176", "distance": 511.9944612503138}, {"id": "EEoAvMa9lgxYWxyWrogItA", "alias": "cal-mart-calistoga", "name": "Cal Mart", "image_url": "https://s3-media1.fl.yelpcdn.com/bphoto/rPPmJtK6c5avKPv79rEKXA/o.jpg", "is_closed": false, "url": "https://www.yelp.com/biz/cal-mart-calistoga?adjust_creative=R39z9kjZ-1HrCCc7SW6pcw&utm_campaign=yelp_api_v3&utm_medium=api_v3_business_search&utm_source=R39z9kjZ-1HrCCc7SW6pcw", "review_count": 140, "categories": [{"alias": "grocery", "title": "Grocery"}, {"alias": "delis", "title": "Delis"}, {"alias": "cheese", "title": "Cheese Shops"}], "rating": 4.0, "coordinates": {"latitude": 38.580263, "longitude": -122.578894}, "transactions": [], "price": "$$", "location": {"address1": "1491 Lincoln Ave", "address2": "", "address3": "", "city": "Calistoga", "zip_code": "94515", "country": "US", "state": "CA", "display_address": ["1491 Lincoln Ave", "Calistoga, CA 94515"]}, "phone": "+17079426271", "display_phone": "(707) 942-6271", "distance": 299.89547884163284}, {"id": "CAakRYVdlI3EUhnm5kaC6A", "alias": "soo-yuan-restaurant-calistoga", "name": "Soo Yuan Restaurant", "image_url": "https://s3-media4.fl.yelpcdn.com/bphoto/2sHebimJ_cCmiMYHTiHcDA/o.jpg", "is_closed": false, "url": "https://www.yelp.com/biz/soo-yuan-restaurant-calistoga?adjust_creative=R39z9kjZ-1HrCCc7SW6pcw&utm_campaign=yelp_api_v3&utm_medium=api_v3_business_search&utm_source=R39z9kjZ-1HrCCc7SW6pcw", "review_count": 91, "categories": [{"alias": "chinese", "title": "Chinese"}], "rating": 3.5, "coordinates": {"latitude": 38.5782, "longitude": -122.57901}, "transactions": [], "price": "$$", "location": {"address1": "1354 Lincoln Ave", "address2": "", "address3": "", "city": "Calistoga", "zip_code": "94515", "country": "US", "state": "CA", "display_address": ["1354 Lincoln Ave", "Calistoga, CA 94515"]}, "phone": "+17079429404", "display_phone": "(707) 942-9404", "distance": 525.2397917924718}, {"id": "eKnLJgGLt2b4ZEy2ABFH2g", "alias": "palisades-eatery-calistoga", "name": "palisades eatery", "image_url": "https://s3-media2.fl.yelpcdn.com/bphoto/sD1KnoULQut_-6j0X8M8Yw/o.jpg", "is_closed": false, "url": "https://www.yelp.com/biz/palisades-eatery-calistoga?adjust_creative=R39z9kjZ-1HrCCc7SW6pcw&utm_campaign=yelp_api_v3&utm_medium=api_v3_business_search&utm_source=R39z9kjZ-1HrCCc7SW6pcw", "review_count": 12, "categories": [{"alias": "tacos", "title": "Tacos"}, {"alias": "pizza", "title": "Pizza"}, {"alias": "salad", "title": "Salad"}], "rating": 4.5, "coordinates": {"latitude": 38.578886, "longitude": -122.578574}, "transactions": [], "location": {"address1": "1414 Lincoln Ave", "address2": "", "address3": null, "city": "Calistoga", "zip_code": "94515", "country": "US", "state": "CA", "display_address": ["1414 Lincoln Ave", "Calistoga, CA 94515"]}, "phone": "+17079429300", "display_phone": "(707) 942-9300", "distance": 455.09648652865934}, {"id": "Aprti5FcnDA8DYBYIoS4xg", "alias": "la-prima-pizza-calistoga", "name": "La Prima Pizza", "image_url": "https://s3-media2.fl.yelpcdn.com/bphoto/KMe4B0acwjP5A1kRZ3Jjog/o.jpg", "is_closed": false, "url": "https://www.yelp.com/biz/la-prima-pizza-calistoga?adjust_creative=R39z9kjZ-1HrCCc7SW6pcw&utm_campaign=yelp_api_v3&utm_medium=api_v3_business_search&utm_source=R39z9kjZ-1HrCCc7SW6pcw", "review_count": 114, "categories": [{"alias": "pizza", "title": "Pizza"}, {"alias": "italian", "title": "Italian"}], "rating": 2.5, "coordinates": {"latitude": 38.58926, "longitude": -122.5778}, "transactions": [], "price": "$$", "location": {"address1": "1923 Lake St", "address2": "", "address3": "", "city": "Calistoga", "zip_code": "94515", "country": "US", "state": "CA", "display_address": ["1923 Lake St", "Calistoga, CA 94515"]}, "phone": "+17079428070", "display_phone": "(707) 942-8070", "distance": 717.5259799306461}, {"id": "XDHUIlyl_rPKItRRmjn0pQ", "alias": "cafe-sarafornia-calistoga", "name": "Cafe Sarafornia", "image_url": "https://s3-media2.fl.yelpcdn.com/bphoto/3lUmwROPymNkQ7bRnEnCnw/o.jpg", "is_closed": false, "url": "https://www.yelp.com/biz/cafe-sarafornia-calistoga?adjust_creative=R39z9kjZ-1HrCCc7SW6pcw&utm_campaign=yelp_api_v3&utm_medium=api_v3_business_search&utm_source=R39z9kjZ-1HrCCc7SW6pcw", "review_count": 524, "categories": [{"alias": "tradamerican", "title": "American (Traditional)"}, {"alias": "diners", "title": "Diners"}, {"alias": "breakfast_brunch", "title": "Breakfast & Brunch"}], "rating": 3.5, "coordinates": {"latitude": 38.5790099, "longitude": -122.57917}, "transactions": [], "price": "$$", "location": {"address1": "1413 Lincoln Ave", "address2": "", "address3": "", "city": "Calistoga", "zip_code": "94515", "country": "US", "state": "CA", "display_address": ["1413 Lincoln Ave", "Calistoga, CA 94515"]}, "phone": "+17079420555", "display_phone": "(707) 942-0555", "distance": 437.08791318837206}, {"id": "E_M2ojDXzIIbU3NnA_10Kw", "alias": "bella-bakery-calistoga", "name": "Bella Bakery", "image_url": "https://s3-media1.fl.yelpcdn.com/bphoto/2YYfd65VFxEjSAStcXoVfw/o.jpg", "is_closed": false, "url": "https://www.yelp.com/biz/bella-bakery-calistoga?adjust_creative=R39z9kjZ-1HrCCc7SW6pcw&utm_campaign=yelp_api_v3&utm_medium=api_v3_business_search&utm_source=R39z9kjZ-1HrCCc7SW6pcw", "review_count": 132, "categories": [{"alias": "bakeries", "title": "Bakeries"}, {"alias": "cafes", "title": "Cafes"}], "rating": 4.0, "coordinates": {"latitude": 38.5780754, "longitude": -122.5794067}, "transactions": [], "price": "$", "location": {"address1": "1353 Lincoln Ave", "address2": "", "address3": "", "city": "Calistoga", "zip_code": "94515", "country": "US", "state": "CA", "display_address": ["1353 Lincoln Ave", "Calistoga, CA 94515"]}, "phone": "+17079421443", "display_phone": "(707) 942-1443", "distance": 514.9077852915426}, {"id": "xg0QxzSY8P1H3GV2EWiK_g", "alias": "napa-valley-crust-st-helena", "name": "Napa Valley Crust", "image_url": "https://s3-media4.fl.yelpcdn.com/bphoto/_Oa2t_ccNnwdVXH9BuZv9Q/o.jpg", "is_closed": false, "url": "https://www.yelp.com/biz/napa-valley-crust-st-helena?adjust_creative=R39z9kjZ-1HrCCc7SW6pcw&utm_campaign=yelp_api_v3&utm_medium=api_v3_business_search&utm_source=R39z9kjZ-1HrCCc7SW6pcw", "review_count": 12, "categories": [{"alias": "foodtrucks", "title": "Food Trucks"}, {"alias": "pizza", "title": "Pizza"}], "rating": 4.5, "coordinates": {"latitude": 38.506296, "longitude": -122.469455}, "transactions": [], "location": {"address1": "1010 Adams St", "address2": null, "address3": "", "city": "St. Helena", "zip_code": "94574", "country": "US", "state": "CA", "display_address": ["1010 Adams St", "St. Helena, CA 94574"]}, "phone": "+17073961579", "display_phone": "(707) 396-1579", "distance": 12810.122257133415}, {"id": "7L-Z-W6gpPh05Klul88few", "alias": "deep-smoke-napa-napa-2", "name": "Deep Smoke Napa", "image_url": "https://s3-media2.fl.yelpcdn.com/bphoto/r0Y93GK6EZrXzwbIAYehtw/o.jpg", "is_closed": false, "url": "https://www.yelp.com/biz/deep-smoke-napa-napa-2?adjust_creative=R39z9kjZ-1HrCCc7SW6pcw&utm_campaign=yelp_api_v3&utm_medium=api_v3_business_search&utm_source=R39z9kjZ-1HrCCc7SW6pcw", "review_count": 8, "categories": [{"alias": "foodtrucks", "title": "Food Trucks"}, {"alias": "catering", "title": "Caterers"}, {"alias": "bbq", "title": "Barbeque"}], "rating": 5.0, "coordinates": {"latitude": 38.2971305847168, "longitude": -122.286437988281}, "transactions": [], "location": {"address1": "", "address2": null, "address3": "", "city": "Napa", "zip_code": "94581", "country": "US", "state": "CA", "display_address": ["Napa, CA 94581"]}, "phone": "+17073660227", "display_phone": "(707) 366-0227", "distance": 40863.67808619865}, {"id": "3zRfkzhTk7jzXNC0cKdWRg", "alias": "tortas-gigantes-metro-balderas-2-santa-rosa", "name": "Tortas Gigantes Metro Balderas 2", "image_url": "https://s3-media3.fl.yelpcdn.com/bphoto/1zH8mMORZDEuR8Eg1A4ilQ/o.jpg", "is_closed": false, "url": "https://www.yelp.com/biz/tortas-gigantes-metro-balderas-2-santa-rosa?adjust_creative=R39z9kjZ-1HrCCc7SW6pcw&utm_campaign=yelp_api_v3&utm_medium=api_v3_business_search&utm_source=R39z9kjZ-1HrCCc7SW6pcw", "review_count": 4, "categories": [{"alias": "foodtrucks", "title": "Food Trucks"}, {"alias": "mexican", "title": "Mexican"}], "rating": 4.0, "coordinates": {"latitude": 38.42913, "longitude": -122.73433}, "transactions": [], "price": "$", "location": {"address1": "1289 Sebastopol Rd", "address2": "", "address3": null, "city": "Santa Rosa", "zip_code": "95407", "country": "US", "state": "CA", "display_address": ["1289 Sebastopol Rd", "Santa Rosa, CA 95407"]}, "phone": "+17072604343", "display_phone": "(707) 260-4343", "distance": 21775.859485934347}, {"id": "i6ZwMjYIbmFZ8EGYz6x5Bw", "alias": "phat-salads-and-wraps-napa", "name": "Phat Salads and Wraps", "image_url": "https://s3-media2.fl.yelpcdn.com/bphoto/FbrUwtrVIx2cLXiPdBhHkw/o.jpg", "is_closed": false, "url": "https://www.yelp.com/biz/phat-salads-and-wraps-napa?adjust_creative=R39z9kjZ-1HrCCc7SW6pcw&utm_campaign=yelp_api_v3&utm_medium=api_v3_business_search&utm_source=R39z9kjZ-1HrCCc7SW6pcw", "review_count": 48, "categories": [{"alias": "foodtrucks", "title": "Food Trucks"}, {"alias": "wraps", "title": "Wraps"}], "rating": 4.0, "coordinates": {"latitude": 38.3234491, "longitude": -122.3023962}, "transactions": [], "price": "$", "location": {"address1": "", "address2": "", "address3": "", "city": "Napa", "zip_code": "94558", "country": "US", "state": "CA", "display_address": ["Napa, CA 94558"]}, "phone": "+17073639658", "display_phone": "(707) 363-9658", "distance": 37609.31386726415}]}