{"location": "Campbell, CA", "term": "restaurant", "radius": 2185, "businesses": [{"id": "LY4CcXCEK4HMjtUpkTellg", "alias": "water-tower-kitchen-campbell", "name": "Water Tower Kitchen", "image_url": "https://s3-media1.fl.yelpcdn.com/bphoto/mNKjS4IIPBX-WT2fsxfQFA/o.jpg", "is_closed": false, "url": "https://www.yelp.com/biz/water-tower-kitchen-campbell?adjust_creative=R39z9kjZ-1HrCCc7SW6pcw&utm_campaign=yelp_api_v3&utm_medium=api_v3_business_search&utm_source=R39z9kjZ-1HrCCc7SW6pcw", "review_count": 239, "categories": [{"alias": "newamerican", "title": "American (New)"}, {"alias": "sportsbars", "title": "Sports Bars"}, {"alias": "cocktailbars", "title": "Cocktail Bars"}], "rating": 4.0, "coordinates": {"latitude": 37.28649633, "longitude": -121.94411967}, "transactions": ["restaurant_reservation"], "price": "$$", "location": {"address1": "201 Orchard City Dr", "address2": null, "address3": "", "city": "Campbell", "zip_code": "95008", "country": "US", "state": "CA", "display_address": ["201 Orchard City Dr", "Campbell, CA 95008"]}, "phone": "+14085029550", "display_phone": "(408) 502-9550", "distance": 1455.2898539132602}, {"id": "599W_uz1sWXjj13AP-4zGA", "alias": "desi-contemporary-indian-casual-campbell", "name": "Desi - CONTEMPORARY | INDIAN | CASUAL", "image_url": "https://s3-media3.fl.yelpcdn.com/bphoto/QE1kQ7BRWtEelqwWuAaj2w/o.jpg", "is_closed": false, "url": "https://www.yelp.com/biz/desi-contemporary-indian-casual-campbell?adjust_creative=R39z9kjZ-1HrCCc7SW6pcw&utm_campaign=yelp_api_v3&utm_medium=api_v3_business_search&utm_source=R39z9kjZ-1HrCCc7SW6pcw", "review_count": 50, "categories": [{"alias": "indpak", "title": "Indian"}, {"alias": "halal", "title": "Halal"}, {"alias": "vegetarian", "title": "Vegetarian"}], "rating": 4.0, "coordinates": {"latitude": 37.2871364128, "longitude": -121.941122593}, "transactions": ["delivery", "pickup"], "location": {"address1": "501 E Campbell Ave", "address2": null, "address3": "", "city": "Campbell", "zip_code": "95008", "country": "US", "state": "CA", "display_address": ["501 E Campbell Ave", "Campbell, CA 95008"]}, "phone": "+14084298098", "display_phone": "(408) 429-8098", "distance": 1702.4398277712182}, {"id": "5uc07F6ztscpuPTQdmUZsg", "alias": "sorelle-italian-bistro-campbell", "name": "Sorelle Italian Bistro", "image_url": "https://s3-media3.fl.yelpcdn.com/bphoto/_sWbh0h2QLcubymZ2P7Q9Q/o.jpg", "is_closed": false, "url": "https://www.yelp.com/biz/sorelle-italian-bistro-campbell?adjust_creative=R39z9kjZ-1HrCCc7SW6pcw&utm_campaign=yelp_api_v3&utm_medium=api_v3_business_search&utm_source=R39z9kjZ-1HrCCc7SW6pcw", "review_count": 597, "categories": [{"alias": "italian", "title": "Italian"}], "rating": 4.5, "coordinates": {"latitude": 37.273802, "longitude": -121.971816}, "transactions": [], "price": "$$", "location": {"address1": "915 S San Tomas Aquino Rd", "address2": "", "address3": "", "city": "Campbell", "zip_code": "95008", "country": "US", "state": "CA", "display_address": ["915 S San Tomas Aquino Rd", "Campbell, CA 95008"]}, "phone": "+14083741800", "display_phone": "(408) 374-1800", "distance": 1405.1903044405626}, {"id": "lgaztTKKQE3FERGYu5XsOw", "alias": "krispy-krunchy-chicken-campbell", "name": "Krispy Krunchy Chicken", "image_url": "https://s3-media1.fl.yelpcdn.com/bphoto/QBqFJvP1zMlls__q5wjHVg/o.jpg", "is_closed": false, "url": "https://www.yelp.com/biz/krispy-krunchy-chicken-campbell?adjust_creative=R39z9kjZ-1HrCCc7SW6pcw&utm_campaign=yelp_api_v3&utm_medium=api_v3_business_search&utm_source=R39z9kjZ-1HrCCc7SW6pcw", "review_count": 34, "categories": [{"alias": "cajun", "title": "Cajun/Creole"}], "rating": 4.0, "coordinates": {"latitude": 37.2720286045189, "longitude": -121.954545518884}, "transactions": [], "location": {"address1": "2855 S Winchester Blvd", "address2": "", "address3": null, "city": "Campbell", "zip_code": "95008", "country": "US", "state": "CA", "display_address": ["2855 S Winchester Blvd", "Campbell, CA 95008"]}, "phone": "+14083798612", "display_phone": "(408) 379-8612", "distance": 775.7861590681291}, {"id": "Ahga5g0HufU_G7S1n8WL8g", "alias": "trattoria-360-campbell", "name": "Trattoria 360", "image_url": "https://s3-media4.fl.yelpcdn.com/bphoto/g-pP3RrTieiY1WsE6Nl0ZQ/o.jpg", "is_closed": false, "url": "https://www.yelp.com/biz/trattoria-360-campbell?adjust_creative=R39z9kjZ-1HrCCc7SW6pcw&utm_campaign=yelp_api_v3&utm_medium=api_v3_business_search&utm_source=R39z9kjZ-1HrCCc7SW6pcw", "review_count": 109, "categories": [{"alias": "italian", "title": "Italian"}], "rating": 5.0, "coordinates": {"latitude": 37.286905, "longitude": -121.943731616126}, "transactions": [], "location": {"address1": "360 E Campbell Ave", "address2": "", "address3": null, "city": "Campbell", "zip_code": "95008", "country": "US", "state": "CA", "display_address": ["360 E Campbell Ave", "Campbell, CA 95008"]}, "phone": "+14084298671", "display_phone": "(408) 429-8671", "distance": 1499.504097006858}, {"id": "LRLkFtnJvNjmcV_G-dgqmA", "alias": "naschmarkt-restaurant-campbell-4", "name": "Naschmarkt Restaurant", "image_url": "https://s3-media2.fl.yelpcdn.com/bphoto/miPgokR7sAaORve6KosEAQ/o.jpg", "is_closed": false, "url": "https://www.yelp.com/biz/naschmarkt-restaurant-campbell-4?adjust_creative=R39z9kjZ-1HrCCc7SW6pcw&utm_campaign=yelp_api_v3&utm_medium=api_v3_business_search&utm_source=R39z9kjZ-1HrCCc7SW6pcw", "review_count": 1098, "categories": [{"alias": "austrian", "title": "Austrian"}, {"alias": "german", "title": "German"}, {"alias": "modern_european", "title": "Modern European"}], "rating": 4.5, "coordinates": {"latitude": 37.2868564, "longitude": -121.942959}, "transactions": [], "price": "$$$", "location": {"address1": "384 E Campbell Ave", "address2": "", "address3": "", "city": "Campbell", "zip_code": "95008", "country": "US", "state": "CA", "display_address": ["384 E Campbell Ave", "Campbell, CA 95008"]}, "phone": "+14083780335", "display_phone": "(408) 378-0335", "distance": 1551.0835186947706}, {"id": "cGNe6yJBYQTThx9Foq3F1w", "alias": "lequy-campbell", "name": "LeQuy", "image_url": "https://s3-media1.fl.yelpcdn.com/bphoto/RYtfk8j_2BKCZ7itP1URng/o.jpg", "is_closed": false, "url": "https://www.yelp.com/biz/lequy-campbell?adjust_creative=R39z9kjZ-1HrCCc7SW6pcw&utm_campaign=yelp_api_v3&utm_medium=api_v3_business_search&utm_source=R39z9kjZ-1HrCCc7SW6pcw", "review_count": 770, "categories": [{"alias": "vietnamese", "title": "Vietnamese"}, {"alias": "noodles", "title": "Noodles"}, {"alias": "wraps", "title": "Wraps"}], "rating": 4.0, "coordinates": {"latitude": 37.286465, "longitude": -121.974961}, "transactions": ["restaurant_reservation", "delivery", "pickup"], "price": "$$", "location": {"address1": "1461 W Campbell Ave", "address2": "", "address3": "", "city": "Campbell", "zip_code": "95008", "country": "US", "state": "CA", "display_address": ["1461 W Campbell Ave", "Campbell, CA 95008"]}, "phone": "+14088717171", "display_phone": "(408) 871-7171", "distance": 1796.1528671599106}, {"id": "2o52fN_0cTsEIlf2ilefAw", "alias": "el-greco-grill-campbell", "name": "El Greco Grill", "image_url": "https://s3-media2.fl.yelpcdn.com/bphoto/vGjQuE78D2NfrPikCX1uww/o.jpg", "is_closed": false, "url": "https://www.yelp.com/biz/el-greco-grill-campbell?adjust_creative=R39z9kjZ-1HrCCc7SW6pcw&utm_campaign=yelp_api_v3&utm_medium=api_v3_business_search&utm_source=R39z9kjZ-1HrCCc7SW6pcw", "review_count": 255, "categories": [{"alias": "greek", "title": "Greek"}, {"alias": "mediterranean", "title": "Mediterranean"}, {"alias": "catering", "title": "Caterers"}], "rating": 4.5, "coordinates": {"latitude": 37.281144, "longitude": -121.950359}, "transactions": ["delivery", "pickup"], "price": "$$", "location": {"address1": "2325 S Winchester Blvd", "address2": "", "address3": null, "city": "Campbell", "zip_code": "95008", "country": "US", "state": "CA", "display_address": ["2325 S Winchester Blvd", "Campbell, CA 95008"]}, "phone": "+14084128583", "display_phone": "(408) 412-8583", "distance": 661.5871576401909}, {"id": "O0R8TkEE2eWDnp9xOOjHBQ", "alias": "a-bellagio-italian-restaurant-campbell-2", "name": "A Bellagio Italian Restaurant", "image_url": "https://s3-media3.fl.yelpcdn.com/bphoto/ySUQxlKRx7OuTuN6NznNEw/o.jpg", "is_closed": false, "url": "https://www.yelp.com/biz/a-bellagio-italian-restaurant-campbell-2?adjust_creative=R39z9kjZ-1HrCCc7SW6pcw&utm_campaign=yelp_api_v3&utm_medium=api_v3_business_search&utm_source=R39z9kjZ-1HrCCc7SW6pcw", "review_count": 950, "categories": [{"alias": "italian", "title": "Italian"}], "rating": 4.0, "coordinates": {"latitude": 37.2865477562745, "longitude": -121.943798480214}, "transactions": ["pickup"], "price": "$$", "location": {"address1": "33 S Central Ave", "address2": null, "address3": "", "city": "Campbell", "zip_code": "95008", "country": "US", "state": "CA", "display_address": ["33 S Central Ave", "Campbell, CA 95008"]}, "phone": "+14083707705", "display_phone": "(408) 370-7705", "distance": 1470.869923344095}, {"id": "TeBae7JAYIptn37IqzngEw", "alias": "luigis-pizza-and-pasta-campbell", "name": "Luigi's Pizza & Pasta", "image_url": "https://s3-media2.fl.yelpcdn.com/bphoto/UqBXCjN-fRcAA107nFh-vg/o.jpg", "is_closed": false, "url": "https://www.yelp.com/biz/luigis-pizza-and-pasta-campbell?adjust_creative=R39z9kjZ-1HrCCc7SW6pcw&utm_campaign=yelp_api_v3&utm_medium=api_v3_business_search&utm_source=R39z9kjZ-1HrCCc7SW6pcw", "review_count": 563, "categories": [{"alias": "pizza", "title": "Pizza"}, {"alias": "italian", "title": "Italian"}], "rating": 4.0, "coordinates": {"latitude": 37.278512215687, "longitude": -121.950654435721}, "transactions": ["delivery", "pickup"], "price": "$$", "location": {"address1": "2495 Winchester Blvd", "address2": "", "address3": "", "city": "Campbell", "zip_code": "95008", "country": "US", "state": "CA", "display_address": ["2495 Winchester Blvd", "Campbell, CA 95008"]}, "phone": "+14083786862", "display_phone": "(408) 378-6862", "distance": 576.679712753874}, {"id": "kvqke-AsCgif0KVmBCwjxQ", "alias": "willard-hicks-campbell", "name": "Willard Hicks", "image_url": "https://s3-media2.fl.yelpcdn.com/bphoto/CB37P5gzQx5Dh7vBlytiuw/o.jpg", "is_closed": false, "url": "https://www.yelp.com/biz/willard-hicks-campbell?adjust_creative=R39z9kjZ-1HrCCc7SW6pcw&utm_campaign=yelp_api_v3&utm_medium=api_v3_business_search&utm_source=R39z9kjZ-1HrCCc7SW6pcw", "review_count": 911, "categories": [{"alias": "newamerican", "title": "American (New)"}, {"alias": "steak", "title": "Steakhouses"}, {"alias": "desserts", "title": "Desserts"}], "rating": 4.0, "coordinates": {"latitude": 37.2869151, "longitude": -121.9446231}, "transactions": [], "price": "$$$", "location": {"address1": "280 E Campbell Ave", "address2": "", "address3": "", "city": "Campbell", "zip_code": "95008", "country": "US", "state": "CA", "display_address": ["280 E Campbell Ave", "Campbell, CA 95008"]}, "phone": "+14083745000", "display_phone": "(408) 374-5000", "distance": 1430.817277839066}, {"id": "hTTLtCCU0hYXc7t5C9OTmg", "alias": "brew-city-grill-campbell-3", "name": "Brew City Grill", "image_url": "https://s3-media1.fl.yelpcdn.com/bphoto/ojDqXt3jlmOWSsXUax7F9Q/o.jpg", "is_closed": false, "url": "https://www.yelp.com/biz/brew-city-grill-campbell-3?adjust_creative=R39z9kjZ-1HrCCc7SW6pcw&utm_campaign=yelp_api_v3&utm_medium=api_v3_business_search&utm_source=R39z9kjZ-1HrCCc7SW6pcw", "review_count": 56, "categories": [{"alias": "beerbar", "title": "Beer Bar"}, {"alias": "pizza", "title": "Pizza"}, {"alias": "burgers", "title": "Burgers"}], "rating": 4.5, "coordinates": {"latitude": 37.29498, "longitude": -121.96209}, "transactions": ["delivery", "pickup"], "price": "$$", "location": {"address1": "651 W Hamilton Ave", "address2": "Ste 1070", "address3": "", "city": "Campbell", "zip_code": "95008", "country": "US", "state": "CA", "display_address": ["651 W Hamilton Ave", "Ste 1070", "Campbell, CA 95008"]}, "phone": "+14089636991", "display_phone": "(408) 963-6991", "distance": 1830.7643537852928}, {"id": "Ddvylakaa6FCFK-pcDhxWg", "alias": "il-sogno-campbell-3", "name": "Il Sogno", "image_url": "https://s3-media2.fl.yelpcdn.com/bphoto/pSZ-veN2-dKwOuJQO1ZTow/o.jpg", "is_closed": false, "url": "https://www.yelp.com/biz/il-sogno-campbell-3?adjust_creative=R39z9kjZ-1HrCCc7SW6pcw&utm_campaign=yelp_api_v3&utm_medium=api_v3_business_search&utm_source=R39z9kjZ-1HrCCc7SW6pcw", "review_count": 140, "categories": [{"alias": "italian", "title": "Italian"}], "rating": 3.5, "coordinates": {"latitude": 37.28667, "longitude": -121.94639}, "transactions": ["restaurant_reservation"], "price": "$$", "location": {"address1": "200 E Campbell Ave", "address2": "", "address3": null, "city": "Campbell", "zip_code": "95008", "country": "US", "state": "CA", "display_address": ["200 E Campbell Ave", "Campbell, CA 95008"]}, "phone": "+14087967584", "display_phone": "(408) 796-7584", "distance": 1315.4045753525263}, {"id": "YxX_ofmh_sHiHVLS7MdFNw", "alias": "the-vesper-campbell-4", "name": "The Vesper", "image_url": "https://s3-media2.fl.yelpcdn.com/bphoto/hPJpIVoB0SAtGUfIGiEP1g/o.jpg", "is_closed": false, "url": "https://www.yelp.com/biz/the-vesper-campbell-4?adjust_creative=R39z9kjZ-1HrCCc7SW6pcw&utm_campaign=yelp_api_v3&utm_medium=api_v3_business_search&utm_source=R39z9kjZ-1HrCCc7SW6pcw", "review_count": 322, "categories": [{"alias": "cocktailbars", "title": "Cocktail Bars"}, {"alias": "newamerican", "title": "American (New)"}], "rating": 4.0, "coordinates": {"latitude": 37.2868, "longitude": -121.94297}, "transactions": [], "price": "$$", "location": {"address1": "394 E Campbell Ave", "address2": "", "address3": "", "city": "Campbell", "zip_code": "95008", "country": "US", "state": "CA", "display_address": ["394 E Campbell Ave", "Campbell, CA 95008"]}, "phone": "+14086800401", "display_phone": "(408) 680-0401", "distance": 1551.4782343946492}, {"id": "f37oYcZBET2K2B-gYlpB-g", "alias": "uncle-johns-pancake-house-campbell", "name": "Uncle John's Pancake House", "image_url": "https://s3-media1.fl.yelpcdn.com/bphoto/enyQ6NSaMKM826vRvC8J2Q/o.jpg", "is_closed": false, "url": "https://www.yelp.com/biz/uncle-johns-pancake-house-campbell?adjust_creative=R39z9kjZ-1HrCCc7SW6pcw&utm_campaign=yelp_api_v3&utm_medium=api_v3_business_search&utm_source=R39z9kjZ-1HrCCc7SW6pcw", "review_count": 734, "categories": [{"alias": "breakfast_brunch", "title": "Breakfast & Brunch"}], "rating": 4.0, "coordinates": {"latitude": 37.2850569, "longitude": -121.9500098}, "transactions": ["delivery", "pickup"], "price": "$$", "location": {"address1": "2125 S Winchester Blvd", "address2": "", "address3": "", "city": "Campbell", "zip_code": "95008", "country": "US", "state": "CA", "display_address": ["2125 S Winchester Blvd", "Campbell, CA 95008"]}, "phone": "+14087249835", "display_phone": "(408) 724-9835", "distance": 956.5662402069048}, {"id": "8mTr1q-s8dXDAhQPbLn83Q", "alias": "tapsilog-bistro-campbell", "name": "Tapsilog Bistro", "image_url": "https://s3-media1.fl.yelpcdn.com/bphoto/RWhxkcXEVe-O8GJVlrFGkA/o.jpg", "is_closed": false, "url": "https://www.yelp.com/biz/tapsilog-bistro-campbell?adjust_creative=R39z9kjZ-1HrCCc7SW6pcw&utm_campaign=yelp_api_v3&utm_medium=api_v3_business_search&utm_source=R39z9kjZ-1HrCCc7SW6pcw", "review_count": 1271, "categories": [{"alias": "filipino", "title": "Filipino"}, {"alias": "breakfast_brunch", "title": "Breakfast & Brunch"}], "rating": 4.0, "coordinates": {"latitude": 37.2948, "longitude": -121.96382}, "transactions": [], "price": "$$", "location": {"address1": "819 W Hamilton Ave", "address2": "", "address3": "", "city": "Campbell", "zip_code": "95008", "country": "US", "state": "CA", "display_address": ["819 W Hamilton Ave", "Campbell, CA 95008"]}, "phone": "+14084128926", "display_phone": "(408) 412-8926", "distance": 1900.681610414383}, {"id": "zzgL1hABTgiOnwNLHYDmKA", "alias": "tigelleria-organic-restaurant-campbell", "name": "Tigelleria Organic Restaurant", "image_url": "https://s3-media2.fl.yelpcdn.com/bphoto/nGwx_GM6SHnLXusgAPEG2Q/o.jpg", "is_closed": false, "url": "https://www.yelp.com/biz/tigelleria-organic-restaurant-campbell?adjust_creative=R39z9kjZ-1HrCCc7SW6pcw&utm_campaign=yelp_api_v3&utm_medium=api_v3_business_search&utm_source=R39z9kjZ-1HrCCc7SW6pcw", "review_count": 836, "categories": [{"alias": "italian", "title": "Italian"}, {"alias": "wine_bars", "title": "Wine Bars"}, {"alias": "desserts", "title": "Desserts"}], "rating": 3.5, "coordinates": {"latitude": 37.2868870280173, "longitude": -121.948320528836}, "transactions": [], "price": "$$$", "location": {"address1": "76 E Campbell Ave", "address2": "", "address3": "", "city": "Campbell", "zip_code": "95008", "country": "US", "state": "CA", "display_address": ["76 E Campbell Ave", "Campbell, CA 95008"]}, "phone": "+14088843808", "display_phone": "(408) 884-3808", "distance": 1201.831976118119}, {"id": "bCMEyV3vxi0n1kgX5yD80w", "alias": "blue-line-pizza-campbell", "name": "Blue Line Pizza", "image_url": "https://s3-media1.fl.yelpcdn.com/bphoto/A_kPzRCe7Q_7kwyOtufaEA/o.jpg", "is_closed": false, "url": "https://www.yelp.com/biz/blue-line-pizza-campbell?adjust_creative=R39z9kjZ-1HrCCc7SW6pcw&utm_campaign=yelp_api_v3&utm_medium=api_v3_business_search&utm_source=R39z9kjZ-1HrCCc7SW6pcw", "review_count": 1159, "categories": [{"alias": "pizza", "title": "Pizza"}, {"alias": "gluten_free", "title": "Gluten-Free"}, {"alias": "catering", "title": "Caterers"}], "rating": 4.0, "coordinates": {"latitude": 37.28724, "longitude": -121.94265}, "transactions": [], "price": "$$", "location": {"address1": "415 E Campbell Ave", "address2": null, "address3": "", "city": "Campbell", "zip_code": "95008", "country": "US", "state": "CA", "display_address": ["415 E Campbell Ave", "Campbell, CA 95008"]}, "phone": "+14083782800", "display_phone": "(408) 378-2800", "distance": 1603.1250476452192}, {"id": "KGrtGoxwrK2hY9nVgzS7mg", "alias": "pupuseria-los-dubon-campbell-3", "name": "Pupuseria Los Dubon", "image_url": "https://s3-media1.fl.yelpcdn.com/bphoto/Ah7eAFw3xYdnrOu7QlK_7Q/o.jpg", "is_closed": false, "url": "https://www.yelp.com/biz/pupuseria-los-dubon-campbell-3?adjust_creative=R39z9kjZ-1HrCCc7SW6pcw&utm_campaign=yelp_api_v3&utm_medium=api_v3_business_search&utm_source=R39z9kjZ-1HrCCc7SW6pcw", "review_count": 343, "categories": [{"alias": "latin", "title": "Latin American"}], "rating": 4.0, "coordinates": {"latitude": 37.26715, "longitude": -121.94182}, "transactions": [], "price": "$", "location": {"address1": "1546 Camden Ave", "address2": "", "address3": "", "city": "Campbell", "zip_code": "95008", "country": "US", "state": "CA", "display_address": ["1546 Camden Ave", "Campbell, CA 95008"]}, "phone": "+14086267986", "display_phone": "(408) 626-7986", "distance": 1867.987021137474}, {"id": "2CnigIFXTQqG24famRz1nw", "alias": "flights-restaurant-campbell-2", "name": "Flights Restaurant", "image_url": "https://s3-media1.fl.yelpcdn.com/bphoto/rbHAycu7u9x6aN0Zx_QS9Q/o.jpg", "is_closed": false, "url": "https://www.yelp.com/biz/flights-restaurant-campbell-2?adjust_creative=R39z9kjZ-1HrCCc7SW6pcw&utm_campaign=yelp_api_v3&utm_medium=api_v3_business_search&utm_source=R39z9kjZ-1HrCCc7SW6pcw", "review_count": 1361, "categories": [{"alias": "newamerican", "title": "American (New)"}, {"alias": "cocktailbars", "title": "Cocktail Bars"}, {"alias": "seafood", "title": "Seafood"}], "rating": 4.0, "coordinates": {"latitude": 37.28688, "longitude": -121.9434}, "transactions": [], "price": "$$", "location": {"address1": "368 E Campbell Ave", "address2": null, "address3": null, "city": "Campbell", "zip_code": "95008", "country": "US", "state": "CA", "display_address": ["368 E Campbell Ave", "Campbell, CA 95008"]}, "phone": "+14083641564", "display_phone": "(408) 364-1564", "distance": 1520.2840367679396}, {"id": "MCu8Flgxne-Nt0UXoI0RWA", "alias": "lvl-up-campbell-2", "name": "LVL Up", "image_url": "https://s3-media2.fl.yelpcdn.com/bphoto/mQGMQ-PKvVxWKhh8eCEL_g/o.jpg", "is_closed": false, "url": "https://www.yelp.com/biz/lvl-up-campbell-2?adjust_creative=R39z9kjZ-1HrCCc7SW6pcw&utm_campaign=yelp_api_v3&utm_medium=api_v3_business_search&utm_source=R39z9kjZ-1HrCCc7SW6pcw", "review_count": 138, "categories": [{"alias": "cocktailbars", "title": "Cocktail Bars"}, {"alias": "arcades", "title": "Arcades"}, {"alias": "gastropubs", "title": "Gastropubs"}], "rating": 4.0, "coordinates": {"latitude": 37.2868, "longitude": -121.94281}, "transactions": [], "price": "$$", "location": {"address1": "400 E Campbell Ave", "address2": "", "address3": null, "city": "Campbell", "zip_code": "95008", "country": "US", "state": "CA", "display_address": ["400 E Campbell Ave", "Campbell, CA 95008"]}, "phone": "+14084298472", "display_phone": "(408) 429-8472", "distance": 1567.265001965607}, {"id": "49Y4iIAnm9kTjaNSmRiZZQ", "alias": "kaizen-japanese-bar-and-grill-campbell", "name": "Kaizen Japanese Bar & Grill", "image_url": "https://s3-media4.fl.yelpcdn.com/bphoto/kCBIpPVU5jZAju-4JTsGmg/o.jpg", "is_closed": false, "url": "https://www.yelp.com/biz/kaizen-japanese-bar-and-grill-campbell?adjust_creative=R39z9kjZ-1HrCCc7SW6pcw&utm_campaign=yelp_api_v3&utm_medium=api_v3_business_search&utm_source=R39z9kjZ-1HrCCc7SW6pcw", "review_count": 683, "categories": [{"alias": "japanese", "title": "Japanese"}, {"alias": "sushi", "title": "Sushi Bars"}], "rating": 4.0, "coordinates": {"latitude": 37.2935822068361, "longitude": -121.944339391404}, "transactions": [], "price": "$$", "location": {"address1": "330 E Hamilton Ave", "address2": "Ste 7", "address3": "", "city": "Campbell", "zip_code": "95008", "country": "US", "state": "CA", "display_address": ["330 E Hamilton Ave", "Ste 7", "Campbell, CA 95008"]}, "phone": "+14083701600", "display_phone": "(408) 370-1600", "distance": 2007.940885557821}, {"id": "ROw3ng8WhwF_L9rNp28KEA", "alias": "aqui-cal-mex-campbell", "name": "Aqui Cal-Mex", "image_url": "https://s3-media4.fl.yelpcdn.com/bphoto/_aF_GoIWAhbUZKqRhQM1KQ/o.jpg", "is_closed": false, "url": "https://www.yelp.com/biz/aqui-cal-mex-campbell?adjust_creative=R39z9kjZ-1HrCCc7SW6pcw&utm_campaign=yelp_api_v3&utm_medium=api_v3_business_search&utm_source=R39z9kjZ-1HrCCc7SW6pcw", "review_count": 1251, "categories": [{"alias": "mexican", "title": "Mexican"}, {"alias": "tex-mex", "title": "Tex-Mex"}, {"alias": "latin", "title": "Latin American"}], "rating": 4.0, "coordinates": {"latitude": 37.28726, "longitude": -121.94653}, "transactions": ["pickup"], "price": "$$", "location": {"address1": "201 E Campbell Ave", "address2": "", "address3": "", "city": "Campbell", "zip_code": "95008", "country": "US", "state": "CA", "display_address": ["201 E Campbell Ave", "Campbell, CA 95008"]}, "phone": "+14083742784", "display_phone": "(408) 374-2784", "distance": 1347.0883265364696}, {"id": "88UrD1nFC_hIBbg3x6qL3w", "alias": "sushi-confidential-campbell", "name": "Sushi Confidential", "image_url": "https://s3-media4.fl.yelpcdn.com/bphoto/5iQoc4UphuaOHLsmhXTotA/o.jpg", "is_closed": false, "url": "https://www.yelp.com/biz/sushi-confidential-campbell?adjust_creative=R39z9kjZ-1HrCCc7SW6pcw&utm_campaign=yelp_api_v3&utm_medium=api_v3_business_search&utm_source=R39z9kjZ-1HrCCc7SW6pcw", "review_count": 1187, "categories": [{"alias": "asianfusion", "title": "Asian Fusion"}, {"alias": "sushi", "title": "Sushi Bars"}, {"alias": "japanese", "title": "Japanese"}], "rating": 3.5, "coordinates": {"latitude": 37.28735, "longitude": -121.94543}, "transactions": ["restaurant_reservation"], "price": "$$", "location": {"address1": "247 E Campbell Ave", "address2": "", "address3": "", "city": "Campbell", "zip_code": "95008", "country": "US", "state": "CA", "display_address": ["247 E Campbell Ave", "Campbell, CA 95008"]}, "phone": "+14085965554", "display_phone": "(408) 596-5554", "distance": 1411.0309764224291}, {"id": "PCUzAxUa0jzFCIpSFwwzpQ", "alias": "la-pizzeria-campbell", "name": "La Pizzeria", "image_url": "https://s3-media3.fl.yelpcdn.com/bphoto/pUVsBvPKWiGAgiHJT9Up7g/o.jpg", "is_closed": false, "url": "https://www.yelp.com/biz/la-pizzeria-campbell?adjust_creative=R39z9kjZ-1HrCCc7SW6pcw&utm_campaign=yelp_api_v3&utm_medium=api_v3_business_search&utm_source=R39z9kjZ-1HrCCc7SW6pcw", "review_count": 750, "categories": [{"alias": "pizza", "title": "Pizza"}, {"alias": "italian", "title": "Italian"}, {"alias": "vegan", "title": "Vegan"}], "rating": 4.0, "coordinates": {"latitude": 37.2871531, "longitude": -121.9432429}, "transactions": [], "price": "$$", "location": {"address1": "373 E Campbell Ave", "address2": null, "address3": "", "city": "Campbell", "zip_code": "95008", "country": "US", "state": "CA", "display_address": ["373 E Campbell Ave", "Campbell, CA 95008"]}, "phone": "+14083700826", "display_phone": "(408) 370-0826", "distance": 1550.602122052328}, {"id": "mdTHTg28Qes1qtdFJUWxVA", "alias": "casa-lupe-restaurant-campbell", "name": "Casa Lupe Restaurant", "image_url": "https://s3-media3.fl.yelpcdn.com/bphoto/dfd7rELGYHa6Hs9pUwvksA/o.jpg", "is_closed": false, "url": "https://www.yelp.com/biz/casa-lupe-restaurant-campbell?adjust_creative=R39z9kjZ-1HrCCc7SW6pcw&utm_campaign=yelp_api_v3&utm_medium=api_v3_business_search&utm_source=R39z9kjZ-1HrCCc7SW6pcw", "review_count": 420, "categories": [{"alias": "mexican", "title": "Mexican"}], "rating": 3.5, "coordinates": {"latitude": 37.283762, "longitude": -121.9499549}, "transactions": [], "price": "$$", "location": {"address1": "2165 Winchester Blvd", "address2": "", "address3": "", "city": "Campbell", "zip_code": "95008", "country": "US", "state": "CA", "display_address": ["2165 Winchester Blvd", "Campbell, CA 95008"]}, "phone": "+14083781277", "display_phone": "(408) 378-1277", "distance": 852.2422294110755}, {"id": "zU6qaDCt07ijq1nzCSpofA", "alias": "yummee-sandwiches-campbell", "name": "Yummee Sandwiches", "image_url": "https://s3-media2.fl.yelpcdn.com/bphoto/N8fsu-JEN9E3k79WcVApgA/o.jpg", "is_closed": false, "url": "https://www.yelp.com/biz/yummee-sandwiches-campbell?adjust_creative=R39z9kjZ-1HrCCc7SW6pcw&utm_campaign=yelp_api_v3&utm_medium=api_v3_business_search&utm_source=R39z9kjZ-1HrCCc7SW6pcw", "review_count": 418, "categories": [{"alias": "sandwiches", "title": "Sandwiches"}, {"alias": "vietnamese", "title": "Vietnamese"}], "rating": 4.0, "coordinates": {"latitude": 37.293937880333, "longitude": -121.95697336622}, "transactions": ["delivery"], "price": "$", "location": {"address1": "472 W Hamilton Ave", "address2": null, "address3": "", "city": "Campbell", "zip_code": "95008", "country": "US", "state": "CA", "display_address": ["472 W Hamilton Ave", "Campbell, CA 95008"]}, "phone": "+14083748388", "display_phone": "(408) 374-8388", "distance": 1696.0306307957312}, {"id": "0Z81DgrP2TsPSwYjxqaEtw", "alias": "opa-authentic-greek-cuisine-campbell-3", "name": "Opa! Authentic Greek Cuisine", "image_url": "https://s3-media1.fl.yelpcdn.com/bphoto/qYXObKW0ys0KchDVw8fu5A/o.jpg", "is_closed": false, "url": "https://www.yelp.com/biz/opa-authentic-greek-cuisine-campbell-3?adjust_creative=R39z9kjZ-1HrCCc7SW6pcw&utm_campaign=yelp_api_v3&utm_medium=api_v3_business_search&utm_source=R39z9kjZ-1HrCCc7SW6pcw", "review_count": 1281, "categories": [{"alias": "greek", "title": "Greek"}], "rating": 3.5, "coordinates": {"latitude": 37.286866, "longitude": -121.944657}, "transactions": ["delivery", "pickup"], "price": "$$", "location": {"address1": "276 E Campbell Ave", "address2": null, "address3": "", "city": "Campbell", "zip_code": "95008", "country": "US", "state": "CA", "display_address": ["276 E Campbell Ave", "Campbell, CA 95008"]}, "phone": "+14088664570", "display_phone": "(408) 866-4570", "distance": 1427.872556048877}, {"id": "TVxDQm6LvIjY7sBg0SmwNw", "alias": "tgis-sushi-campbell", "name": "TGI's Sushi", "image_url": "https://s3-media2.fl.yelpcdn.com/bphoto/3reO_oZBKLahmPUqYYs0QA/o.jpg", "is_closed": false, "url": "https://www.yelp.com/biz/tgis-sushi-campbell?adjust_creative=R39z9kjZ-1HrCCc7SW6pcw&utm_campaign=yelp_api_v3&utm_medium=api_v3_business_search&utm_source=R39z9kjZ-1HrCCc7SW6pcw", "review_count": 1575, "categories": [{"alias": "sushi", "title": "Sushi Bars"}, {"alias": "japanese", "title": "Japanese"}], "rating": 4.0, "coordinates": {"latitude": 37.2938863094821, "longitude": -121.951950130455}, "transactions": ["delivery", "pickup"], "price": "$$", "location": {"address1": "100 W Hamilton Ave", "address2": "Ste C", "address3": "", "city": "Campbell", "zip_code": "95008", "country": "US", "state": "CA", "display_address": ["100 W Hamilton Ave", "Ste C", "Campbell, CA 95008"]}, "phone": "+14088710123", "display_phone": "(408) 871-0123", "distance": 1752.125105978522}, {"id": "xeHttsDdvDVrcKhX5o-y3w", "alias": "halal-gyro-express-campbell", "name": "Halal gyro express", "image_url": "https://s3-media4.fl.yelpcdn.com/bphoto/lPf-0NU4VA3I3B2R2gnabA/o.jpg", "is_closed": false, "url": "https://www.yelp.com/biz/halal-gyro-express-campbell?adjust_creative=R39z9kjZ-1HrCCc7SW6pcw&utm_campaign=yelp_api_v3&utm_medium=api_v3_business_search&utm_source=R39z9kjZ-1HrCCc7SW6pcw", "review_count": 77, "categories": [{"alias": "mediterranean", "title": "Mediterranean"}, {"alias": "halal", "title": "Halal"}], "rating": 4.0, "coordinates": {"latitude": 37.26615, "longitude": -121.9417}, "transactions": ["delivery", "pickup"], "price": "$$", "location": {"address1": "3155 S Bascom Ave", "address2": null, "address3": "", "city": "Campbell", "zip_code": "95008", "country": "US", "state": "CA", "display_address": ["3155 S Bascom Ave", "Campbell, CA 95008"]}, "phone": "+14083405465", "display_phone": "(408) 340-5465", "distance": 1950.1126429673104}, {"id": "lLJuMf4oadHwcb6eWGcUKw", "alias": "orale-baja-mex-grill-campbell", "name": "Orale Baja Mex Grill", "image_url": "https://s3-media2.fl.yelpcdn.com/bphoto/FHvDCa322SQ25fCV35LRXQ/o.jpg", "is_closed": false, "url": "https://www.yelp.com/biz/orale-baja-mex-grill-campbell?adjust_creative=R39z9kjZ-1HrCCc7SW6pcw&utm_campaign=yelp_api_v3&utm_medium=api_v3_business_search&utm_source=R39z9kjZ-1HrCCc7SW6pcw", "review_count": 648, "categories": [{"alias": "seafood", "title": "Seafood"}, {"alias": "tacos", "title": "Tacos"}], "rating": 4.0, "coordinates": {"latitude": 37.2920299, "longitude": -121.94961}, "transactions": [], "price": "$", "location": {"address1": "1750 Winchester Blvd", "address2": "", "address3": "", "city": "Campbell", "zip_code": "95008", "country": "US", "state": "CA", "display_address": ["1750 Winchester Blvd", "Campbell, CA 95008"]}, "phone": "+14083707799", "display_phone": "(408) 370-7799", "distance": 1604.6276202347924}, {"id": "rKp6AzsILr-HJw_fDpQetg", "alias": "little-lous-bbq-campbell-2", "name": "Little Lou's BBQ", "image_url": "https://s3-media1.fl.yelpcdn.com/bphoto/VGb87GJ1zoLJ7ST5eGuvZA/o.jpg", "is_closed": false, "url": "https://www.yelp.com/biz/little-lous-bbq-campbell-2?adjust_creative=R39z9kjZ-1HrCCc7SW6pcw&utm_campaign=yelp_api_v3&utm_medium=api_v3_business_search&utm_source=R39z9kjZ-1HrCCc7SW6pcw", "review_count": 312, "categories": [{"alias": "bbq", "title": "Barbeque"}], "rating": 3.0, "coordinates": {"latitude": 37.2789933, "longitude": -121.950909}, "transactions": ["delivery", "pickup"], "price": "$$", "location": {"address1": "2455 S Winchester Blvd", "address2": "", "address3": "", "city": "Campbell", "zip_code": "95008", "country": "US", "state": "CA", "display_address": ["2455 S Winchester Blvd", "Campbell, CA 95008"]}, "phone": "+14087967852", "display_phone": "(408) 796-7852", "distance": 554.8851676101488}, {"id": "6oYbUocdlWbdomchk8oS_Q", "alias": "ricos-tacos-campbell", "name": "Ricos Tacos", "image_url": "https://s3-media1.fl.yelpcdn.com/bphoto/2wkbmH9q6MvfF7sgdvcufQ/o.jpg", "is_closed": false, "url": "https://www.yelp.com/biz/ricos-tacos-campbell?adjust_creative=R39z9kjZ-1HrCCc7SW6pcw&utm_campaign=yelp_api_v3&utm_medium=api_v3_business_search&utm_source=R39z9kjZ-1HrCCc7SW6pcw", "review_count": 279, "categories": [{"alias": "mexican", "title": "Mexican"}], "rating": 3.5, "coordinates": {"latitude": 37.2779024471277, "longitude": -121.950161964389}, "transactions": [], "price": "$", "location": {"address1": "2523 Winchester Blvd", "address2": "Ste A", "address3": "", "city": "Campbell", "zip_code": "95008", "country": "US", "state": "CA", "display_address": ["2523 Winchester Blvd", "Ste A", "Campbell, CA 95008"]}, "phone": "+14083707168", "display_phone": "(408) 370-7168", "distance": 626.0223375074307}, {"id": "t0ttnSa0weV7jDu79MzZgA", "alias": "taqueria-eduardo-san-jose-2", "name": "Taqueria Eduardo", "image_url": "https://s3-media3.fl.yelpcdn.com/bphoto/QStL62TU41ygjCkpQcd2UQ/o.jpg", "is_closed": false, "url": "https://www.yelp.com/biz/taqueria-eduardo-san-jose-2?adjust_creative=R39z9kjZ-1HrCCc7SW6pcw&utm_campaign=yelp_api_v3&utm_medium=api_v3_business_search&utm_source=R39z9kjZ-1HrCCc7SW6pcw", "review_count": 535, "categories": [{"alias": "mexican", "title": "Mexican"}], "rating": 4.0, "coordinates": {"latitude": 37.2981555834766, "longitude": -121.950966701852}, "transactions": [], "price": "$", "location": {"address1": "3123 Williamsburg Dr", "address2": "", "address3": "", "city": "San Jose", "zip_code": "95117", "country": "US", "state": "CA", "display_address": ["3123 Williamsburg Dr", "San Jose, CA 95117"]}, "phone": "+14083749764", "display_phone": "(408) 374-9764", "distance": 2233.3702534552594}, {"id": "ciqmptRRzZVxPBtaBLStQQ", "alias": "aldos-ristorante-and-bar-los-gatos", "name": "Aldo's Ristorante & Bar", "image_url": "https://s3-media4.fl.yelpcdn.com/bphoto/xYFwKf8iQpv7nSZjpyHv7w/o.jpg", "is_closed": false, "url": "https://www.yelp.com/biz/aldos-ristorante-and-bar-los-gatos?adjust_creative=R39z9kjZ-1HrCCc7SW6pcw&utm_campaign=yelp_api_v3&utm_medium=api_v3_business_search&utm_source=R39z9kjZ-1HrCCc7SW6pcw", "review_count": 452, "categories": [{"alias": "italian", "title": "Italian"}], "rating": 3.5, "coordinates": {"latitude": 37.261855, "longitude": -121.9621403}, "transactions": [], "price": "$$", "location": {"address1": "14109 Winchester Blvd", "address2": "", "address3": "", "city": "Los Gatos", "zip_code": "95032", "country": "US", "state": "CA", "display_address": ["14109 Winchester Blvd", "Los Gatos, CA 95032"]}, "phone": "+14083741808", "display_phone": "(408) 374-1808", "distance": 1906.1592643535685}, {"id": "iJEwa0ZeYasRSz6TmBOLhA", "alias": "la-jaiba-taqueria-y-mariscos-campbell", "name": "La Jaiba Taqueria Y Mariscos", "image_url": "https://s3-media4.fl.yelpcdn.com/bphoto/oGpsT-MyvnXc-Fll_Ref3Q/o.jpg", "is_closed": false, "url": "https://www.yelp.com/biz/la-jaiba-taqueria-y-mariscos-campbell?adjust_creative=R39z9kjZ-1HrCCc7SW6pcw&utm_campaign=yelp_api_v3&utm_medium=api_v3_business_search&utm_source=R39z9kjZ-1HrCCc7SW6pcw", "review_count": 143, "categories": [{"alias": "mexican", "title": "Mexican"}, {"alias": "seafood", "title": "Seafood"}, {"alias": "beerbar", "title": "Beer Bar"}], "rating": 4.5, "coordinates": {"latitude": 37.293753, "longitude": -121.951898}, "transactions": [], "price": "$$", "location": {"address1": "100 W Hamilton Ave", "address2": "", "address3": "", "city": "Campbell", "zip_code": "95008", "country": "US", "state": "CA", "display_address": ["100 W Hamilton Ave", "Campbell, CA 95008"]}, "phone": "+14083799133", "display_phone": "(408) 379-9133", "distance": 1739.0609890097323}, {"id": "qtvVa6K9WAMfMhzzRgrucw", "alias": "gus-meat-and-deli-campbell", "name": "Gus' Meat & Deli", "image_url": "https://s3-media3.fl.yelpcdn.com/bphoto/31rTOWBaeFe2WU2F_LOhbw/o.jpg", "is_closed": false, "url": "https://www.yelp.com/biz/gus-meat-and-deli-campbell?adjust_creative=R39z9kjZ-1HrCCc7SW6pcw&utm_campaign=yelp_api_v3&utm_medium=api_v3_business_search&utm_source=R39z9kjZ-1HrCCc7SW6pcw", "review_count": 83, "categories": [{"alias": "delis", "title": "Delis"}, {"alias": "burgers", "title": "Burgers"}], "rating": 4.0, "coordinates": {"latitude": 37.2778707279457, "longitude": -121.950174445759}, "transactions": [], "price": "$", "location": {"address1": "2523 Winchester Blvd", "address2": "Ste B", "address3": "", "city": "Campbell", "zip_code": "95008", "country": "US", "state": "CA", "display_address": ["2523 Winchester Blvd", "Ste B", "Campbell, CA 95008"]}, "phone": "+14083707357", "display_phone": "(408) 370-7357", "distance": 625.4303142187903}, {"id": "zNeidBBsHUlxlsvaF7qv4w", "alias": "oriental-garden-campbell", "name": "Oriental Garden", "image_url": "https://s3-media4.fl.yelpcdn.com/bphoto/K18DoXpXfJUkg9Lt_5lUxQ/o.jpg", "is_closed": false, "url": "https://www.yelp.com/biz/oriental-garden-campbell?adjust_creative=R39z9kjZ-1HrCCc7SW6pcw&utm_campaign=yelp_api_v3&utm_medium=api_v3_business_search&utm_source=R39z9kjZ-1HrCCc7SW6pcw", "review_count": 193, "categories": [{"alias": "chinese", "title": "Chinese"}], "rating": 4.0, "coordinates": {"latitude": 37.269692009381, "longitude": -121.938423390244}, "transactions": [], "price": "$$", "location": {"address1": "2895 S Bascom Ave", "address2": "", "address3": "", "city": "Campbell", "zip_code": "95008", "country": "US", "state": "CA", "display_address": ["2895 S Bascom Ave", "Campbell, CA 95008"]}, "phone": "+14083716595", "display_phone": "(408) 371-6595", "distance": 1936.799183521305}, {"id": "WZutE_g2vBVA6MGTJoaoAw", "alias": "tsing-tao-chinese-restaurant-campbell", "name": "Tsing Tao Chinese Restaurant", "image_url": "https://s3-media4.fl.yelpcdn.com/bphoto/73UUM4M9-nI6v6TjFTg2zg/o.jpg", "is_closed": false, "url": "https://www.yelp.com/biz/tsing-tao-chinese-restaurant-campbell?adjust_creative=R39z9kjZ-1HrCCc7SW6pcw&utm_campaign=yelp_api_v3&utm_medium=api_v3_business_search&utm_source=R39z9kjZ-1HrCCc7SW6pcw", "review_count": 367, "categories": [{"alias": "chinese", "title": "Chinese"}], "rating": 3.5, "coordinates": {"latitude": 37.2874629792717, "longitude": -121.975289412689}, "transactions": [], "price": "$$", "location": {"address1": "104 N San Tomas Aquino Rd", "address2": "", "address3": "", "city": "Campbell", "zip_code": "95008", "country": "US", "state": "CA", "display_address": ["104 N San Tomas Aquino Rd", "Campbell, CA 95008"]}, "phone": "+14083795169", "display_phone": "(408) 379-5169", "distance": 1876.8972195693239}, {"id": "80j_zi3Ny_BetMUXF5olXw", "alias": "brown-chicken-brown-cow-campbell", "name": "Brown Chicken Brown Cow", "image_url": "https://s3-media1.fl.yelpcdn.com/bphoto/Op_DjZKFYLKbNKGe5asUNg/o.jpg", "is_closed": false, "url": "https://www.yelp.com/biz/brown-chicken-brown-cow-campbell?adjust_creative=R39z9kjZ-1HrCCc7SW6pcw&utm_campaign=yelp_api_v3&utm_medium=api_v3_business_search&utm_source=R39z9kjZ-1HrCCc7SW6pcw", "review_count": 1221, "categories": [{"alias": "burgers", "title": "Burgers"}, {"alias": "sandwiches", "title": "Sandwiches"}, {"alias": "bars", "title": "Bars"}], "rating": 3.5, "coordinates": {"latitude": 37.2873524453448, "longitude": -121.942947506905}, "transactions": [], "price": "$$", "location": {"address1": "397 E Campbell Ave", "address2": "", "address3": "", "city": "Campbell", "zip_code": "95008", "country": "US", "state": "CA", "display_address": ["397 E Campbell Ave", "Campbell, CA 95008"]}, "phone": "+14083405916", "display_phone": "(408) 340-5916", "distance": 1584.8259326224509}, {"id": "nwmgpohC3demkramUqDBog", "alias": "l-and-l-hawaiian-barbecue-campbell", "name": "L&L Hawaiian Barbecue", "image_url": "https://s3-media4.fl.yelpcdn.com/bphoto/fdxvVqLS5dezXRurqDb7Iw/o.jpg", "is_closed": false, "url": "https://www.yelp.com/biz/l-and-l-hawaiian-barbecue-campbell?adjust_creative=R39z9kjZ-1HrCCc7SW6pcw&utm_campaign=yelp_api_v3&utm_medium=api_v3_business_search&utm_source=R39z9kjZ-1HrCCc7SW6pcw", "review_count": 192, "categories": [{"alias": "hawaiian", "title": "Hawaiian"}, {"alias": "bbq", "title": "Barbeque"}], "rating": 3.5, "coordinates": {"latitude": 37.28582, "longitude": -121.97506}, "transactions": [], "price": "$", "location": {"address1": "1380 W Campbell Ave", "address2": null, "address3": "", "city": "Campbell", "zip_code": "95008", "country": "US", "state": "CA", "display_address": ["1380 W Campbell Ave", "Campbell, CA 95008"]}, "phone": "+14088660982", "display_phone": "(408) 866-0982", "distance": 1764.1382461400765}, {"id": "VxgMRQLmA0Lgjzmt2PG6Eg", "alias": "hash-house-campbell", "name": "Hash House", "image_url": "https://s3-media3.fl.yelpcdn.com/bphoto/hinFzwg5JmVICC2R-7ezrA/o.jpg", "is_closed": false, "url": "https://www.yelp.com/biz/hash-house-campbell?adjust_creative=R39z9kjZ-1HrCCc7SW6pcw&utm_campaign=yelp_api_v3&utm_medium=api_v3_business_search&utm_source=R39z9kjZ-1HrCCc7SW6pcw", "review_count": 1439, "categories": [{"alias": "breakfast_brunch", "title": "Breakfast & Brunch"}, {"alias": "newamerican", "title": "American (New)"}], "rating": 4.0, "coordinates": {"latitude": 37.29449, "longitude": -121.96461}, "transactions": ["delivery", "pickup"], "price": "$$", "location": {"address1": "851 W Hamilton Ave", "address2": "", "address3": "", "city": "Campbell", "zip_code": "95008", "country": "US", "state": "CA", "display_address": ["851 W Hamilton Ave", "Campbell, CA 95008"]}, "phone": "+14083744559", "display_phone": "(408) 374-4559", "distance": 1878.6891785079656}, {"id": "30kUEZSjO79a__AvHFTSHQ", "alias": "maple-leaf-donuts-campbell", "name": "Maple Leaf Donuts", "image_url": "https://s3-media3.fl.yelpcdn.com/bphoto/Z4VtWWVbhl_es9CeieDNMQ/o.jpg", "is_closed": false, "url": "https://www.yelp.com/biz/maple-leaf-donuts-campbell?adjust_creative=R39z9kjZ-1HrCCc7SW6pcw&utm_campaign=yelp_api_v3&utm_medium=api_v3_business_search&utm_source=R39z9kjZ-1HrCCc7SW6pcw", "review_count": 78, "categories": [{"alias": "donuts", "title": "Donuts"}, {"alias": "coffee", "title": "Coffee & Tea"}, {"alias": "breakfast_brunch", "title": "Breakfast & Brunch"}], "rating": 4.5, "coordinates": {"latitude": 37.2810140309678, "longitude": -121.950356901352}, "transactions": [], "price": "$", "location": {"address1": "2329 S Winchester Blvd", "address2": "", "address3": "", "city": "Campbell", "zip_code": "95008", "country": "US", "state": "CA", "display_address": ["2329 S Winchester Blvd", "Campbell, CA 95008"]}, "phone": "+14083743213", "display_phone": "(408) 374-3213", "distance": 655.9196357567263}, {"id": "sB8Z558zaeZDO_Q4oIdO4A", "alias": "campbell-pizza-campbell-2", "name": "Campbell Pizza", "image_url": "https://s3-media1.fl.yelpcdn.com/bphoto/okochuTVarIrtXN_U3tykA/o.jpg", "is_closed": false, "url": "https://www.yelp.com/biz/campbell-pizza-campbell-2?adjust_creative=R39z9kjZ-1HrCCc7SW6pcw&utm_campaign=yelp_api_v3&utm_medium=api_v3_business_search&utm_source=R39z9kjZ-1HrCCc7SW6pcw", "review_count": 122, "categories": [{"alias": "pizza", "title": "Pizza"}, {"alias": "chicken_wings", "title": "Chicken Wings"}, {"alias": "burgers", "title": "Burgers"}], "rating": 4.5, "coordinates": {"latitude": 37.2636470761864, "longitude": -121.961255930364}, "transactions": ["delivery", "pickup"], "price": "$$", "location": {"address1": "3393 Winchester Blvd", "address2": "", "address3": null, "city": "Campbell", "zip_code": "95008", "country": "US", "state": "CA", "display_address": ["3393 Winchester Blvd", "Campbell, CA 95008"]}, "phone": "+14088661202", "display_phone": "(408) 866-1202", "distance": 1710.9022384522148}, {"id": "pOhQmz7M6zrbfGzV7Wiqfw", "alias": "blue-sky-chinese-restaurant-campbell", "name": "Blue Sky Chinese Restaurant", "image_url": "https://s3-media1.fl.yelpcdn.com/bphoto/ijl4x1BHMrOtQoDY5viFiA/o.jpg", "is_closed": false, "url": "https://www.yelp.com/biz/blue-sky-chinese-restaurant-campbell?adjust_creative=R39z9kjZ-1HrCCc7SW6pcw&utm_campaign=yelp_api_v3&utm_medium=api_v3_business_search&utm_source=R39z9kjZ-1HrCCc7SW6pcw", "review_count": 293, "categories": [{"alias": "chinese", "title": "Chinese"}], "rating": 3.5, "coordinates": {"latitude": 37.2864532470703, "longitude": -121.949440002441}, "transactions": ["delivery", "pickup"], "price": "$$", "location": {"address1": "2028 Winchester Blvd", "address2": "", "address3": "", "city": "Campbell", "zip_code": "95008", "country": "US", "state": "CA", "display_address": ["2028 Winchester Blvd", "Campbell, CA 95008"]}, "phone": "+14083780424", "display_phone": "(408) 378-0424", "distance": 1108.4392240900115}, {"id": "gxvkMyxlGQkHJsNCUaVD8w", "alias": "new-jerseys-campbell-3", "name": "New Jersey's", "image_url": "https://s3-media1.fl.yelpcdn.com/bphoto/5uNtnB3nTqXAutElto9ynQ/o.jpg", "is_closed": false, "url": "https://www.yelp.com/biz/new-jerseys-campbell-3?adjust_creative=R39z9kjZ-1HrCCc7SW6pcw&utm_campaign=yelp_api_v3&utm_medium=api_v3_business_search&utm_source=R39z9kjZ-1HrCCc7SW6pcw", "review_count": 232, "categories": [{"alias": "cheesesteaks", "title": "Cheesesteaks"}, {"alias": "sportsbars", "title": "Sports Bars"}, {"alias": "burgers", "title": "Burgers"}], "rating": 4.0, "coordinates": {"latitude": 37.2944717407227, "longitude": -121.966156005859}, "transactions": [], "price": "$", "location": {"address1": "923 W Hamilton Ave", "address2": "", "address3": "", "city": "Campbell", "zip_code": "95008", "country": "US", "state": "CA", "display_address": ["923 W Hamilton Ave", "Campbell, CA 95008"]}, "phone": "+14083702326", "display_phone": "(408) 370-2326", "distance": 1937.8938217942616}, {"id": "l_Fss-r9XKObNaQznxCPsg", "alias": "yeung-shing-restaurant-los-gatos", "name": "Yeung Shing Restaurant", "image_url": "https://s3-media1.fl.yelpcdn.com/bphoto/mUPqHYCrirzQqtI9DLh2IA/o.jpg", "is_closed": false, "url": "https://www.yelp.com/biz/yeung-shing-restaurant-los-gatos?adjust_creative=R39z9kjZ-1HrCCc7SW6pcw&utm_campaign=yelp_api_v3&utm_medium=api_v3_business_search&utm_source=R39z9kjZ-1HrCCc7SW6pcw", "review_count": 235, "categories": [{"alias": "chinese", "title": "Chinese"}], "rating": 3.5, "coordinates": {"latitude": 37.2625198364258, "longitude": -121.962287902832}, "transactions": ["delivery", "pickup"], "price": "$$", "location": {"address1": "14107 Winchester Blvd", "address2": "Ste S", "address3": "", "city": "Los Gatos", "zip_code": "95032", "country": "US", "state": "CA", "display_address": ["14107 Winchester Blvd", "Ste S", "Los Gatos, CA 95032"]}, "phone": "+14083702032", "display_phone": "(408) 370-2032", "distance": 1873.730681608968}, {"id": "pdjU2fFOZUCkzGIQ2eQdkw", "alias": "alams-taqueria-san-jose", "name": "Alams Taqueria", "image_url": "https://s3-media4.fl.yelpcdn.com/bphoto/WqMjJTuo1cWWAtmOLYD7pQ/o.jpg", "is_closed": false, "url": "https://www.yelp.com/biz/alams-taqueria-san-jose?adjust_creative=R39z9kjZ-1HrCCc7SW6pcw&utm_campaign=yelp_api_v3&utm_medium=api_v3_business_search&utm_source=R39z9kjZ-1HrCCc7SW6pcw", "review_count": 20, "categories": [{"alias": "foodtrucks", "title": "Food Trucks"}, {"alias": "tacos", "title": "Tacos"}], "rating": 5.0, "coordinates": {"latitude": 37.272263, "longitude": -121.932355}, "transactions": [], "location": {"address1": "2708 Uni\u00f3n Ave", "address2": null, "address3": "", "city": "San jose", "zip_code": "95124", "country": "US", "state": "CA", "display_address": ["2708 Uni\u00f3n Ave", "San jose, CA 95124"]}, "phone": "+14086746949", "display_phone": "(408) 674-6949", "distance": 2308.779097101627}, {"id": "z2_cN9sdtNJWRJ5G5PI4cA", "alias": "los-hermanos-cuervos-san-jose", "name": "Los Hermanos Cuervos", "image_url": "https://s3-media4.fl.yelpcdn.com/bphoto/4Mk2eStB91OVqm5a6a3AKg/o.jpg", "is_closed": false, "url": "https://www.yelp.com/biz/los-hermanos-cuervos-san-jose?adjust_creative=R39z9kjZ-1HrCCc7SW6pcw&utm_campaign=yelp_api_v3&utm_medium=api_v3_business_search&utm_source=R39z9kjZ-1HrCCc7SW6pcw", "review_count": 7, "categories": [{"alias": "foodtrucks", "title": "Food Trucks"}, {"alias": "tacos", "title": "Tacos"}], "rating": 5.0, "coordinates": {"latitude": 37.345837, "longitude": -121.916313}, "transactions": [], "location": {"address1": "585 W Hedding St", "address2": null, "address3": "", "city": "San Jose", "zip_code": "95110", "country": "US", "state": "CA", "display_address": ["585 W Hedding St", "San Jose, CA 95110"]}, "phone": "", "display_phone": "", "distance": 8295.122654801462}, {"id": "7OZVmZJV5UQ_2_IksBEi8g", "alias": "shiroi-sushi-los-gatos", "name": "Shiroi Sushi", "image_url": "https://s3-media4.fl.yelpcdn.com/bphoto/QOiIz2Sf_TgodwbhHQGDZg/o.jpg", "is_closed": false, "url": "https://www.yelp.com/biz/shiroi-sushi-los-gatos?adjust_creative=R39z9kjZ-1HrCCc7SW6pcw&utm_campaign=yelp_api_v3&utm_medium=api_v3_business_search&utm_source=R39z9kjZ-1HrCCc7SW6pcw", "review_count": 134, "categories": [{"alias": "sushi", "title": "Sushi Bars"}, {"alias": "japanese", "title": "Japanese"}], "rating": 4.0, "coordinates": {"latitude": 37.263014, "longitude": -121.962114}, "transactions": [], "price": "$$", "location": {"address1": "14103 Winchester Blvd", "address2": "Ste C", "address3": "", "city": "Los Gatos", "zip_code": "95032", "country": "US", "state": "CA", "display_address": ["14103 Winchester Blvd", "Ste C", "Los Gatos, CA 95032"]}, "phone": "+14083405965", "display_phone": "(408) 340-5965", "distance": 1796.737104693598}, {"id": "sGswwjyP1qgZbXZlvwPonw", "alias": "el-gueritos-churros-rellenos-san-jose", "name": "El Guerito's Churros Rellenos", "image_url": "https://s3-media1.fl.yelpcdn.com/bphoto/RCK_0PYDK2MPSEG5Ol_IrA/o.jpg", "is_closed": false, "url": "https://www.yelp.com/biz/el-gueritos-churros-rellenos-san-jose?adjust_creative=R39z9kjZ-1HrCCc7SW6pcw&utm_campaign=yelp_api_v3&utm_medium=api_v3_business_search&utm_source=R39z9kjZ-1HrCCc7SW6pcw", "review_count": 18, "categories": [{"alias": "mexican", "title": "Mexican"}, {"alias": "streetvendors", "title": "Street Vendors"}], "rating": 4.0, "coordinates": {"latitude": 37.29767, "longitude": -121.95483}, "transactions": [], "location": {"address1": "1451 Eden Ave", "address2": null, "address3": null, "city": "San Jose", "zip_code": "95117", "country": "US", "state": "CA", "display_address": ["1451 Eden Ave", "San Jose, CA 95117"]}, "phone": "+14086633666", "display_phone": "(408) 663-3666", "distance": 2123.9598170858526}, {"id": "AvkWd3C80cPR7u28FJ0-Cw", "alias": "el-guapos-campbell", "name": "El Guapo's", "image_url": "https://s3-media2.fl.yelpcdn.com/bphoto/_iattzw9DsBoWoBG2McWTQ/o.jpg", "is_closed": false, "url": "https://www.yelp.com/biz/el-guapos-campbell?adjust_creative=R39z9kjZ-1HrCCc7SW6pcw&utm_campaign=yelp_api_v3&utm_medium=api_v3_business_search&utm_source=R39z9kjZ-1HrCCc7SW6pcw", "review_count": 382, "categories": [{"alias": "mexican", "title": "Mexican"}], "rating": 3.5, "coordinates": {"latitude": 37.2869745923607, "longitude": -121.945326420085}, "transactions": [], "price": "$$", "location": {"address1": "266 E Campbell Ave", "address2": "", "address3": "", "city": "Campbell", "zip_code": "95008", "country": "US", "state": "CA", "display_address": ["266 E Campbell Ave", "Campbell, CA 95008"]}, "phone": "+14083798226", "display_phone": "(408) 379-8226", "distance": 1395.40360377964}, {"id": "rGJmw0_1Svxl42ZiOAkHIg", "alias": "the-garret-station-los-gatos", "name": "The Garret Station", "image_url": "https://s3-media2.fl.yelpcdn.com/bphoto/we4gkWmKlee6_f3nBhYaYg/o.jpg", "is_closed": false, "url": "https://www.yelp.com/biz/the-garret-station-los-gatos?adjust_creative=R39z9kjZ-1HrCCc7SW6pcw&utm_campaign=yelp_api_v3&utm_medium=api_v3_business_search&utm_source=R39z9kjZ-1HrCCc7SW6pcw", "review_count": 278, "categories": [{"alias": "tradamerican", "title": "American (Traditional)"}, {"alias": "pizza", "title": "Pizza"}], "rating": 3.5, "coordinates": {"latitude": 37.2625, "longitude": -121.96227}, "transactions": [], "price": "$$", "location": {"address1": "14101 Winchester Blvd", "address2": "", "address3": "", "city": "Los Gatos", "zip_code": "95032", "country": "US", "state": "CA", "display_address": ["14101 Winchester Blvd", "Los Gatos, CA 95032"]}, "phone": "+14088716810", "display_phone": "(408) 871-6810", "distance": 1796.3437290290922}, {"id": "W-DoEJcm_e_QTbRoUHl-Zw", "alias": "bagel-bar-campbell-3", "name": "Bagel Bar", "image_url": "https://s3-media1.fl.yelpcdn.com/bphoto/eev3hVR8IW9Afk96vmmxdQ/o.jpg", "is_closed": false, "url": "https://www.yelp.com/biz/bagel-bar-campbell-3?adjust_creative=R39z9kjZ-1HrCCc7SW6pcw&utm_campaign=yelp_api_v3&utm_medium=api_v3_business_search&utm_source=R39z9kjZ-1HrCCc7SW6pcw", "review_count": 144, "categories": [{"alias": "bagels", "title": "Bagels"}, {"alias": "sandwiches", "title": "Sandwiches"}, {"alias": "catering", "title": "Caterers"}], "rating": 4.0, "coordinates": {"latitude": 37.28752, "longitude": -121.94057}, "transactions": [], "price": "$$", "location": {"address1": "519 E Campbell Ave", "address2": null, "address3": "", "city": "Campbell", "zip_code": "95008", "country": "US", "state": "CA", "display_address": ["519 E Campbell Ave", "Campbell, CA 95008"]}, "phone": "+14086284114", "display_phone": "(408) 628-4114", "distance": 1774.1696553016482}, {"id": "mqNAABqv9YTavc5LPCOYoQ", "alias": "royal-taj-campbell", "name": "Royal Taj", "image_url": "https://s3-media3.fl.yelpcdn.com/bphoto/HSD_aUvlouYfclUT7vVDRQ/o.jpg", "is_closed": false, "url": "https://www.yelp.com/biz/royal-taj-campbell?adjust_creative=R39z9kjZ-1HrCCc7SW6pcw&utm_campaign=yelp_api_v3&utm_medium=api_v3_business_search&utm_source=R39z9kjZ-1HrCCc7SW6pcw", "review_count": 341, "categories": [{"alias": "indpak", "title": "Indian"}], "rating": 3.5, "coordinates": {"latitude": 37.26957, "longitude": -121.94486}, "transactions": ["pickup", "delivery"], "price": "$$", "location": {"address1": "1350 Camden Ave", "address2": "", "address3": "", "city": "Campbell", "zip_code": "95008", "country": "US", "state": "CA", "display_address": ["1350 Camden Ave", "Campbell, CA 95008"]}, "phone": "+14085596801", "display_phone": "(408) 559-6801", "distance": 1485.9489196112565}, {"id": "jz32HMaVXEMS4yOwF_gtkA", "alias": "wingstop-campbell", "name": "Wingstop", "image_url": "https://s3-media4.fl.yelpcdn.com/bphoto/4AaTN42LQLzjArsdiRoHdg/o.jpg", "is_closed": false, "url": "https://www.yelp.com/biz/wingstop-campbell?adjust_creative=R39z9kjZ-1HrCCc7SW6pcw&utm_campaign=yelp_api_v3&utm_medium=api_v3_business_search&utm_source=R39z9kjZ-1HrCCc7SW6pcw", "review_count": 232, "categories": [{"alias": "chicken_wings", "title": "Chicken Wings"}], "rating": 2.5, "coordinates": {"latitude": 37.2661399841309, "longitude": -121.941688537598}, "transactions": [], "price": "$$", "location": {"address1": "3155 S Bascom Ave", "address2": "", "address3": "", "city": "Campbell", "zip_code": "95008", "country": "US", "state": "CA", "display_address": ["3155 S Bascom Ave", "Campbell, CA 95008"]}, "phone": "+14086269464", "display_phone": "(408) 626-9464", "distance": 1950.1126429673104}, {"id": "OB65IH2PVwY3FQnlLeFVBQ", "alias": "rice-noodles-asian-kitchen-campbell", "name": "Rice + Noodles Asian Kitchen", "image_url": "https://s3-media4.fl.yelpcdn.com/bphoto/VPpaIUBUGZ9IL22aLOyqmQ/o.jpg", "is_closed": false, "url": "https://www.yelp.com/biz/rice-noodles-asian-kitchen-campbell?adjust_creative=R39z9kjZ-1HrCCc7SW6pcw&utm_campaign=yelp_api_v3&utm_medium=api_v3_business_search&utm_source=R39z9kjZ-1HrCCc7SW6pcw", "review_count": 270, "categories": [{"alias": "chinese", "title": "Chinese"}, {"alias": "vietnamese", "title": "Vietnamese"}, {"alias": "noodles", "title": "Noodles"}], "rating": 3.5, "coordinates": {"latitude": 37.2932155422287, "longitude": -121.966036417197}, "transactions": ["pickup", "delivery"], "price": "$$", "location": {"address1": "930 W Hamilton Ave", "address2": "Ste 110", "address3": "", "city": "Campbell", "zip_code": "95008", "country": "US", "state": "CA", "display_address": ["930 W Hamilton Ave", "Ste 110", "Campbell, CA 95008"]}, "phone": "+14083782234", "display_phone": "(408) 378-2234", "distance": 1796.0294592498344}, {"id": "6p94CFu2WA4JjzvdxxEZVw", "alias": "tessoras-barra-di-vino-campbell-3", "name": "Tessora's Barra di Vino", "image_url": "https://s3-media3.fl.yelpcdn.com/bphoto/4JkfTIM9CnTR2CM4OWfJUg/o.jpg", "is_closed": false, "url": "https://www.yelp.com/biz/tessoras-barra-di-vino-campbell-3?adjust_creative=R39z9kjZ-1HrCCc7SW6pcw&utm_campaign=yelp_api_v3&utm_medium=api_v3_business_search&utm_source=R39z9kjZ-1HrCCc7SW6pcw", "review_count": 179, "categories": [{"alias": "wine_bars", "title": "Wine Bars"}, {"alias": "newamerican", "title": "American (New)"}, {"alias": "musicvenues", "title": "Music Venues"}], "rating": 4.0, "coordinates": {"latitude": 37.2868859, "longitude": -121.9456447}, "transactions": [], "price": "$$", "location": {"address1": "234 E Campbell Ave", "address2": "", "address3": "", "city": "Campbell", "zip_code": "95008", "country": "US", "state": "CA", "display_address": ["234 E Campbell Ave", "Campbell, CA 95008"]}, "phone": "+14086267711", "display_phone": "(408) 626-7711", "distance": 1367.7933190392503}, {"id": "R4ZTrfTcPnPyJ29tpBVqnw", "alias": "angies-pizza-italian-restaurant-san-jose", "name": "Angie's Pizza Italian Restaurant", "image_url": "https://s3-media1.fl.yelpcdn.com/bphoto/AncCpG_iUryNOJQg3vgFNA/o.jpg", "is_closed": false, "url": "https://www.yelp.com/biz/angies-pizza-italian-restaurant-san-jose?adjust_creative=R39z9kjZ-1HrCCc7SW6pcw&utm_campaign=yelp_api_v3&utm_medium=api_v3_business_search&utm_source=R39z9kjZ-1HrCCc7SW6pcw", "review_count": 144, "categories": [{"alias": "pizza", "title": "Pizza"}], "rating": 4.5, "coordinates": {"latitude": 37.295768737793, "longitude": -121.95044708252}, "transactions": [], "price": "$", "location": {"address1": "1535 S Winchester Blvd", "address2": "", "address3": "", "city": "San Jose", "zip_code": "95128", "country": "US", "state": "CA", "display_address": ["1535 S Winchester Blvd", "San Jose, CA 95128"]}, "phone": "+14083785555", "display_phone": "(408) 378-5555", "distance": 1995.2941884331328}, {"id": "cOXwZClimPkgK79aP0zrPA", "alias": "effies-restaurant-and-bar-campbell", "name": "Effie's Restaurant & Bar", "image_url": "https://s3-media3.fl.yelpcdn.com/bphoto/Twv_Ut92ZW4yZ_Xr834JPA/o.jpg", "is_closed": false, "url": "https://www.yelp.com/biz/effies-restaurant-and-bar-campbell?adjust_creative=R39z9kjZ-1HrCCc7SW6pcw&utm_campaign=yelp_api_v3&utm_medium=api_v3_business_search&utm_source=R39z9kjZ-1HrCCc7SW6pcw", "review_count": 216, "categories": [{"alias": "tradamerican", "title": "American (Traditional)"}, {"alias": "karaoke", "title": "Karaoke"}], "rating": 3.0, "coordinates": {"latitude": 37.26951, "longitude": -121.95689}, "transactions": ["pickup", "delivery"], "price": "$$", "location": {"address1": "331 W Hacienda Ave", "address2": "", "address3": "", "city": "Campbell", "zip_code": "95008", "country": "US", "state": "CA", "display_address": ["331 W Hacienda Ave", "Campbell, CA 95008"]}, "phone": "+14083743400", "display_phone": "(408) 374-3400", "distance": 1017.7412565946563}, {"id": "P39dgyOi-6H2IU_U7bWYig", "alias": "leftys-a-taste-of-boston-campbell-3", "name": "Lefty's A Taste of Boston", "image_url": "https://s3-media1.fl.yelpcdn.com/bphoto/JzocjDXLr4OnQvKgTMD4uA/o.jpg", "is_closed": false, "url": "https://www.yelp.com/biz/leftys-a-taste-of-boston-campbell-3?adjust_creative=R39z9kjZ-1HrCCc7SW6pcw&utm_campaign=yelp_api_v3&utm_medium=api_v3_business_search&utm_source=R39z9kjZ-1HrCCc7SW6pcw", "review_count": 126, "categories": [{"alias": "pizza", "title": "Pizza"}, {"alias": "sandwiches", "title": "Sandwiches"}, {"alias": "italian", "title": "Italian"}], "rating": 4.0, "coordinates": {"latitude": 37.2875682442563, "longitude": -121.940313912928}, "transactions": ["pickup", "delivery"], "price": "$$", "location": {"address1": "533 E Campbell Ave", "address2": "", "address3": null, "city": "Campbell", "zip_code": "95008", "country": "US", "state": "CA", "display_address": ["533 E Campbell Ave", "Campbell, CA 95008"]}, "phone": "+14083760553", "display_phone": "(408) 376-0553", "distance": 1788.6001638573016}, {"id": "NI9z-gG5BmgqXUAdzrq4Pg", "alias": "live-food-san-jose-3", "name": "Live Food", "image_url": "https://s3-media2.fl.yelpcdn.com/bphoto/wsgjWZFmED8zAm4Y6Wv9GA/o.jpg", "is_closed": false, "url": "https://www.yelp.com/biz/live-food-san-jose-3?adjust_creative=R39z9kjZ-1HrCCc7SW6pcw&utm_campaign=yelp_api_v3&utm_medium=api_v3_business_search&utm_source=R39z9kjZ-1HrCCc7SW6pcw", "review_count": 4, "categories": [{"alias": "vegan", "title": "Vegan"}, {"alias": "vegetarian", "title": "Vegetarian"}, {"alias": "raw_food", "title": "Live/Raw Food"}], "rating": 5.0, "coordinates": {"latitude": 37.29671, "longitude": -121.950462}, "transactions": ["pickup", "delivery"], "location": {"address1": "1505 S Winchester Blvd", "address2": null, "address3": null, "city": "San Jose", "zip_code": "95128", "country": "US", "state": "CA", "display_address": ["1505 S Winchester Blvd", "San Jose, CA 95128"]}, "phone": "+14084751147", "display_phone": "(408) 475-1147", "distance": 2090.1644105431133}, {"id": "tnHrxXMA1UYEVndWPfeQLQ", "alias": "jalisco-mexican-food-campbell", "name": "Jalisco Mexican Food", "image_url": "https://s3-media1.fl.yelpcdn.com/bphoto/kLlW3w0g59qV7n5pI7zkNQ/o.jpg", "is_closed": false, "url": "https://www.yelp.com/biz/jalisco-mexican-food-campbell?adjust_creative=R39z9kjZ-1HrCCc7SW6pcw&utm_campaign=yelp_api_v3&utm_medium=api_v3_business_search&utm_source=R39z9kjZ-1HrCCc7SW6pcw", "review_count": 412, "categories": [{"alias": "mexican", "title": "Mexican"}], "rating": 3.5, "coordinates": {"latitude": 37.28753, "longitude": -121.94038}, "transactions": [], "price": "$$", "location": {"address1": "525 E Campbell Ave", "address2": "", "address3": "", "city": "Campbell", "zip_code": "95008", "country": "US", "state": "CA", "display_address": ["525 E Campbell Ave", "Campbell, CA 95008"]}, "phone": "+14083742265", "display_phone": "(408) 374-2265", "distance": 1783.4726839573566}, {"id": "6kDRJdW10ltY365kV7fNHQ", "alias": "coachs-sports-bar-and-grill-campbell", "name": "Coach's Sports Bar & Grill", "image_url": "https://s3-media4.fl.yelpcdn.com/bphoto/fyzOI9s_POia9qxXx2APfg/o.jpg", "is_closed": false, "url": "https://www.yelp.com/biz/coachs-sports-bar-and-grill-campbell?adjust_creative=R39z9kjZ-1HrCCc7SW6pcw&utm_campaign=yelp_api_v3&utm_medium=api_v3_business_search&utm_source=R39z9kjZ-1HrCCc7SW6pcw", "review_count": 142, "categories": [{"alias": "sportsbars", "title": "Sports Bars"}, {"alias": "tradamerican", "title": "American (Traditional)"}], "rating": 3.5, "coordinates": {"latitude": 37.28272, "longitude": -121.94956}, "transactions": [], "price": "$", "location": {"address1": "2240 Winchester Blvd", "address2": "", "address3": "", "city": "Campbell", "zip_code": "95008", "country": "US", "state": "CA", "display_address": ["2240 Winchester Blvd", "Campbell, CA 95008"]}, "phone": "+14083792654", "display_phone": "(408) 379-2654", "distance": 808.3963500903747}, {"id": "rTLv1Zlp64bK4BOe5SRjoA", "alias": "raoofs-san-jose-bean-pies-san-jose-2", "name": "Raoof's San Jose Bean Pies", "image_url": "https://s3-media3.fl.yelpcdn.com/bphoto/MxgzO7Fq5Fa6iw-MuTQ5CQ/o.jpg", "is_closed": false, "url": "https://www.yelp.com/biz/raoofs-san-jose-bean-pies-san-jose-2?adjust_creative=R39z9kjZ-1HrCCc7SW6pcw&utm_campaign=yelp_api_v3&utm_medium=api_v3_business_search&utm_source=R39z9kjZ-1HrCCc7SW6pcw", "review_count": 37, "categories": [{"alias": "bakeries", "title": "Bakeries"}, {"alias": "foodstands", "title": "Food Stands"}, {"alias": "desserts", "title": "Desserts"}], "rating": 5.0, "coordinates": {"latitude": 37.27898, "longitude": -121.95396}, "transactions": [], "price": "$$", "location": {"address1": "", "address2": "", "address3": "", "city": "San Jose", "zip_code": "95008", "country": "US", "state": "CA", "display_address": ["San Jose, CA 95008"]}, "phone": "+14085838129", "display_phone": "(408) 583-8129", "distance": 413.6529494602054}, {"id": "CFajJ4hWT9LFqYhOp1_cLw", "alias": "dairy-queen-campbell-2", "name": "Dairy Queen", "image_url": "https://s3-media1.fl.yelpcdn.com/bphoto/QwpkzCyy1G05EOKoWlrJ_g/o.jpg", "is_closed": false, "url": "https://www.yelp.com/biz/dairy-queen-campbell-2?adjust_creative=R39z9kjZ-1HrCCc7SW6pcw&utm_campaign=yelp_api_v3&utm_medium=api_v3_business_search&utm_source=R39z9kjZ-1HrCCc7SW6pcw", "review_count": 143, "categories": [{"alias": "icecream", "title": "Ice Cream & Frozen Yogurt"}, {"alias": "hotdogs", "title": "Fast Food"}], "rating": 3.5, "coordinates": {"latitude": 37.2823891663329, "longitude": -121.950079}, "transactions": [], "price": "$", "location": {"address1": "2255 Winchester Blvd", "address2": "", "address3": "", "city": "Campbell", "zip_code": "95008", "country": "US", "state": "CA", "display_address": ["2255 Winchester Blvd", "Campbell, CA 95008"]}, "phone": "+14088662390", "display_phone": "(408) 866-2390", "distance": 750.3427529541776}, {"id": "IegFO313QPnk337rdhoQOw", "alias": "fire-and-rice-san-jose", "name": "Fire And Rice", "image_url": "https://s3-media2.fl.yelpcdn.com/bphoto/xOYGBlB3cAqOVg_PZ3-wSw/o.jpg", "is_closed": false, "url": "https://www.yelp.com/biz/fire-and-rice-san-jose?adjust_creative=R39z9kjZ-1HrCCc7SW6pcw&utm_campaign=yelp_api_v3&utm_medium=api_v3_business_search&utm_source=R39z9kjZ-1HrCCc7SW6pcw", "review_count": 27, "categories": [{"alias": "hawaiian", "title": "Hawaiian"}, {"alias": "asianfusion", "title": "Asian Fusion"}, {"alias": "foodtrucks", "title": "Food Trucks"}], "rating": 4.5, "coordinates": {"latitude": 37.3354873657227, "longitude": -121.877342224121}, "transactions": [], "location": {"address1": "", "address2": null, "address3": "", "city": "San Jose", "zip_code": "95112", "country": "US", "state": "CA", "display_address": ["San Jose, CA 95112"]}, "phone": "+14083372219", "display_phone": "(408) 337-2219", "distance": 9820.826919842495}, {"id": "1p2193zh1SxHGlsRzHl33Q", "alias": "dickeys-barbecue-pit-san-jose-2", "name": "Dickey's Barbecue Pit", "image_url": "https://s3-media1.fl.yelpcdn.com/bphoto/taOpcqDzsP2ml49HWWb0Tw/o.jpg", "is_closed": false, "url": "https://www.yelp.com/biz/dickeys-barbecue-pit-san-jose-2?adjust_creative=R39z9kjZ-1HrCCc7SW6pcw&utm_campaign=yelp_api_v3&utm_medium=api_v3_business_search&utm_source=R39z9kjZ-1HrCCc7SW6pcw", "review_count": 218, "categories": [{"alias": "bbq", "title": "Barbeque"}, {"alias": "tradamerican", "title": "American (Traditional)"}, {"alias": "southern", "title": "Southern"}], "rating": 3.0, "coordinates": {"latitude": 37.26879, "longitude": -121.9439}, "transactions": ["pickup"], "price": "$$", "location": {"address1": "1402 Camden Ave", "address2": "", "address3": "", "city": "San Jose", "zip_code": "95008", "country": "US", "state": "CA", "display_address": ["1402 Camden Ave", "San Jose, CA 95008"]}, "phone": "+14089155051", "display_phone": "(408) 915-5051", "distance": 1598.064095971565}, {"id": "Jwq-jqpIdPoebnbYDpVk4Q", "alias": "flying-falafel-campbell", "name": "Flying Falafel", "image_url": "https://s3-media3.fl.yelpcdn.com/bphoto/xgjOwIII06XevEFuAkpAnA/o.jpg", "is_closed": false, "url": "https://www.yelp.com/biz/flying-falafel-campbell?adjust_creative=R39z9kjZ-1HrCCc7SW6pcw&utm_campaign=yelp_api_v3&utm_medium=api_v3_business_search&utm_source=R39z9kjZ-1HrCCc7SW6pcw", "review_count": 2, "categories": [{"alias": "falafel", "title": "Falafel"}, {"alias": "foodstands", "title": "Food Stands"}], "rating": 4.5, "coordinates": {"latitude": 37.28804, "longitude": -121.94819}, "transactions": [], "location": {"address1": "", "address2": "", "address3": null, "city": "Campbell", "zip_code": "95008", "country": "US", "state": "CA", "display_address": ["Campbell, CA 95008"]}, "phone": "", "display_phone": "", "distance": 413.6529494602054}, {"id": "UvMxvmXOUDpjeRvNwIPssg", "alias": "russian-cafe-and-deli-campbell", "name": "Russian Cafe & Deli", "image_url": "https://s3-media1.fl.yelpcdn.com/bphoto/n0qVbcGVH5fNGWefPe-lpQ/o.jpg", "is_closed": false, "url": "https://www.yelp.com/biz/russian-cafe-and-deli-campbell?adjust_creative=R39z9kjZ-1HrCCc7SW6pcw&utm_campaign=yelp_api_v3&utm_medium=api_v3_business_search&utm_source=R39z9kjZ-1HrCCc7SW6pcw", "review_count": 77, "categories": [{"alias": "delis", "title": "Delis"}, {"alias": "russian", "title": "Russian"}], "rating": 3.5, "coordinates": {"latitude": 37.29225, "longitude": -121.94961}, "transactions": ["pickup"], "price": "$$", "location": {"address1": "1712 Winchester Blvd", "address2": "", "address3": "", "city": "Campbell", "zip_code": "95008", "country": "US", "state": "CA", "display_address": ["1712 Winchester Blvd", "Campbell, CA 95008"]}, "phone": "+14083796680", "display_phone": "(408) 379-6680", "distance": 1671.0308721910499}, {"id": "HQL-L9WctsQpfTxUAWYMFg", "alias": "spread-deli-and-bottles-campbell-2", "name": "Spread Deli & Bottles", "image_url": "https://s3-media2.fl.yelpcdn.com/bphoto/rPruaRAA4JjuuWzHjzLEYg/o.jpg", "is_closed": false, "url": "https://www.yelp.com/biz/spread-deli-and-bottles-campbell-2?adjust_creative=R39z9kjZ-1HrCCc7SW6pcw&utm_campaign=yelp_api_v3&utm_medium=api_v3_business_search&utm_source=R39z9kjZ-1HrCCc7SW6pcw", "review_count": 441, "categories": [{"alias": "delis", "title": "Delis"}, {"alias": "beerbar", "title": "Beer Bar"}, {"alias": "sandwiches", "title": "Sandwiches"}], "rating": 4.0, "coordinates": {"latitude": 37.2871724, "longitude": -121.9467834}, "transactions": ["pickup", "delivery"], "price": "$$", "location": {"address1": "193 E Campbell Ave", "address2": "", "address3": "", "city": "Campbell", "zip_code": "95008", "country": "US", "state": "CA", "display_address": ["193 E Campbell Ave", "Campbell, CA 95008"]}, "phone": "+14083405549", "display_phone": "(408) 340-5549", "distance": 1317.075433325988}, {"id": "RisfATyjNE-nllW93zjv7g", "alias": "chef-ko-chinese-cuisine-campbell", "name": "Chef Ko Chinese Cuisine", "image_url": "https://s3-media3.fl.yelpcdn.com/bphoto/R4X5sET8h7uxSEo4AClZsQ/o.jpg", "is_closed": false, "url": "https://www.yelp.com/biz/chef-ko-chinese-cuisine-campbell?adjust_creative=R39z9kjZ-1HrCCc7SW6pcw&utm_campaign=yelp_api_v3&utm_medium=api_v3_business_search&utm_source=R39z9kjZ-1HrCCc7SW6pcw", "review_count": 325, "categories": [{"alias": "chinese", "title": "Chinese"}, {"alias": "vegetarian", "title": "Vegetarian"}], "rating": 3.5, "coordinates": {"latitude": 37.294028, "longitude": -121.964811}, "transactions": [], "price": "$$", "location": {"address1": "876 W Hamilton Ave", "address2": null, "address3": "", "city": "Campbell", "zip_code": "95008", "country": "US", "state": "CA", "display_address": ["876 W Hamilton Ave", "Campbell, CA 95008"]}, "phone": "+14088712598", "display_phone": "(408) 871-2598", "distance": 1835.0590414500457}, {"id": "uLCmw1zRLtlWAWAwxGHmSA", "alias": "sushi-randy-catering-campbell", "name": "Sushi Randy Catering", "image_url": "https://s3-media4.fl.yelpcdn.com/bphoto/lcEz7tjwbbN01P_BrGnHPQ/o.jpg", "is_closed": false, "url": "https://www.yelp.com/biz/sushi-randy-catering-campbell?adjust_creative=R39z9kjZ-1HrCCc7SW6pcw&utm_campaign=yelp_api_v3&utm_medium=api_v3_business_search&utm_source=R39z9kjZ-1HrCCc7SW6pcw", "review_count": 12, "categories": [{"alias": "catering", "title": "Caterers"}, {"alias": "sushi", "title": "Sushi Bars"}], "rating": 5.0, "coordinates": {"latitude": 37.28804, "longitude": -121.94819}, "transactions": [], "price": "$$$", "location": {"address1": "", "address2": "", "address3": "", "city": "Campbell", "zip_code": "95008", "country": "US", "state": "CA", "display_address": ["Campbell, CA 95008"]}, "phone": "+14085965554", "display_phone": "(408) 596-5554", "distance": 413.6529494602054}, {"id": "Vdm8Z8QPfT7HPlO0laUSIA", "alias": "negeen-restaurant-campbell", "name": "Negeen Restaurant", "image_url": "https://s3-media2.fl.yelpcdn.com/bphoto/U9Vatmdk_HadJFGKb8c86g/o.jpg", "is_closed": false, "url": "https://www.yelp.com/biz/negeen-restaurant-campbell?adjust_creative=R39z9kjZ-1HrCCc7SW6pcw&utm_campaign=yelp_api_v3&utm_medium=api_v3_business_search&utm_source=R39z9kjZ-1HrCCc7SW6pcw", "review_count": 507, "categories": [{"alias": "persian", "title": "Persian/Iranian"}, {"alias": "mideastern", "title": "Middle Eastern"}], "rating": 3.5, "coordinates": {"latitude": 37.2948, "longitude": -121.96382}, "transactions": ["pickup", "delivery"], "price": "$$", "location": {"address1": "801 W Hamilton Ave", "address2": "", "address3": "", "city": "Campbell", "zip_code": "95008", "country": "US", "state": "CA", "display_address": ["801 W Hamilton Ave", "Campbell, CA 95008"]}, "phone": "+14088666400", "display_phone": "(408) 866-6400", "distance": 1886.49205236408}, {"id": "lfglraZNCLmlp_7QxPvxUw", "alias": "stacks-campbell", "name": "Stacks", "image_url": "https://s3-media4.fl.yelpcdn.com/bphoto/E-Nz0fR9WLUjIXYITv2IlQ/o.jpg", "is_closed": false, "url": "https://www.yelp.com/biz/stacks-campbell?adjust_creative=R39z9kjZ-1HrCCc7SW6pcw&utm_campaign=yelp_api_v3&utm_medium=api_v3_business_search&utm_source=R39z9kjZ-1HrCCc7SW6pcw", "review_count": 1517, "categories": [{"alias": "breakfast_brunch", "title": "Breakfast & Brunch"}, {"alias": "tradamerican", "title": "American (Traditional)"}, {"alias": "gluten_free", "title": "Gluten-Free"}], "rating": 3.5, "coordinates": {"latitude": 37.28734, "longitude": -121.94769}, "transactions": ["pickup", "delivery"], "price": "$$", "location": {"address1": "139 E Campbell Ave", "address2": "", "address3": "", "city": "Campbell", "zip_code": "95008", "country": "US", "state": "CA", "display_address": ["139 E Campbell Ave", "Campbell, CA 95008"]}, "phone": "+14083763516", "display_phone": "(408) 376-3516", "distance": 1277.964095514389}, {"id": "4Jh14NKbQeIgrnSCgWxZBw", "alias": "fosters-freeze-campbell-2", "name": "Fosters Freeze", "image_url": "https://s3-media1.fl.yelpcdn.com/bphoto/iB102jDGz3nqu5cMfTZBlw/o.jpg", "is_closed": false, "url": "https://www.yelp.com/biz/fosters-freeze-campbell-2?adjust_creative=R39z9kjZ-1HrCCc7SW6pcw&utm_campaign=yelp_api_v3&utm_medium=api_v3_business_search&utm_source=R39z9kjZ-1HrCCc7SW6pcw", "review_count": 111, "categories": [{"alias": "icecream", "title": "Ice Cream & Frozen Yogurt"}, {"alias": "burgers", "title": "Burgers"}, {"alias": "tradamerican", "title": "American (Traditional)"}], "rating": 3.0, "coordinates": {"latitude": 37.26941, "longitude": -121.94465}, "transactions": [], "price": "$", "location": {"address1": "1360 Camden Ave", "address2": "", "address3": "", "city": "Campbell", "zip_code": "95008", "country": "US", "state": "CA", "display_address": ["1360 Camden Ave", "Campbell, CA 95008"]}, "phone": "+14084128863", "display_phone": "(408) 412-8863", "distance": 1512.3854219632635}, {"id": "JUPjDh12J2cF07A4NTYY9g", "alias": "little-chef-chinese-fast-food-san-jose", "name": "Little Chef Chinese Fast Food", "image_url": "https://s3-media3.fl.yelpcdn.com/bphoto/W29ffVdp8sgaoJYy4efPoQ/o.jpg", "is_closed": false, "url": "https://www.yelp.com/biz/little-chef-chinese-fast-food-san-jose?adjust_creative=R39z9kjZ-1HrCCc7SW6pcw&utm_campaign=yelp_api_v3&utm_medium=api_v3_business_search&utm_source=R39z9kjZ-1HrCCc7SW6pcw", "review_count": 178, "categories": [{"alias": "chinese", "title": "Chinese"}, {"alias": "hotdogs", "title": "Fast Food"}], "rating": 3.5, "coordinates": {"latitude": 37.29743, "longitude": -121.94956}, "transactions": [], "price": "$", "location": {"address1": "1462 S Winchester Blvd", "address2": "", "address3": "", "city": "San Jose", "zip_code": "95128", "country": "US", "state": "CA", "display_address": ["1462 S Winchester Blvd", "San Jose, CA 95128"]}, "phone": "+14083798766", "display_phone": "(408) 379-8766", "distance": 2190.4781641663217}, {"id": "y7jjHpDrYUI7YGpE8e31-g", "alias": "pita-and-salt-santa-clara-2", "name": "Pita & Salt", "image_url": "https://s3-media4.fl.yelpcdn.com/bphoto/OzeFWYEgK2L4rl5VOSyEHQ/o.jpg", "is_closed": false, "url": "https://www.yelp.com/biz/pita-and-salt-santa-clara-2?adjust_creative=R39z9kjZ-1HrCCc7SW6pcw&utm_campaign=yelp_api_v3&utm_medium=api_v3_business_search&utm_source=R39z9kjZ-1HrCCc7SW6pcw", "review_count": 74, "categories": [{"alias": "mediterranean", "title": "Mediterranean"}, {"alias": "halal", "title": "Halal"}, {"alias": "foodtrucks", "title": "Food Trucks"}], "rating": 4.5, "coordinates": {"latitude": 37.3400871, "longitude": -121.987255}, "transactions": ["pickup", "delivery"], "price": "$", "location": {"address1": null, "address2": null, "address3": "", "city": "Santa Clara", "zip_code": "95051", "country": "US", "state": "CA", "display_address": ["Santa Clara, CA 95051"]}, "phone": "+16128765509", "display_phone": "(612) 876-5509", "distance": 7327.688819654934}, {"id": "amctDQRvd4YsGuUL2de-HA", "alias": "mi-chalateca-pupuseria-san-jose", "name": "Mi Chalateca Pupuseria", "image_url": "https://s3-media3.fl.yelpcdn.com/bphoto/dkYZle96kCLVtu2FLXxtAg/o.jpg", "is_closed": false, "url": "https://www.yelp.com/biz/mi-chalateca-pupuseria-san-jose?adjust_creative=R39z9kjZ-1HrCCc7SW6pcw&utm_campaign=yelp_api_v3&utm_medium=api_v3_business_search&utm_source=R39z9kjZ-1HrCCc7SW6pcw", "review_count": 98, "categories": [{"alias": "salvadoran", "title": "Salvadoran"}, {"alias": "mexican", "title": "Mexican"}], "rating": 3.5, "coordinates": {"latitude": 37.2938520462706, "longitude": -121.975526894868}, "transactions": [], "price": "$", "location": {"address1": "4161 Hamilton Ave", "address2": "", "address3": "", "city": "San Jose", "zip_code": "95130", "country": "US", "state": "CA", "display_address": ["4161 Hamilton Ave", "San Jose, CA 95130"]}, "phone": "+14083791149", "display_phone": "(408) 379-1149", "distance": 2386.181259434126}, {"id": "RLey4p-g9POYvQJsp3cPKw", "alias": "sushi-zono-campbell", "name": "Sushi Zono", "image_url": "https://s3-media3.fl.yelpcdn.com/bphoto/M9Upvtg_Uhv4908MFdx0zw/o.jpg", "is_closed": false, "url": "https://www.yelp.com/biz/sushi-zono-campbell?adjust_creative=R39z9kjZ-1HrCCc7SW6pcw&utm_campaign=yelp_api_v3&utm_medium=api_v3_business_search&utm_source=R39z9kjZ-1HrCCc7SW6pcw", "review_count": 326, "categories": [{"alias": "japanese", "title": "Japanese"}, {"alias": "sushi", "title": "Sushi Bars"}], "rating": 4.0, "coordinates": {"latitude": 37.2948112487793, "longitude": -121.963829040527}, "transactions": ["pickup"], "price": "$$", "location": {"address1": "831 W Hamilton Ave", "address2": "", "address3": "", "city": "Campbell", "zip_code": "95008", "country": "US", "state": "CA", "display_address": ["831 W Hamilton Ave", "Campbell, CA 95008"]}, "phone": "+14083748366", "display_phone": "(408) 374-8366", "distance": 1906.2986830892569}, {"id": "uj0MAl1FCenYBTkpfr3aag", "alias": "mos-the-breakfast-burger-joint-campbell", "name": "Mo's The Breakfast + Burger Joint", "image_url": "https://s3-media1.fl.yelpcdn.com/bphoto/iU0r70s-nO52DhNncfgUNQ/o.jpg", "is_closed": false, "url": "https://www.yelp.com/biz/mos-the-breakfast-burger-joint-campbell?adjust_creative=R39z9kjZ-1HrCCc7SW6pcw&utm_campaign=yelp_api_v3&utm_medium=api_v3_business_search&utm_source=R39z9kjZ-1HrCCc7SW6pcw", "review_count": 977, "categories": [{"alias": "burgers", "title": "Burgers"}, {"alias": "breakfast_brunch", "title": "Breakfast & Brunch"}, {"alias": "hotdogs", "title": "Fast Food"}], "rating": 3.5, "coordinates": {"latitude": 37.2868646876156, "longitude": -121.944608507121}, "transactions": ["pickup", "delivery"], "price": "$$", "location": {"address1": "278 E Campbell Ave", "address2": "", "address3": "", "city": "Campbell", "zip_code": "95008", "country": "US", "state": "CA", "display_address": ["278 E Campbell Ave", "Campbell, CA 95008"]}, "phone": "+14088711300", "display_phone": "(408) 871-1300", "distance": 1435.9322651516895}, {"id": "dZj5zrjwgmMbomkZF7jbIg", "alias": "panera-bread-campbell", "name": "Panera Bread", "image_url": "https://s3-media2.fl.yelpcdn.com/bphoto/nfIlySGiS7zAi4Aty8f13g/o.jpg", "is_closed": false, "url": "https://www.yelp.com/biz/panera-bread-campbell?adjust_creative=R39z9kjZ-1HrCCc7SW6pcw&utm_campaign=yelp_api_v3&utm_medium=api_v3_business_search&utm_source=R39z9kjZ-1HrCCc7SW6pcw", "review_count": 303, "categories": [{"alias": "sandwiches", "title": "Sandwiches"}, {"alias": "salad", "title": "Salad"}, {"alias": "soup", "title": "Soup"}], "rating": 3.5, "coordinates": {"latitude": 37.294784, "longitude": -121.940413}, "transactions": [], "price": "$", "location": {"address1": "501 E Hamilton Ave", "address2": "", "address3": "", "city": "Campbell", "zip_code": "95008", "country": "US", "state": "CA", "display_address": ["501 E Hamilton Ave", "Campbell, CA 95008"]}, "phone": "+14083707840", "display_phone": "(408) 370-7840", "distance": 2324.1152108165643}, {"id": "2hVnQHXBULRdAEhvuxVAvQ", "alias": "el-libro-diablo-san-jose", "name": "El Libro Diablo", "image_url": "https://s3-media1.fl.yelpcdn.com/bphoto/zREffAnHiEo_lYHgbF9Cuw/o.jpg", "is_closed": false, "url": "https://www.yelp.com/biz/el-libro-diablo-san-jose?adjust_creative=R39z9kjZ-1HrCCc7SW6pcw&utm_campaign=yelp_api_v3&utm_medium=api_v3_business_search&utm_source=R39z9kjZ-1HrCCc7SW6pcw", "review_count": 1, "categories": [{"alias": "burgers", "title": "Burgers"}], "rating": 5.0, "coordinates": {"latitude": 37.2966851161154, "longitude": -121.952704377472}, "transactions": [], "price": "$$", "location": {"address1": "3189 Cadillac Dr 19", "address2": "Ste 19", "address3": "", "city": "San Jose", "zip_code": "95117", "country": "US", "state": "CA", "display_address": ["3189 Cadillac Dr 19", "Ste 19", "San Jose, CA 95117"]}, "phone": "+14089914254", "display_phone": "(408) 991-4254", "distance": 2040.0145723846442}, {"id": "hxG8bbA-0stSRikn8WhN-g", "alias": "city-pizza-campbell", "name": "City Pizza", "image_url": "https://s3-media3.fl.yelpcdn.com/bphoto/8JcXYjlH4SpFWXglBPmBqg/o.jpg", "is_closed": false, "url": "https://www.yelp.com/biz/city-pizza-campbell?adjust_creative=R39z9kjZ-1HrCCc7SW6pcw&utm_campaign=yelp_api_v3&utm_medium=api_v3_business_search&utm_source=R39z9kjZ-1HrCCc7SW6pcw", "review_count": 217, "categories": [{"alias": "pizza", "title": "Pizza"}], "rating": 4.0, "coordinates": {"latitude": 37.2939664, "longitude": -121.9651423}, "transactions": ["pickup", "delivery"], "price": "$$", "location": {"address1": "888 W Hamilton Ave", "address2": "", "address3": "", "city": "Campbell", "zip_code": "95008", "country": "US", "state": "CA", "display_address": ["888 W Hamilton Ave", "Campbell, CA 95008"]}, "phone": "+14083702489", "display_phone": "(408) 370-2489", "distance": 1817.3449419265487}, {"id": "kkxpBHZLHo0ub2cN78CVHQ", "alias": "wienerschnitzel-campbell", "name": "Wienerschnitzel", "image_url": "https://s3-media1.fl.yelpcdn.com/bphoto/8Gf5EphQdzFKXHC0ojNehQ/o.jpg", "is_closed": false, "url": "https://www.yelp.com/biz/wienerschnitzel-campbell?adjust_creative=R39z9kjZ-1HrCCc7SW6pcw&utm_campaign=yelp_api_v3&utm_medium=api_v3_business_search&utm_source=R39z9kjZ-1HrCCc7SW6pcw", "review_count": 37, "categories": [{"alias": "hotdogs", "title": "Fast Food"}, {"alias": "hotdog", "title": "Hot Dogs"}, {"alias": "sandwiches", "title": "Sandwiches"}], "rating": 3.0, "coordinates": {"latitude": 37.2698828113302, "longitude": -121.945310596649}, "transactions": [], "price": "$", "location": {"address1": "1330 Camden Ave", "address2": "", "address3": "", "city": "Campbell", "zip_code": "95008", "country": "US", "state": "CA", "display_address": ["1330 Camden Ave", "Campbell, CA 95008"]}, "phone": "+14085597721", "display_phone": "(408) 559-7721", "distance": 1434.9341828383313}, {"id": "vxteQDumgZhjcWqwzy3L3w", "alias": "mountain-mikes-pizza-campbell", "name": "Mountain Mike's Pizza", "image_url": "https://s3-media2.fl.yelpcdn.com/bphoto/kx8kqb6XYAA9OS0TTCEkHw/o.jpg", "is_closed": false, "url": "https://www.yelp.com/biz/mountain-mikes-pizza-campbell?adjust_creative=R39z9kjZ-1HrCCc7SW6pcw&utm_campaign=yelp_api_v3&utm_medium=api_v3_business_search&utm_source=R39z9kjZ-1HrCCc7SW6pcw", "review_count": 235, "categories": [{"alias": "pizza", "title": "Pizza"}], "rating": 3.5, "coordinates": {"latitude": 37.29463, "longitude": -121.944527}, "transactions": ["pickup", "delivery"], "price": "$$", "location": {"address1": "301 E. Hamilton Ave", "address2": null, "address3": "", "city": "Campbell", "zip_code": "95008", "country": "US", "state": "CA", "display_address": ["301 E. Hamilton Ave", "Campbell, CA 95008"]}, "phone": "+14083789090", "display_phone": "(408) 378-9090", "distance": 2096.175875445076}, {"id": "TAkG9JdZGXcRyjD-wfT45Q", "alias": "katie-blooms-irish-pub-restaurant-campbell", "name": "Katie Blooms Irish Pub Restaurant", "image_url": "https://s3-media4.fl.yelpcdn.com/bphoto/OCwGJEdgL_wyHe1zbS15Tw/o.jpg", "is_closed": false, "url": "https://www.yelp.com/biz/katie-blooms-irish-pub-restaurant-campbell?adjust_creative=R39z9kjZ-1HrCCc7SW6pcw&utm_campaign=yelp_api_v3&utm_medium=api_v3_business_search&utm_source=R39z9kjZ-1HrCCc7SW6pcw", "review_count": 414, "categories": [{"alias": "fishnchips", "title": "Fish & Chips"}, {"alias": "sportsbars", "title": "Sports Bars"}, {"alias": "irish_pubs", "title": "Irish Pub"}], "rating": 3.0, "coordinates": {"latitude": 37.28724, "longitude": -121.94338}, "transactions": [], "price": "$$", "location": {"address1": "369 E Campbell Ave", "address2": "", "address3": "", "city": "Campbell", "zip_code": "95008", "country": "US", "state": "CA", "display_address": ["369 E Campbell Ave", "Campbell, CA 95008"]}, "phone": "+14083799687", "display_phone": "(408) 379-9687", "distance": 1550.0732660284832}, {"id": "psvTzvVIVxtrr7QbC5hxog", "alias": "mama-mias-campbell", "name": "Mama Mia's", "image_url": "https://s3-media2.fl.yelpcdn.com/bphoto/juzN3bTY8Cb0RRfqlFAEwg/o.jpg", "is_closed": false, "url": "https://www.yelp.com/biz/mama-mias-campbell?adjust_creative=R39z9kjZ-1HrCCc7SW6pcw&utm_campaign=yelp_api_v3&utm_medium=api_v3_business_search&utm_source=R39z9kjZ-1HrCCc7SW6pcw", "review_count": 294, "categories": [{"alias": "italian", "title": "Italian"}, {"alias": "burgers", "title": "Burgers"}, {"alias": "sandwiches", "title": "Sandwiches"}], "rating": 3.5, "coordinates": {"latitude": 37.29397, "longitude": -121.94658}, "transactions": ["delivery"], "price": "$$", "location": {"address1": "200 E Hamilton Ave", "address2": "", "address3": "", "city": "Campbell", "zip_code": "95008", "country": "US", "state": "CA", "display_address": ["200 E Hamilton Ave", "Campbell, CA 95008"]}, "phone": "+14083793333", "display_phone": "(408) 379-3333", "distance": 1938.7552963141427}, {"id": "2gIYXYUWKLqW025iKPC2rA", "alias": "campbell-liquors-and-deli-campbell", "name": "Campbell Liquors and Deli", "image_url": "https://s3-media3.fl.yelpcdn.com/bphoto/OZ5xfk2Wzg8WKdJz7ay1yQ/o.jpg", "is_closed": false, "url": "https://www.yelp.com/biz/campbell-liquors-and-deli-campbell?adjust_creative=R39z9kjZ-1HrCCc7SW6pcw&utm_campaign=yelp_api_v3&utm_medium=api_v3_business_search&utm_source=R39z9kjZ-1HrCCc7SW6pcw", "review_count": 55, "categories": [{"alias": "beer_and_wine", "title": "Beer, Wine & Spirits"}, {"alias": "sandwiches", "title": "Sandwiches"}, {"alias": "grocery", "title": "Grocery"}], "rating": 4.0, "coordinates": {"latitude": 37.287376, "longitude": -121.941741}, "transactions": ["pickup", "delivery"], "price": "$", "location": {"address1": "479 E Campbell Ave", "address2": "", "address3": "", "city": "Campbell", "zip_code": "95008", "country": "US", "state": "CA", "display_address": ["479 E Campbell Ave", "Campbell, CA 95008"]}, "phone": "+14088710572", "display_phone": "(408) 871-0572", "distance": 1672.3406169428813}, {"id": "Ty5vlGlwQiAaqP2lHkNqGQ", "alias": "kellys-deli-campbell", "name": "Kelly's Deli", "image_url": "https://s3-media1.fl.yelpcdn.com/bphoto/3t9X-7DBoxHEjM9boHsh4Q/o.jpg", "is_closed": false, "url": "https://www.yelp.com/biz/kellys-deli-campbell?adjust_creative=R39z9kjZ-1HrCCc7SW6pcw&utm_campaign=yelp_api_v3&utm_medium=api_v3_business_search&utm_source=R39z9kjZ-1HrCCc7SW6pcw", "review_count": 16, "categories": [{"alias": "delis", "title": "Delis"}], "rating": 3.5, "coordinates": {"latitude": 37.2927125576854, "longitude": -121.941441111267}, "transactions": [], "price": "$", "location": {"address1": "408 Harrison Ave", "address2": "", "address3": "", "city": "Campbell", "zip_code": "95008", "country": "US", "state": "CA", "display_address": ["408 Harrison Ave", "Campbell, CA 95008"]}, "phone": "", "display_phone": "", "distance": 2090.1274706006493}, {"id": "vUI6W6wjYvZA9TBkaeJ7Fg", "alias": "kfc-campbell-6", "name": "KFC", "image_url": "https://s3-media3.fl.yelpcdn.com/bphoto/eKnwsFSwGBQVGJYBKQmFSw/o.jpg", "is_closed": false, "url": "https://www.yelp.com/biz/kfc-campbell-6?adjust_creative=R39z9kjZ-1HrCCc7SW6pcw&utm_campaign=yelp_api_v3&utm_medium=api_v3_business_search&utm_source=R39z9kjZ-1HrCCc7SW6pcw", "review_count": 116, "categories": [{"alias": "hotdogs", "title": "Fast Food"}, {"alias": "chicken_wings", "title": "Chicken Wings"}, {"alias": "chickenshop", "title": "Chicken Shop"}], "rating": 2.0, "coordinates": {"latitude": 37.2909040669421, "longitude": -121.950104}, "transactions": ["pickup", "delivery"], "price": "$", "location": {"address1": "1805 Winchester Rd", "address2": "", "address3": null, "city": "Campbell", "zip_code": "95008", "country": "US", "state": "CA", "display_address": ["1805 Winchester Rd", "Campbell, CA 95008"]}, "phone": "+14083743890", "display_phone": "(408) 374-3890", "distance": 1495.4672484221044}, {"id": "4gmDsMXsH_6vTB_Bjysu9g", "alias": "spartan-taco-truck-san-jose-4", "name": "Spartan Taco Truck", "image_url": "https://s3-media3.fl.yelpcdn.com/bphoto/wWT_uA8_FBoQz536K6La_g/o.jpg", "is_closed": false, "url": "https://www.yelp.com/biz/spartan-taco-truck-san-jose-4?adjust_creative=R39z9kjZ-1HrCCc7SW6pcw&utm_campaign=yelp_api_v3&utm_medium=api_v3_business_search&utm_source=R39z9kjZ-1HrCCc7SW6pcw", "review_count": 265, "categories": [{"alias": "foodtrucks", "title": "Food Trucks"}, {"alias": "tacos", "title": "Tacos"}], "rating": 4.0, "coordinates": {"latitude": 37.3330919691377, "longitude": -121.875863783062}, "transactions": [], "price": "$", "location": {"address1": "447 E William St", "address2": "", "address3": "", "city": "San Jose", "zip_code": "95112", "country": "US", "state": "CA", "display_address": ["447 E William St", "San Jose, CA 95112"]}, "phone": "+14087128161", "display_phone": "(408) 712-8161", "distance": 9397.326817594274}, {"id": "cksPQ8412I6UFCvD7ym-Iw", "alias": "sweet-deli-campbell", "name": "Sweet Deli", "image_url": "https://s3-media2.fl.yelpcdn.com/bphoto/GuyqYaBFZXuimjNlb6abfw/o.jpg", "is_closed": false, "url": "https://www.yelp.com/biz/sweet-deli-campbell?adjust_creative=R39z9kjZ-1HrCCc7SW6pcw&utm_campaign=yelp_api_v3&utm_medium=api_v3_business_search&utm_source=R39z9kjZ-1HrCCc7SW6pcw", "review_count": 33, "categories": [{"alias": "delis", "title": "Delis"}, {"alias": "burgers", "title": "Burgers"}, {"alias": "sandwiches", "title": "Sandwiches"}], "rating": 3.5, "coordinates": {"latitude": 37.2718, "longitude": -121.95193}, "transactions": ["pickup", "delivery"], "price": "$", "location": {"address1": "186 E Sunnyoaks Ave", "address2": "", "address3": "", "city": "Campbell", "zip_code": "95008", "country": "US", "state": "CA", "display_address": ["186 E Sunnyoaks Ave", "Campbell, CA 95008"]}, "phone": "+14083706755", "display_phone": "(408) 370-6755", "distance": 898.9686436980318}, {"id": "ZbPp8HdGrpFRCKkMignkrg", "alias": "jack-in-the-box-campbell-6", "name": "Jack in the Box", "image_url": "https://s3-media1.fl.yelpcdn.com/bphoto/W38felIFlI5lPCGm2qYcQQ/o.jpg", "is_closed": false, "url": "https://www.yelp.com/biz/jack-in-the-box-campbell-6?adjust_creative=R39z9kjZ-1HrCCc7SW6pcw&utm_campaign=yelp_api_v3&utm_medium=api_v3_business_search&utm_source=R39z9kjZ-1HrCCc7SW6pcw", "review_count": 55, "categories": [{"alias": "hotdogs", "title": "Fast Food"}, {"alias": "burgers", "title": "Burgers"}, {"alias": "tacos", "title": "Tacos"}], "rating": 2.0, "coordinates": {"latitude": 37.2939050940714, "longitude": -121.958779245615}, "transactions": [], "price": "$", "location": {"address1": "510 W Hamilton Ave", "address2": null, "address3": "", "city": "Campbell", "zip_code": "95008", "country": "US", "state": "CA", "display_address": ["510 W Hamilton Ave", "Campbell, CA 95008"]}, "phone": "+14088660131", "display_phone": "(408) 866-0131", "distance": 1698.2855032201494}, {"id": "kcFyW1h1Q8fcW03COYdE-w", "alias": "checkers-pizza-and-ribs-san-jose", "name": "Checkers Pizza & Ribs", "image_url": "https://s3-media4.fl.yelpcdn.com/bphoto/jSvIo5XmHg8_vjGsVA70VA/o.jpg", "is_closed": false, "url": "https://www.yelp.com/biz/checkers-pizza-and-ribs-san-jose?adjust_creative=R39z9kjZ-1HrCCc7SW6pcw&utm_campaign=yelp_api_v3&utm_medium=api_v3_business_search&utm_source=R39z9kjZ-1HrCCc7SW6pcw", "review_count": 131, "categories": [{"alias": "pizza", "title": "Pizza"}], "rating": 4.0, "coordinates": {"latitude": 37.2938527317773, "longitude": -121.975481998348}, "transactions": ["pickup", "delivery"], "price": "$$", "location": {"address1": "4157 Hamilton Ave", "address2": "", "address3": "", "city": "San Jose", "zip_code": "95130", "country": "US", "state": "CA", "display_address": ["4157 Hamilton Ave", "San Jose, CA 95130"]}, "phone": "+14083791700", "display_phone": "(408) 379-1700", "distance": 2362.8742629240537}, {"id": "MIjJLNl71tliYf65RDcQPg", "alias": "round-table-pizza-campbell-6", "name": "Round Table Pizza", "image_url": "https://s3-media4.fl.yelpcdn.com/bphoto/cngcLvWz4pimB4QRoS2SVg/o.jpg", "is_closed": false, "url": "https://www.yelp.com/biz/round-table-pizza-campbell-6?adjust_creative=R39z9kjZ-1HrCCc7SW6pcw&utm_campaign=yelp_api_v3&utm_medium=api_v3_business_search&utm_source=R39z9kjZ-1HrCCc7SW6pcw", "review_count": 122, "categories": [{"alias": "pizza", "title": "Pizza"}, {"alias": "buffets", "title": "Buffets"}], "rating": 2.5, "coordinates": {"latitude": 37.28586, "longitude": -121.97543}, "transactions": [], "price": "$$", "location": {"address1": "1400 W Campbell Ave", "address2": "", "address3": "", "city": "Campbell", "zip_code": "95008", "country": "US", "state": "CA", "display_address": ["1400 W Campbell Ave", "Campbell, CA 95008"]}, "phone": "+14083742640", "display_phone": "(408) 374-2640", "distance": 1794.9462251922953}, {"id": "7iJOxLYtbJ0NHPXICFk57w", "alias": "jovie-caf\u00e9-and-pho-campbell", "name": "Jovie Caf\u00e9 & Pho", "image_url": "https://s3-media4.fl.yelpcdn.com/bphoto/knO63OGrkLb8rxKisZAC7Q/o.jpg", "is_closed": false, "url": "https://www.yelp.com/biz/jovie-caf%C3%A9-and-pho-campbell?adjust_creative=R39z9kjZ-1HrCCc7SW6pcw&utm_campaign=yelp_api_v3&utm_medium=api_v3_business_search&utm_source=R39z9kjZ-1HrCCc7SW6pcw", "review_count": 194, "categories": [{"alias": "coffee", "title": "Coffee & Tea"}, {"alias": "sandwiches", "title": "Sandwiches"}, {"alias": "vietnamese", "title": "Vietnamese"}], "rating": 3.5, "coordinates": {"latitude": 37.287775, "longitude": -121.975157}, "transactions": [], "price": "$", "location": {"address1": "136 N San Tomas Aquino", "address2": null, "address3": "", "city": "Campbell", "zip_code": "95008", "country": "US", "state": "CA", "display_address": ["136 N San Tomas Aquino", "Campbell, CA 95008"]}, "phone": "+14088717805", "display_phone": "(408) 871-7805", "distance": 1885.2675605236657}, {"id": "eFze49p61lnz566lHbLcfw", "alias": "smoked-out-bbq-santa-clara-3", "name": "Smoked Out BBQ", "image_url": "https://s3-media2.fl.yelpcdn.com/bphoto/L77L7PXYKv_Ndhdx1B6y2A/o.jpg", "is_closed": false, "url": "https://www.yelp.com/biz/smoked-out-bbq-santa-clara-3?adjust_creative=R39z9kjZ-1HrCCc7SW6pcw&utm_campaign=yelp_api_v3&utm_medium=api_v3_business_search&utm_source=R39z9kjZ-1HrCCc7SW6pcw", "review_count": 101, "categories": [{"alias": "foodtrucks", "title": "Food Trucks"}, {"alias": "bbq", "title": "Barbeque"}, {"alias": "tradamerican", "title": "American (Traditional)"}], "rating": 4.5, "coordinates": {"latitude": 37.38453, "longitude": -121.94872}, "transactions": ["pickup", "delivery"], "price": "$$", "location": {"address1": "807 Aldo Ave", "address2": "Ste 106", "address3": "", "city": "Santa Clara", "zip_code": "95054", "country": "US", "state": "CA", "display_address": ["807 Aldo Ave", "Ste 106", "Santa Clara, CA 95054"]}, "phone": "+14083202971", "display_phone": "(408) 320-2971", "distance": 11811.729119045334}, {"id": "K7D04S6t92mobtXsDJADAQ", "alias": "gutierrez-autentica-comida-mexicana-san-jose", "name": "Gutierrez Autentica Comida Mexicana", "image_url": "https://s3-media1.fl.yelpcdn.com/bphoto/Rn02yImW70sQuYPLbrIvRg/o.jpg", "is_closed": false, "url": "https://www.yelp.com/biz/gutierrez-autentica-comida-mexicana-san-jose?adjust_creative=R39z9kjZ-1HrCCc7SW6pcw&utm_campaign=yelp_api_v3&utm_medium=api_v3_business_search&utm_source=R39z9kjZ-1HrCCc7SW6pcw", "review_count": 46, "categories": [{"alias": "mexican", "title": "Mexican"}, {"alias": "foodtrucks", "title": "Food Trucks"}], "rating": 4.5, "coordinates": {"latitude": 37.271189, "longitude": -121.905465}, "transactions": [], "price": "$", "location": {"address1": "1645 Foxworthy Ave", "address2": null, "address3": "", "city": "San Jose", "zip_code": "95118", "country": "US", "state": "CA", "display_address": ["1645 Foxworthy Ave", "San Jose, CA 95118"]}, "phone": "+14086612334", "display_phone": "(408) 661-2334", "distance": 4650.164526969557}, {"id": "RazTr1_onUzfzTo2wuvTVA", "alias": "orchard-valley-coffee-campbell-2", "name": "Orchard Valley Coffee", "image_url": "https://s3-media2.fl.yelpcdn.com/bphoto/SPjGJWNqbh84L8luGX0vEw/o.jpg", "is_closed": false, "url": "https://www.yelp.com/biz/orchard-valley-coffee-campbell-2?adjust_creative=R39z9kjZ-1HrCCc7SW6pcw&utm_campaign=yelp_api_v3&utm_medium=api_v3_business_search&utm_source=R39z9kjZ-1HrCCc7SW6pcw", "review_count": 512, "categories": [{"alias": "coffee", "title": "Coffee & Tea"}, {"alias": "bakeries", "title": "Bakeries"}, {"alias": "breakfast_brunch", "title": "Breakfast & Brunch"}], "rating": 3.0, "coordinates": {"latitude": 37.2871849, "longitude": -121.9438798}, "transactions": [], "price": "$", "location": {"address1": "349 E Campbell Ave", "address2": "", "address3": "", "city": "Campbell", "zip_code": "95008", "country": "US", "state": "CA", "display_address": ["349 E Campbell Ave", "Campbell, CA 95008"]}, "phone": "+14083742115", "display_phone": "(408) 374-2115", "distance": 1515.5292786412347}, {"id": "_wswRZqUKS0b3xoWeGl9BQ", "alias": "jerusalem-grill-campbell-6", "name": "Jerusalem Grill", "image_url": "https://s3-media2.fl.yelpcdn.com/bphoto/IrdC3rvEIVwRT_f7cPxq2w/o.jpg", "is_closed": false, "url": "https://www.yelp.com/biz/jerusalem-grill-campbell-6?adjust_creative=R39z9kjZ-1HrCCc7SW6pcw&utm_campaign=yelp_api_v3&utm_medium=api_v3_business_search&utm_source=R39z9kjZ-1HrCCc7SW6pcw", "review_count": 634, "categories": [{"alias": "mideastern", "title": "Middle Eastern"}, {"alias": "halal", "title": "Halal"}, {"alias": "mediterranean", "title": "Mediterranean"}], "rating": 4.0, "coordinates": {"latitude": 37.29226, "longitude": -121.94951}, "transactions": ["pickup", "delivery"], "price": "$$", "location": {"address1": "1740 S Winchester Blvd", "address2": "", "address3": "", "city": "Campbell", "zip_code": "95008", "country": "US", "state": "CA", "display_address": ["1740 S Winchester Blvd", "Campbell, CA 95008"]}, "phone": "+14088662666", "display_phone": "(408) 866-2666", "distance": 1660.0149675630673}, {"id": "Kl7tw36Mj2-Xac_OcfO_5Q", "alias": "kfc-san-jose-28", "name": "KFC", "image_url": "https://s3-media4.fl.yelpcdn.com/bphoto/aqphKZrpOoxEpxqnxIn3NQ/o.jpg", "is_closed": false, "url": "https://www.yelp.com/biz/kfc-san-jose-28?adjust_creative=R39z9kjZ-1HrCCc7SW6pcw&utm_campaign=yelp_api_v3&utm_medium=api_v3_business_search&utm_source=R39z9kjZ-1HrCCc7SW6pcw", "review_count": 133, "categories": [{"alias": "hotdogs", "title": "Fast Food"}, {"alias": "chicken_wings", "title": "Chicken Wings"}, {"alias": "chickenshop", "title": "Chicken Shop"}], "rating": 3.0, "coordinates": {"latitude": 37.266664, "longitude": -121.940225}, "transactions": ["delivery", "pickup"], "price": "$", "location": {"address1": "3144 S Bascom Ave", "address2": "", "address3": "", "city": "San Jose", "zip_code": "95124", "country": "US", "state": "CA", "display_address": ["3144 S Bascom Ave", "San Jose, CA 95124"]}, "phone": "+14083710944", "display_phone": "(408) 371-0944", "distance": 2008.6555308316144}, {"id": "bc0Alx3dBXBTF1PrQNNSHw", "alias": "purple-onion-cafe-los-gatos-2", "name": "Purple Onion Cafe", "image_url": "https://s3-media3.fl.yelpcdn.com/bphoto/2HvE8KkkD953gv6LzsiMdg/o.jpg", "is_closed": false, "url": "https://www.yelp.com/biz/purple-onion-cafe-los-gatos-2?adjust_creative=R39z9kjZ-1HrCCc7SW6pcw&utm_campaign=yelp_api_v3&utm_medium=api_v3_business_search&utm_source=R39z9kjZ-1HrCCc7SW6pcw", "review_count": 225, "categories": [{"alias": "cafes", "title": "Cafes"}, {"alias": "breakfast_brunch", "title": "Breakfast & Brunch"}, {"alias": "sandwiches", "title": "Sandwiches"}], "rating": 3.5, "coordinates": {"latitude": 37.26251, "longitude": -121.96227}, "transactions": [], "price": "$$", "location": {"address1": "14107 Winchester Blvd", "address2": "Ste R", "address3": "", "city": "Los Gatos", "zip_code": "95032", "country": "US", "state": "CA", "display_address": ["14107 Winchester Blvd", "Ste R", "Los Gatos, CA 95032"]}, "phone": "+14088712522", "display_phone": "(408) 871-2522", "distance": 1873.730681608968}, {"id": "6ymLWYTFyCZPxMmQim2h3g", "alias": "burger-king-campbell", "name": "Burger King", "image_url": "https://s3-media1.fl.yelpcdn.com/bphoto/nuU6Ohvi4kTLN0H39PtssQ/o.jpg", "is_closed": false, "url": "https://www.yelp.com/biz/burger-king-campbell?adjust_creative=R39z9kjZ-1HrCCc7SW6pcw&utm_campaign=yelp_api_v3&utm_medium=api_v3_business_search&utm_source=R39z9kjZ-1HrCCc7SW6pcw", "review_count": 81, "categories": [{"alias": "burgers", "title": "Burgers"}, {"alias": "hotdogs", "title": "Fast Food"}], "rating": 1.5, "coordinates": {"latitude": 37.294603, "longitude": -121.950602}, "transactions": [], "price": "$", "location": {"address1": "49 West Hamilton Ave", "address2": "", "address3": "", "city": "Campbell", "zip_code": "95008", "country": "US", "state": "CA", "display_address": ["49 West Hamilton Ave", "Campbell, CA 95008"]}, "phone": "+14088661211", "display_phone": "(408) 866-1211", "distance": 1865.6628285879117}, {"id": "WH-OsXkYosOaLJS0jkOMeA", "alias": "medinas-taqueria-taco-truck-san-jose", "name": "Medina's Taqueria Taco Truck", "image_url": "https://s3-media1.fl.yelpcdn.com/bphoto/KiumMPhlU9Ta2NH-mUtbZg/o.jpg", "is_closed": false, "url": "https://www.yelp.com/biz/medinas-taqueria-taco-truck-san-jose?adjust_creative=R39z9kjZ-1HrCCc7SW6pcw&utm_campaign=yelp_api_v3&utm_medium=api_v3_business_search&utm_source=R39z9kjZ-1HrCCc7SW6pcw", "review_count": 5, "categories": [{"alias": "mexican", "title": "Mexican"}, {"alias": "foodstands", "title": "Food Stands"}], "rating": 4.5, "coordinates": {"latitude": 37.2965812683105, "longitude": -121.950592041016}, "transactions": [], "price": "$", "location": {"address1": "1505 S Winchester Blvd", "address2": "", "address3": "", "city": "San Jose", "zip_code": "95128", "country": "US", "state": "CA", "display_address": ["1505 S Winchester Blvd", "San Jose, CA 95128"]}, "phone": "", "display_phone": "", "distance": 2078.2478379011554}, {"id": "1j4wNVzDmpTWVMXa3DU7SA", "alias": "taco-bell-campbell-4", "name": "Taco Bell", "image_url": "https://s3-media2.fl.yelpcdn.com/bphoto/mDVw90IHdOViFsznDtIWow/o.jpg", "is_closed": false, "url": "https://www.yelp.com/biz/taco-bell-campbell-4?adjust_creative=R39z9kjZ-1HrCCc7SW6pcw&utm_campaign=yelp_api_v3&utm_medium=api_v3_business_search&utm_source=R39z9kjZ-1HrCCc7SW6pcw", "review_count": 138, "categories": [{"alias": "hotdogs", "title": "Fast Food"}, {"alias": "tacos", "title": "Tacos"}], "rating": 1.5, "coordinates": {"latitude": 37.268277, "longitude": -121.943394}, "transactions": ["delivery"], "price": "$", "location": {"address1": "1450 Camden Ave.", "address2": "", "address3": "", "city": "Campbell", "zip_code": "95008", "country": "US", "state": "CA", "display_address": ["1450 Camden Ave.", "Campbell, CA 95008"]}, "phone": "+14088790904", "display_phone": "(408) 879-0904", "distance": 1680.8161011378147}, {"id": "c70hZ5MTWxCHF5fFt7k5bw", "alias": "sunny-oaks-valero-gas-and-deli-campbell-3", "name": "Sunny Oaks Valero Gas & Deli", "image_url": "https://s3-media4.fl.yelpcdn.com/bphoto/08iOUt55NRthsg4EzQfMzQ/o.jpg", "is_closed": false, "url": "https://www.yelp.com/biz/sunny-oaks-valero-gas-and-deli-campbell-3?adjust_creative=R39z9kjZ-1HrCCc7SW6pcw&utm_campaign=yelp_api_v3&utm_medium=api_v3_business_search&utm_source=R39z9kjZ-1HrCCc7SW6pcw", "review_count": 43, "categories": [{"alias": "delis", "title": "Delis"}, {"alias": "breakfast_brunch", "title": "Breakfast & Brunch"}, {"alias": "sandwiches", "title": "Sandwiches"}], "rating": 3.5, "coordinates": {"latitude": 37.271909, "longitude": -121.954532}, "transactions": [], "price": "$", "location": {"address1": "2855 Winchester Blvd", "address2": "", "address3": "Valero Gas Station", "city": "Campbell", "zip_code": "95008", "country": "US", "state": "CA", "display_address": ["2855 Winchester Blvd", "Valero Gas Station", "Campbell, CA 95008"]}, "phone": "+14083798612", "display_phone": "(408) 379-8612", "distance": 779.8237884880665}, {"id": "0x_iVQeDq7YVMjNGUNuloA", "alias": "holy-cannoli-san-jose-3", "name": "Holy Cannoli", "image_url": "https://s3-media1.fl.yelpcdn.com/bphoto/-2Pxy7VYA8-CTgdvUf58Og/o.jpg", "is_closed": false, "url": "https://www.yelp.com/biz/holy-cannoli-san-jose-3?adjust_creative=R39z9kjZ-1HrCCc7SW6pcw&utm_campaign=yelp_api_v3&utm_medium=api_v3_business_search&utm_source=R39z9kjZ-1HrCCc7SW6pcw", "review_count": 58, "categories": [{"alias": "cafes", "title": "Cafes"}, {"alias": "catering", "title": "Caterers"}, {"alias": "foodtrucks", "title": "Food Trucks"}], "rating": 4.5, "coordinates": {"latitude": 37.337298, "longitude": -121.88759}, "transactions": ["delivery", "pickup"], "price": "$", "location": {"address1": "138 E Santa Clara St", "address2": null, "address3": null, "city": "San Jose", "zip_code": "95113", "country": "US", "state": "CA", "display_address": ["138 E Santa Clara St", "San Jose, CA 95113"]}, "phone": "+14085612223", "display_phone": "(408) 561-2223", "distance": 8963.514980501806}, {"id": "kQEPAzL76d_4F8RJwpmYCQ", "alias": "3-3-3-fremont", "name": "3-3-3", "image_url": "https://s3-media1.fl.yelpcdn.com/bphoto/WrUzEXSitGcLpQkVQsUgWg/o.jpg", "is_closed": false, "url": "https://www.yelp.com/biz/3-3-3-fremont?adjust_creative=R39z9kjZ-1HrCCc7SW6pcw&utm_campaign=yelp_api_v3&utm_medium=api_v3_business_search&utm_source=R39z9kjZ-1HrCCc7SW6pcw", "review_count": 182, "categories": [{"alias": "korean", "title": "Korean"}, {"alias": "foodtrucks", "title": "Food Trucks"}, {"alias": "indpak", "title": "Indian"}], "rating": 4.0, "coordinates": {"latitude": 37.3595859789331, "longitude": -121.923039561035}, "transactions": [], "price": "$", "location": {"address1": "", "address2": null, "address3": "", "city": "Fremont", "zip_code": "94539", "country": "US", "state": "CA", "display_address": ["Fremont, CA 94539"]}, "phone": "+15104498360", "display_phone": "(510) 449-8360", "distance": 9488.444419500976}, {"id": "qWUgZExoSRPfa_wQCv3MYw", "alias": "subway-restaurants-campbell-7", "name": "Subway Restaurants", "image_url": "https://s3-media1.fl.yelpcdn.com/bphoto/bFZyZF2erIhffSWG5ezgAA/o.jpg", "is_closed": false, "url": "https://www.yelp.com/biz/subway-restaurants-campbell-7?adjust_creative=R39z9kjZ-1HrCCc7SW6pcw&utm_campaign=yelp_api_v3&utm_medium=api_v3_business_search&utm_source=R39z9kjZ-1HrCCc7SW6pcw", "review_count": 28, "categories": [{"alias": "sandwiches", "title": "Sandwiches"}], "rating": 3.5, "coordinates": {"latitude": 37.2939701, "longitude": -121.9650111}, "transactions": [], "price": "$", "location": {"address1": "882 W Hamilton Ave", "address2": "", "address3": "", "city": "Campbell", "zip_code": "95008", "country": "US", "state": "CA", "display_address": ["882 W Hamilton Ave", "Campbell, CA 95008"]}, "phone": "+14083702133", "display_phone": "(408) 370-2133", "distance": 1808.8580592272094}, {"id": "nT5625Mhv4fjdNIuag-sjw", "alias": "mcdonalds-san-jose-7", "name": "McDonald's", "image_url": "https://s3-media1.fl.yelpcdn.com/bphoto/UbIJsEntoTFiMeEJx1M8Ug/o.jpg", "is_closed": false, "url": "https://www.yelp.com/biz/mcdonalds-san-jose-7?adjust_creative=R39z9kjZ-1HrCCc7SW6pcw&utm_campaign=yelp_api_v3&utm_medium=api_v3_business_search&utm_source=R39z9kjZ-1HrCCc7SW6pcw", "review_count": 55, "categories": [{"alias": "burgers", "title": "Burgers"}, {"alias": "hotdogs", "title": "Fast Food"}, {"alias": "coffee", "title": "Coffee & Tea"}], "rating": 2.0, "coordinates": {"latitude": 37.2980797560362, "longitude": -121.950459033251}, "transactions": [], "price": "$", "location": {"address1": "1435 S Winchester Blvd", "address2": "", "address3": "", "city": "San Jose", "zip_code": "95128", "country": "US", "state": "CA", "display_address": ["1435 S Winchester Blvd", "San Jose, CA 95128"]}, "phone": "+14083782040", "display_phone": "(408) 378-2040", "distance": 2236.695190809739}, {"id": "YZtYe6m6M65QqCe-C3RdSA", "alias": "subway-restaurants-campbell-3", "name": "Subway Restaurants", "image_url": "https://s3-media3.fl.yelpcdn.com/bphoto/TsUe6bdZj5v_bP9iVpGkXQ/o.jpg", "is_closed": false, "url": "https://www.yelp.com/biz/subway-restaurants-campbell-3?adjust_creative=R39z9kjZ-1HrCCc7SW6pcw&utm_campaign=yelp_api_v3&utm_medium=api_v3_business_search&utm_source=R39z9kjZ-1HrCCc7SW6pcw", "review_count": 59, "categories": [{"alias": "sandwiches", "title": "Sandwiches"}], "rating": 2.0, "coordinates": {"latitude": 37.28678, "longitude": -121.94946}, "transactions": ["delivery", "pickup"], "price": "$", "location": {"address1": "2006 Winchester Blvd", "address2": null, "address3": "", "city": "Campbell", "zip_code": "95008", "country": "US", "state": "CA", "display_address": ["2006 Winchester Blvd", "Campbell, CA 95008"]}, "phone": "+14083709003", "display_phone": "(408) 370-9003", "distance": 1122.6119181409297}, {"id": "LfwBfIglXrCZ37o_2fXLLQ", "alias": "josas-tacos-san-jose", "name": "Josas Tacos", "image_url": "https://s3-media2.fl.yelpcdn.com/bphoto/Y0idzD49klfxtcl4FPfV0g/o.jpg", "is_closed": false, "url": "https://www.yelp.com/biz/josas-tacos-san-jose?adjust_creative=R39z9kjZ-1HrCCc7SW6pcw&utm_campaign=yelp_api_v3&utm_medium=api_v3_business_search&utm_source=R39z9kjZ-1HrCCc7SW6pcw", "review_count": 25, "categories": [{"alias": "foodstands", "title": "Food Stands"}, {"alias": "tacos", "title": "Tacos"}], "rating": 5.0, "coordinates": {"latitude": 37.33311, "longitude": -121.89185}, "transactions": [], "price": "$", "location": {"address1": "", "address2": "", "address3": null, "city": "San Jose", "zip_code": "95113", "country": "US", "state": "CA", "display_address": ["San Jose, CA 95113"]}, "phone": "+18086461937", "display_phone": "(808) 646-1937", "distance": 8331.52653965846}, {"id": "M5a76RmLKpmqC1tgNPdUwQ", "alias": "santhy-5-star-biryani-san-jose-4", "name": "Santhy 5 Star Biryani", "image_url": "https://s3-media1.fl.yelpcdn.com/bphoto/Sfz2MXzo359IQVNBzzcGjg/o.jpg", "is_closed": false, "url": "https://www.yelp.com/biz/santhy-5-star-biryani-san-jose-4?adjust_creative=R39z9kjZ-1HrCCc7SW6pcw&utm_campaign=yelp_api_v3&utm_medium=api_v3_business_search&utm_source=R39z9kjZ-1HrCCc7SW6pcw", "review_count": 3, "categories": [{"alias": "foodtrucks", "title": "Food Trucks"}, {"alias": "indpak", "title": "Indian"}], "rating": 3.5, "coordinates": {"latitude": 37.295383, "longitude": -121.92662}, "transactions": ["delivery", "pickup"], "location": {"address1": "2025 Hamilton Ave", "address2": null, "address3": "", "city": "San Jose", "zip_code": "95125", "country": "US", "state": "CA", "display_address": ["2025 Hamilton Ave", "San Jose, CA 95125"]}, "phone": "+15105569698", "display_phone": "(510) 556-9698", "distance": 3301.325555592806}, {"id": "3vpe03iIZMCN1j0W39AROg", "alias": "akita-gourmet-santa-clara", "name": "Akita Gourmet", "image_url": "https://s3-media2.fl.yelpcdn.com/bphoto/pJgeD4nO8FKiP1wouYt6fA/o.jpg", "is_closed": false, "url": "https://www.yelp.com/biz/akita-gourmet-santa-clara?adjust_creative=R39z9kjZ-1HrCCc7SW6pcw&utm_campaign=yelp_api_v3&utm_medium=api_v3_business_search&utm_source=R39z9kjZ-1HrCCc7SW6pcw", "review_count": 51, "categories": [{"alias": "foodtrucks", "title": "Food Trucks"}, {"alias": "sushi", "title": "Sushi Bars"}], "rating": 4.0, "coordinates": {"latitude": 37.3572313, "longitude": -121.9340228}, "transactions": ["delivery"], "price": "$$", "location": {"address1": "1290 Coleman Av", "address2": null, "address3": "", "city": "Santa Clara", "zip_code": "95050", "country": "US", "state": "CA", "display_address": ["1290 Coleman Av", "Santa Clara, CA 95050"]}, "phone": "+14089305242", "display_phone": "(408) 930-5242", "distance": 8970.476050497156}, {"id": "gLwtArfNeNfkcQUlO_kzFw", "alias": "jack-in-the-box-campbell-3", "name": "Jack in the Box", "image_url": "https://s3-media1.fl.yelpcdn.com/bphoto/MclrcgTrcZE7gysFOwXXQQ/o.jpg", "is_closed": false, "url": "https://www.yelp.com/biz/jack-in-the-box-campbell-3?adjust_creative=R39z9kjZ-1HrCCc7SW6pcw&utm_campaign=yelp_api_v3&utm_medium=api_v3_business_search&utm_source=R39z9kjZ-1HrCCc7SW6pcw", "review_count": 43, "categories": [{"alias": "hotdogs", "title": "Fast Food"}, {"alias": "burgers", "title": "Burgers"}, {"alias": "tacos", "title": "Tacos"}], "rating": 2.0, "coordinates": {"latitude": 37.285836767319, "longitude": -121.975748240948}, "transactions": [], "price": "$", "location": {"address1": "1450 W Campbell Ave", "address2": "", "address3": "", "city": "Campbell", "zip_code": "95008", "country": "US", "state": "CA", "display_address": ["1450 W Campbell Ave", "Campbell, CA 95008"]}, "phone": "+14083780621", "display_phone": "(408) 378-0621", "distance": 1826.0189967875444}, {"id": "91VaoZY6oT-T2KLTcLQc4w", "alias": "jack-in-the-box-campbell-4", "name": "Jack in the Box", "image_url": "https://s3-media2.fl.yelpcdn.com/bphoto/AWzv7HY3eIyvtcmRj-IO7A/o.jpg", "is_closed": false, "url": "https://www.yelp.com/biz/jack-in-the-box-campbell-4?adjust_creative=R39z9kjZ-1HrCCc7SW6pcw&utm_campaign=yelp_api_v3&utm_medium=api_v3_business_search&utm_source=R39z9kjZ-1HrCCc7SW6pcw", "review_count": 70, "categories": [{"alias": "burgers", "title": "Burgers"}, {"alias": "hotdogs", "title": "Fast Food"}, {"alias": "tacos", "title": "Tacos"}], "rating": 2.0, "coordinates": {"latitude": 37.2695, "longitude": -121.946}, "transactions": ["delivery"], "price": "$", "location": {"address1": "1301 Camden Ave", "address2": null, "address3": null, "city": "Campbell", "zip_code": "95008", "country": "US", "state": "CA", "display_address": ["1301 Camden Ave", "Campbell, CA 95008"]}, "phone": "+14083719313", "display_phone": "(408) 371-9313", "distance": 1424.646242743101}, {"id": "6O07d7HbL1QQonLdJP5Ltw", "alias": "subway-restaurants-campbell", "name": "Subway Restaurants", "image_url": "https://s3-media2.fl.yelpcdn.com/bphoto/ZTFcLQ3flWXYGSgVZDoJfw/o.jpg", "is_closed": false, "url": "https://www.yelp.com/biz/subway-restaurants-campbell?adjust_creative=R39z9kjZ-1HrCCc7SW6pcw&utm_campaign=yelp_api_v3&utm_medium=api_v3_business_search&utm_source=R39z9kjZ-1HrCCc7SW6pcw", "review_count": 22, "categories": [{"alias": "sandwiches", "title": "Sandwiches"}], "rating": 3.0, "coordinates": {"latitude": 37.2685525, "longitude": -121.9437223}, "transactions": ["delivery", "pickup"], "price": "$", "location": {"address1": "1410 Camden Ave", "address2": "", "address3": "", "city": "Campbell", "zip_code": "95008", "country": "US", "state": "CA", "display_address": ["1410 Camden Ave", "Campbell, CA 95008"]}, "phone": "+14085587923", "display_phone": "(408) 558-7923", "distance": 1615.3043623226015}, {"id": "otW2PO6PtOjMp3r6llCI4g", "alias": "blendz-express-campbell", "name": "Blendz Express", "image_url": "", "is_closed": false, "url": "https://www.yelp.com/biz/blendz-express-campbell?adjust_creative=R39z9kjZ-1HrCCc7SW6pcw&utm_campaign=yelp_api_v3&utm_medium=api_v3_business_search&utm_source=R39z9kjZ-1HrCCc7SW6pcw", "review_count": 1, "categories": [{"alias": "sandwiches", "title": "Sandwiches"}], "rating": 5.0, "coordinates": {"latitude": 37.2943192, "longitude": -121.9375992}, "transactions": [], "location": {"address1": "2752 Hamilton Ave", "address2": "", "address3": "", "city": "Campbell", "zip_code": "95008", "country": "US", "state": "CA", "display_address": ["2752 Hamilton Ave", "Campbell, CA 95008"]}, "phone": "+14083941156", "display_phone": "(408) 394-1156", "distance": 1993.1977119030796}, {"id": "6uCoenl8tcOe65uzjl9e4Q", "alias": "a-and-w-san-jose-2", "name": "A&W", "image_url": "https://s3-media3.fl.yelpcdn.com/bphoto/K65PbCX0Vbzy6gBMMzAEkg/o.jpg", "is_closed": false, "url": "https://www.yelp.com/biz/a-and-w-san-jose-2?adjust_creative=R39z9kjZ-1HrCCc7SW6pcw&utm_campaign=yelp_api_v3&utm_medium=api_v3_business_search&utm_source=R39z9kjZ-1HrCCc7SW6pcw", "review_count": 19, "categories": [{"alias": "hotdogs", "title": "Fast Food"}, {"alias": "burgers", "title": "Burgers"}, {"alias": "hotdog", "title": "Hot Dogs"}], "rating": 2.0, "coordinates": {"latitude": 37.2665596008301, "longitude": -121.940124511719}, "transactions": [], "price": "$", "location": {"address1": "3144 South Bascom Avenue", "address2": "", "address3": "", "city": "San Jose", "zip_code": "95124", "country": "US", "state": "CA", "display_address": ["3144 South Bascom Avenue", "San Jose, CA 95124"]}, "phone": "+14083710944", "display_phone": "(408) 371-0944", "distance": 2007.6971020120607}, {"id": "_Y526-jjGzk_fjXBj1EePA", "alias": "paddy-wagon-sliders-san-jose-11", "name": "Paddy Wagon Sliders", "image_url": "https://s3-media1.fl.yelpcdn.com/bphoto/ESoDFDH27crUaTgFNhJB0w/o.jpg", "is_closed": false, "url": "https://www.yelp.com/biz/paddy-wagon-sliders-san-jose-11?adjust_creative=R39z9kjZ-1HrCCc7SW6pcw&utm_campaign=yelp_api_v3&utm_medium=api_v3_business_search&utm_source=R39z9kjZ-1HrCCc7SW6pcw", "review_count": 225, "categories": [{"alias": "foodtrucks", "title": "Food Trucks"}, {"alias": "burgers", "title": "Burgers"}, {"alias": "catering", "title": "Caterers"}], "rating": 4.0, "coordinates": {"latitude": 37.3382082, "longitude": -121.8863286}, "transactions": [], "price": "$", "location": {"address1": "", "address2": null, "address3": "", "city": "San Jose", "zip_code": "95112", "country": "US", "state": "CA", "display_address": ["San Jose, CA 95112"]}, "phone": "+14086435254", "display_phone": "(408) 643-5254", "distance": 9113.676692622577}, {"id": "E9ExesWjWXa7X-PFUqZxcg", "alias": "los-jamaytecos-sunnyvale", "name": "Los JamayTecos", "image_url": "https://s3-media4.fl.yelpcdn.com/bphoto/m27LP30Equ8c4I50TWRWAw/o.jpg", "is_closed": false, "url": "https://www.yelp.com/biz/los-jamaytecos-sunnyvale?adjust_creative=R39z9kjZ-1HrCCc7SW6pcw&utm_campaign=yelp_api_v3&utm_medium=api_v3_business_search&utm_source=R39z9kjZ-1HrCCc7SW6pcw", "review_count": 34, "categories": [{"alias": "tacos", "title": "Tacos"}, {"alias": "foodtrucks", "title": "Food Trucks"}], "rating": 4.5, "coordinates": {"latitude": 37.3522, "longitude": -122.03485}, "transactions": [], "price": "$", "location": {"address1": "", "address2": "", "address3": null, "city": "Sunnyvale", "zip_code": "94087", "country": "US", "state": "CA", "display_address": ["Sunnyvale, CA 94087"]}, "phone": "+14083989234", "display_phone": "(408) 398-9234", "distance": 10295.519806719249}, {"id": "osRgL5pZPi5k2MPTBKpH8A", "alias": "el-charro-campbell", "name": "El Charro", "image_url": "https://s3-media2.fl.yelpcdn.com/bphoto/W8LWiTqfXS2TOlqHFaLUbA/o.jpg", "is_closed": false, "url": "https://www.yelp.com/biz/el-charro-campbell?adjust_creative=R39z9kjZ-1HrCCc7SW6pcw&utm_campaign=yelp_api_v3&utm_medium=api_v3_business_search&utm_source=R39z9kjZ-1HrCCc7SW6pcw", "review_count": 1, "categories": [{"alias": "mexican", "title": "Mexican"}], "rating": 1.0, "coordinates": {"latitude": 37.2837219, "longitude": -121.9499512}, "transactions": [], "location": {"address1": "2169 Winchester Blvd", "address2": "", "address3": "", "city": "Campbell", "zip_code": "95008", "country": "US", "state": "CA", "display_address": ["2169 Winchester Blvd", "Campbell, CA 95008"]}, "phone": "+14083781277", "display_phone": "(408) 378-1277", "distance": 846.2223880703573}, {"id": "hOHGbZd5hXqoF_Fy16wXeg", "alias": "subway-restaurants-campbell-6", "name": "Subway Restaurants", "image_url": "https://s3-media3.fl.yelpcdn.com/bphoto/RtGnf9WWJ0iXvyLNyhhaaA/o.jpg", "is_closed": false, "url": "https://www.yelp.com/biz/subway-restaurants-campbell-6?adjust_creative=R39z9kjZ-1HrCCc7SW6pcw&utm_campaign=yelp_api_v3&utm_medium=api_v3_business_search&utm_source=R39z9kjZ-1HrCCc7SW6pcw", "review_count": 51, "categories": [{"alias": "sandwiches", "title": "Sandwiches"}], "rating": 2.5, "coordinates": {"latitude": 37.29382, "longitude": -121.9443}, "transactions": [], "price": "$", "location": {"address1": "330 East Hamilton Avenue", "address2": "Suite C", "address3": "", "city": "Campbell", "zip_code": "95008", "country": "US", "state": "CA", "display_address": ["330 East Hamilton Avenue", "Suite C", "Campbell, CA 95008"]}, "phone": "+14088719234", "display_phone": "(408) 871-9234", "distance": 2033.4639083448915}, {"id": "tcQpN3rG3ktGmO2NH-OexA", "alias": "namaste-nepal-food-truck-mountain-view-2", "name": "Namaste Nepal Food Truck", "image_url": "https://s3-media1.fl.yelpcdn.com/bphoto/OQR5yJrDhAYkOVug9B-MIQ/o.jpg", "is_closed": false, "url": "https://www.yelp.com/biz/namaste-nepal-food-truck-mountain-view-2?adjust_creative=R39z9kjZ-1HrCCc7SW6pcw&utm_campaign=yelp_api_v3&utm_medium=api_v3_business_search&utm_source=R39z9kjZ-1HrCCc7SW6pcw", "review_count": 203, "categories": [{"alias": "foodtrucks", "title": "Food Trucks"}, {"alias": "indpak", "title": "Indian"}, {"alias": "himalayan", "title": "Himalayan/Nepalese"}], "rating": 4.5, "coordinates": {"latitude": 37.3887273709385, "longitude": -122.088334396889}, "transactions": [], "price": "$", "location": {"address1": "1288 W El Camino Real", "address2": null, "address3": "", "city": "Mountain View", "zip_code": "94040", "country": "US", "state": "CA", "display_address": ["1288 W El Camino Real", "Mountain View, CA 94040"]}, "phone": "+14082205739", "display_phone": "(408) 220-5739", "distance": 16858.38295713755}, {"id": "jWWg0p9GTCho2RJIPhD6pQ", "alias": "tasteebytes-sj-san-jose", "name": "Tasteebytes SJ", "image_url": "https://s3-media2.fl.yelpcdn.com/bphoto/nxVvWa0ydNA-XfWpWEwd6w/o.jpg", "is_closed": false, "url": "https://www.yelp.com/biz/tasteebytes-sj-san-jose?adjust_creative=R39z9kjZ-1HrCCc7SW6pcw&utm_campaign=yelp_api_v3&utm_medium=api_v3_business_search&utm_source=R39z9kjZ-1HrCCc7SW6pcw", "review_count": 94, "categories": [{"alias": "foodtrucks", "title": "Food Trucks"}, {"alias": "hotdog", "title": "Hot Dogs"}], "rating": 4.5, "coordinates": {"latitude": 37.36058, "longitude": -121.89913}, "transactions": [], "price": "$", "location": {"address1": "326 Commercial St", "address2": "", "address3": "", "city": "San Jose", "zip_code": "95132", "country": "US", "state": "CA", "display_address": ["326 Commercial St", "San Jose, CA 95132"]}, "phone": "+16692437123", "display_phone": "(669) 243-7123", "distance": 10466.870292248173}, {"id": "H9lDju4cQ_2BGDl7UKiuvA", "alias": "community-hospital-of-los-gatos-cafeteria-los-gatos", "name": "Community Hospital of Los Gatos Cafeteria", "image_url": "https://s3-media3.fl.yelpcdn.com/bphoto/iMPgII6-Gvz-6Kf0Hxecig/o.jpg", "is_closed": false, "url": "https://www.yelp.com/biz/community-hospital-of-los-gatos-cafeteria-los-gatos?adjust_creative=R39z9kjZ-1HrCCc7SW6pcw&utm_campaign=yelp_api_v3&utm_medium=api_v3_business_search&utm_source=R39z9kjZ-1HrCCc7SW6pcw", "review_count": 1, "categories": [{"alias": "tradamerican", "title": "American (Traditional)"}], "rating": 2.0, "coordinates": {"latitude": 37.2629013061523, "longitude": -121.969253540039}, "transactions": [], "price": "$$", "location": {"address1": "815 Pollard Rd", "address2": "", "address3": "", "city": "Los Gatos", "zip_code": "95032", "country": "US", "state": "CA", "display_address": ["815 Pollard Rd", "Los Gatos, CA 95032"]}, "phone": "+14083786131", "display_phone": "(408) 378-6131", "distance": 2085.873400682656}, {"id": "TIZJa5kYVWR8RUnskbVmnQ", "alias": "p-za-kitchen-campbell", "name": "P.Za Kitchen", "image_url": "https://s3-media2.fl.yelpcdn.com/bphoto/xtzGQ3U-mVYx1v6U2c_AtA/o.jpg", "is_closed": false, "url": "https://www.yelp.com/biz/p-za-kitchen-campbell?adjust_creative=R39z9kjZ-1HrCCc7SW6pcw&utm_campaign=yelp_api_v3&utm_medium=api_v3_business_search&utm_source=R39z9kjZ-1HrCCc7SW6pcw", "review_count": 3, "categories": [{"alias": "fooddeliveryservices", "title": "Food Delivery Services"}, {"alias": "pizza", "title": "Pizza"}], "rating": 1.5, "coordinates": {"latitude": 37.2883262634277, "longitude": -121.948173522949}, "transactions": [], "location": {"address1": "", "address2": null, "address3": null, "city": "Campbell", "zip_code": "95008", "country": "US", "state": "CA", "display_address": ["Campbell, CA 95008"]}, "phone": "+18887996601", "display_phone": "(888) 799-6601", "distance": 413.6529494602054}, {"id": "rRVAOEHSBuvzOWkz6NJ72A", "alias": "gold-rush-eatery-sunnyvale-6", "name": "Gold Rush Eatery", "image_url": "https://s3-media1.fl.yelpcdn.com/bphoto/CFpX50jiQRajc_tx_GVShA/o.jpg", "is_closed": false, "url": "https://www.yelp.com/biz/gold-rush-eatery-sunnyvale-6?adjust_creative=R39z9kjZ-1HrCCc7SW6pcw&utm_campaign=yelp_api_v3&utm_medium=api_v3_business_search&utm_source=R39z9kjZ-1HrCCc7SW6pcw", "review_count": 140, "categories": [{"alias": "foodtrucks", "title": "Food Trucks"}, {"alias": "burgers", "title": "Burgers"}, {"alias": "beerbar", "title": "Beer Bar"}], "rating": 4.0, "coordinates": {"latitude": 37.3551306948281, "longitude": -122.010198819353}, "transactions": ["pickup", "delivery"], "price": "$$", "location": {"address1": "1010 S Wolfe Rd", "address2": null, "address3": "", "city": "Sunnyvale", "zip_code": "94036", "country": "US", "state": "CA", "display_address": ["1010 S Wolfe Rd", "Sunnyvale, CA 94036"]}, "phone": "+14087435336", "display_phone": "(408) 743-5336", "distance": 9708.083653783322}, {"id": "QUr1mp33i3fjoBYeX1_Bzw", "alias": "lemongrass-lane-san-jose", "name": "Lemongrass Lane", "image_url": "https://s3-media3.fl.yelpcdn.com/bphoto/nOaqrmnHtcy9BwpUvjpMxg/o.jpg", "is_closed": false, "url": "https://www.yelp.com/biz/lemongrass-lane-san-jose?adjust_creative=R39z9kjZ-1HrCCc7SW6pcw&utm_campaign=yelp_api_v3&utm_medium=api_v3_business_search&utm_source=R39z9kjZ-1HrCCc7SW6pcw", "review_count": 27, "categories": [{"alias": "foodtrucks", "title": "Food Trucks"}, {"alias": "cambodian", "title": "Cambodian"}], "rating": 4.0, "coordinates": {"latitude": 37.33549, "longitude": -121.87735}, "transactions": [], "location": {"address1": null, "address2": null, "address3": null, "city": "San Jose", "zip_code": "95112", "country": "US", "state": "CA", "display_address": ["San Jose, CA 95112"]}, "phone": "+14086557066", "display_phone": "(408) 655-7066", "distance": 9820.826919842495}, {"id": "bWd9oH441STOu_q7FsErmQ", "alias": "v-and-v-delicious-crepes-campbell", "name": "V&V Delicious Crepes", "image_url": "https://s3-media1.fl.yelpcdn.com/bphoto/gfN63TN5A_wwvfYJMMDjdA/o.jpg", "is_closed": false, "url": "https://www.yelp.com/biz/v-and-v-delicious-crepes-campbell?adjust_creative=R39z9kjZ-1HrCCc7SW6pcw&utm_campaign=yelp_api_v3&utm_medium=api_v3_business_search&utm_source=R39z9kjZ-1HrCCc7SW6pcw", "review_count": 1, "categories": [{"alias": "foodtrucks", "title": "Food Trucks"}, {"alias": "creperies", "title": "Creperies"}], "rating": 1.0, "coordinates": {"latitude": 37.2883262634277, "longitude": -121.948173522949}, "transactions": [], "location": {"address1": "", "address2": "", "address3": null, "city": "Campbell", "zip_code": "95008", "country": "US", "state": "CA", "display_address": ["Campbell, CA 95008"]}, "phone": "", "display_phone": "", "distance": 413.6529494602054}, {"id": "uCODHpIeY04LEo4oKDfblA", "alias": "tacos-la-chilanguita-vip-san-jose", "name": "Tacos La Chilanguita VIP", "image_url": "https://s3-media4.fl.yelpcdn.com/bphoto/RFselELmtn0FigRqIA9Jsg/o.jpg", "is_closed": false, "url": "https://www.yelp.com/biz/tacos-la-chilanguita-vip-san-jose?adjust_creative=R39z9kjZ-1HrCCc7SW6pcw&utm_campaign=yelp_api_v3&utm_medium=api_v3_business_search&utm_source=R39z9kjZ-1HrCCc7SW6pcw", "review_count": 7, "categories": [{"alias": "foodtrucks", "title": "Food Trucks"}, {"alias": "tacos", "title": "Tacos"}], "rating": 4.5, "coordinates": {"latitude": 37.3695179, "longitude": -121.8421132}, "transactions": [], "location": {"address1": "280 Nort Capitol Ave", "address2": "Ste 95128", "address3": null, "city": "San Jose", "zip_code": "95127", "country": "US", "state": "CA", "display_address": ["280 Nort Capitol Ave", "Ste 95128", "San Jose, CA 95127"]}, "phone": "+14087915395", "display_phone": "(408) 791-5395", "distance": 14335.779647834188}, {"id": "zCpS3YdGozD7Y38B9Gy2uA", "alias": "puerto-vallarta-frutas-fresca-san-jose", "name": "Puerto Vallarta Frutas Fresca", "image_url": "https://s3-media1.fl.yelpcdn.com/bphoto/c6uENW3KEjqZGiwN1l1AYQ/o.jpg", "is_closed": false, "url": "https://www.yelp.com/biz/puerto-vallarta-frutas-fresca-san-jose?adjust_creative=R39z9kjZ-1HrCCc7SW6pcw&utm_campaign=yelp_api_v3&utm_medium=api_v3_business_search&utm_source=R39z9kjZ-1HrCCc7SW6pcw", "review_count": 7, "categories": [{"alias": "foodstands", "title": "Food Stands"}], "rating": 3.5, "coordinates": {"latitude": 37.3378858, "longitude": -121.8431894}, "transactions": [], "price": "$", "location": {"address1": "1199 S King Rd", "address2": "", "address3": "", "city": "San Jose", "zip_code": "95122", "country": "US", "state": "CA", "display_address": ["1199 S King Rd", "San Jose, CA 95122"]}, "phone": "+14084723196", "display_phone": "(408) 472-3196", "distance": 12039.576285360683}, {"id": "-Z-aO9gwyPEtgarO_iXraw", "alias": "el-califas-tacos-sunnyvale", "name": "El Califas Tacos", "image_url": "https://s3-media4.fl.yelpcdn.com/bphoto/mmqTGFyuGB-iJvOxJxaIbw/o.jpg", "is_closed": false, "url": "https://www.yelp.com/biz/el-califas-tacos-sunnyvale?adjust_creative=R39z9kjZ-1HrCCc7SW6pcw&utm_campaign=yelp_api_v3&utm_medium=api_v3_business_search&utm_source=R39z9kjZ-1HrCCc7SW6pcw", "review_count": 107, "categories": [{"alias": "foodtrucks", "title": "Food Trucks"}, {"alias": "tacos", "title": "Tacos"}], "rating": 5.0, "coordinates": {"latitude": 37.389521, "longitude": -122.030975}, "transactions": [], "price": "$", "location": {"address1": "499 N Mathilda Ave", "address2": "", "address3": null, "city": "Sunnyvale", "zip_code": "94085", "country": "US", "state": "CA", "display_address": ["499 N Mathilda Ave", "Sunnyvale, CA 94085"]}, "phone": "+14088327559", "display_phone": "(408) 832-7559", "distance": 13945.211875923142}, {"id": "GcfdjsPGaXrY02Q3bsKvew", "alias": "el-diferente-san-jose-4", "name": "El Diferente", "image_url": "https://s3-media4.fl.yelpcdn.com/bphoto/bTeYqqJp0YrJkkfM5OiPZg/o.jpg", "is_closed": false, "url": "https://www.yelp.com/biz/el-diferente-san-jose-4?adjust_creative=R39z9kjZ-1HrCCc7SW6pcw&utm_campaign=yelp_api_v3&utm_medium=api_v3_business_search&utm_source=R39z9kjZ-1HrCCc7SW6pcw", "review_count": 41, "categories": [{"alias": "foodtrucks", "title": "Food Trucks"}, {"alias": "tacos", "title": "Tacos"}, {"alias": "catering", "title": "Caterers"}], "rating": 5.0, "coordinates": {"latitude": 37.324611, "longitude": -121.880933}, "transactions": [], "price": "$", "location": {"address1": "795 S 2nd St", "address2": "", "address3": null, "city": "San Jose", "zip_code": "95112", "country": "US", "state": "CA", "display_address": ["795 S 2nd St", "San Jose, CA 95112"]}, "phone": "+14086651936", "display_phone": "(408) 665-1936", "distance": 8458.536884621333}, {"id": "Bo4_TkGvnbCccZQg40PO8Q", "alias": "tacos-and-taquizas-alvarez-san-jose", "name": "Tacos & Taquizas Alvarez", "image_url": "https://s3-media3.fl.yelpcdn.com/bphoto/66hzPwamHOmkS2BAvb10mA/o.jpg", "is_closed": false, "url": "https://www.yelp.com/biz/tacos-and-taquizas-alvarez-san-jose?adjust_creative=R39z9kjZ-1HrCCc7SW6pcw&utm_campaign=yelp_api_v3&utm_medium=api_v3_business_search&utm_source=R39z9kjZ-1HrCCc7SW6pcw", "review_count": 5, "categories": [{"alias": "foodtrucks", "title": "Food Trucks"}, {"alias": "tacos", "title": "Tacos"}], "rating": 4.5, "coordinates": {"latitude": 37.2876886157398, "longitude": -121.845688629302}, "transactions": [], "location": {"address1": "3071 Monterey Rd", "address2": "", "address3": null, "city": "San Jose", "zip_code": "95111", "country": "US", "state": "CA", "display_address": ["3071 Monterey Rd", "San Jose, CA 95111"]}, "phone": "+14088932159", "display_phone": "(408) 893-2159", "distance": 9913.55757044772}, {"id": "40Xa5FvVvmCnS_N6sy1iHw", "alias": "the-everest-momo-milpitas-2", "name": "The Everest Momo", "image_url": "https://s3-media3.fl.yelpcdn.com/bphoto/BzepvLAH_cYtLUm_CIj-fw/o.jpg", "is_closed": false, "url": "https://www.yelp.com/biz/the-everest-momo-milpitas-2?adjust_creative=R39z9kjZ-1HrCCc7SW6pcw&utm_campaign=yelp_api_v3&utm_medium=api_v3_business_search&utm_source=R39z9kjZ-1HrCCc7SW6pcw", "review_count": 56, "categories": [{"alias": "himalayan", "title": "Himalayan/Nepalese"}, {"alias": "chinese", "title": "Chinese"}, {"alias": "foodtrucks", "title": "Food Trucks"}], "rating": 4.0, "coordinates": {"latitude": 37.429522, "longitude": -121.906849}, "transactions": [], "location": {"address1": "81 S Main St", "address2": null, "address3": "", "city": "Milpitas", "zip_code": "95035", "country": "US", "state": "CA", "display_address": ["81 S Main St", "Milpitas, CA 95035"]}, "phone": "+14088406369", "display_phone": "(408) 840-6369", "distance": 17351.897399789133}, {"id": "dsjelo-3YvUgHIc0r7S7wQ", "alias": "taqueria-conchita-san-jose", "name": "Taqueria Conchita", "image_url": "https://s3-media2.fl.yelpcdn.com/bphoto/tH8PPv3e1t0iXnoNthyUuA/o.jpg", "is_closed": false, "url": "https://www.yelp.com/biz/taqueria-conchita-san-jose?adjust_creative=R39z9kjZ-1HrCCc7SW6pcw&utm_campaign=yelp_api_v3&utm_medium=api_v3_business_search&utm_source=R39z9kjZ-1HrCCc7SW6pcw", "review_count": 7, "categories": [{"alias": "foodtrucks", "title": "Food Trucks"}, {"alias": "mexican", "title": "Mexican"}], "rating": 5.0, "coordinates": {"latitude": 37.2770532, "longitude": -121.8428239}, "transactions": [], "price": "$", "location": {"address1": "3939 Snell Ave", "address2": null, "address3": null, "city": "San Jose", "zip_code": "95136", "country": "US", "state": "CA", "display_address": ["3939 Snell Ave", "San Jose, CA 95136"]}, "phone": "+16697778951", "display_phone": "(669) 777-8951", "distance": 10118.678077019747}, {"id": "MutHfYUQnieaBuycuNXEPA", "alias": "damians-tacos-and-hotdogs-alum-rock", "name": "Damian's Tacos & Hotdogs", "image_url": "https://s3-media3.fl.yelpcdn.com/bphoto/HHmnhqlFJwEDhftVetH4qw/o.jpg", "is_closed": false, "url": "https://www.yelp.com/biz/damians-tacos-and-hotdogs-alum-rock?adjust_creative=R39z9kjZ-1HrCCc7SW6pcw&utm_campaign=yelp_api_v3&utm_medium=api_v3_business_search&utm_source=R39z9kjZ-1HrCCc7SW6pcw", "review_count": 7, "categories": [{"alias": "foodtrucks", "title": "Food Trucks"}, {"alias": "tacos", "title": "Tacos"}, {"alias": "hotdog", "title": "Hot Dogs"}], "rating": 4.5, "coordinates": {"latitude": 37.3549620850075, "longitude": -121.851418079178}, "transactions": [], "price": "$", "location": {"address1": "1925 Alumrock Ave", "address2": "", "address3": null, "city": "Alum Rock", "zip_code": "95116", "country": "US", "state": "CA", "display_address": ["1925 Alumrock Ave", "Alum Rock, CA 95116"]}, "phone": "+14084397331", "display_phone": "(408) 439-7331", "distance": 12625.068235117507}, {"id": "8SNGFcMWZkvS4GWDUL8w1Q", "alias": "noon-o-kabob-san-jose-4", "name": "Noon O Kabob", "image_url": "https://s3-media2.fl.yelpcdn.com/bphoto/5GmY5FRw0m0XEWC5XXbVlA/o.jpg", "is_closed": false, "url": "https://www.yelp.com/biz/noon-o-kabob-san-jose-4?adjust_creative=R39z9kjZ-1HrCCc7SW6pcw&utm_campaign=yelp_api_v3&utm_medium=api_v3_business_search&utm_source=R39z9kjZ-1HrCCc7SW6pcw", "review_count": 29, "categories": [{"alias": "foodtrucks", "title": "Food Trucks"}, {"alias": "kebab", "title": "Kebab"}, {"alias": "persian", "title": "Persian/Iranian"}], "rating": 4.5, "coordinates": {"latitude": 37.3940232, "longitude": -122.0288052}, "transactions": [], "price": "$$", "location": {"address1": null, "address2": null, "address3": null, "city": "San Jose", "zip_code": "95101", "country": "US", "state": "CA", "display_address": ["San Jose, CA 95101"]}, "phone": "+14083346777", "display_phone": "(408) 334-6777", "distance": 14303.493430803741}, {"id": "i0m9w2HbK4XlM-6u4ggnaA", "alias": "cafe-el-gato-los-gatos", "name": "Cafe El Gato", "image_url": "", "is_closed": false, "url": "https://www.yelp.com/biz/cafe-el-gato-los-gatos?adjust_creative=R39z9kjZ-1HrCCc7SW6pcw&utm_campaign=yelp_api_v3&utm_medium=api_v3_business_search&utm_source=R39z9kjZ-1HrCCc7SW6pcw", "review_count": 1, "categories": [{"alias": "cafeteria", "title": "Cafeteria"}], "rating": 3.0, "coordinates": {"latitude": 37.263066, "longitude": -121.969343}, "transactions": [], "price": "$", "location": {"address1": "815 Pollard Rd", "address2": "", "address3": "El Camino Hospital", "city": "Los Gatos", "zip_code": "95032", "country": "US", "state": "CA", "display_address": ["815 Pollard Rd", "El Camino Hospital", "Los Gatos, CA 95032"]}, "phone": "", "display_phone": "", "distance": 2043.812430558576}, {"id": "lLF85IwyJRNlVzdt2nKADg", "alias": "pav-bhaji-hut-sunnyvale", "name": "Pav Bhaji Hut", "image_url": "https://s3-media2.fl.yelpcdn.com/bphoto/QU02i8LoL8aEKkFmme_kRw/o.jpg", "is_closed": false, "url": "https://www.yelp.com/biz/pav-bhaji-hut-sunnyvale?adjust_creative=R39z9kjZ-1HrCCc7SW6pcw&utm_campaign=yelp_api_v3&utm_medium=api_v3_business_search&utm_source=R39z9kjZ-1HrCCc7SW6pcw", "review_count": 520, "categories": [{"alias": "foodtrucks", "title": "Food Trucks"}, {"alias": "indpak", "title": "Indian"}, {"alias": "vegetarian", "title": "Vegetarian"}], "rating": 4.0, "coordinates": {"latitude": 37.4054217, "longitude": -121.9957604}, "transactions": ["delivery", "pickup"], "price": "$", "location": {"address1": "1201 Lawrence Station Rd", "address2": null, "address3": "", "city": "Sunnyvale", "zip_code": "94089", "country": "US", "state": "CA", "display_address": ["1201 Lawrence Station Rd", "Sunnyvale, CA 94089"]}, "phone": "+14085200459", "display_phone": "(408) 520-0459", "distance": 14499.446893163706}, {"id": "qArqv7Sl3-kz7m-I0-pyuw", "alias": "scratch-cookery-san-jose-2", "name": "Scratch Cookery", "image_url": "https://s3-media2.fl.yelpcdn.com/bphoto/3bI-gW0tJ17iJqo1qn_W7A/o.jpg", "is_closed": false, "url": "https://www.yelp.com/biz/scratch-cookery-san-jose-2?adjust_creative=R39z9kjZ-1HrCCc7SW6pcw&utm_campaign=yelp_api_v3&utm_medium=api_v3_business_search&utm_source=R39z9kjZ-1HrCCc7SW6pcw", "review_count": 107, "categories": [{"alias": "foodtrucks", "title": "Food Trucks"}, {"alias": "chickenshop", "title": "Chicken Shop"}, {"alias": "tradamerican", "title": "American (Traditional)"}], "rating": 4.5, "coordinates": {"latitude": 37.374431, "longitude": -121.856157}, "transactions": [], "price": "$$", "location": {"address1": "", "address2": null, "address3": "", "city": "San Jose", "zip_code": "95133", "country": "US", "state": "CA", "display_address": ["San Jose, CA 95133"]}, "phone": "+14086010396", "display_phone": "(408) 601-0396", "distance": 13335.423890816155}, {"id": "DC42MrpWtqEeWRmMsn6Z8w", "alias": "the-everest-momo-fremont-2", "name": "The Everest Momo", "image_url": "https://s3-media2.fl.yelpcdn.com/bphoto/T2f7tUQ1c104otx9oSdqYw/o.jpg", "is_closed": false, "url": "https://www.yelp.com/biz/the-everest-momo-fremont-2?adjust_creative=R39z9kjZ-1HrCCc7SW6pcw&utm_campaign=yelp_api_v3&utm_medium=api_v3_business_search&utm_source=R39z9kjZ-1HrCCc7SW6pcw", "review_count": 23, "categories": [{"alias": "foodtrucks", "title": "Food Trucks"}, {"alias": "indpak", "title": "Indian"}, {"alias": "himalayan", "title": "Himalayan/Nepalese"}], "rating": 4.5, "coordinates": {"latitude": 37.54643, "longitude": -121.98512}, "transactions": [], "price": "$", "location": {"address1": "39233 Fremont Blvd", "address2": null, "address3": null, "city": "Fremont", "zip_code": "94538", "country": "US", "state": "CA", "display_address": ["39233 Fremont Blvd", "Fremont, CA 94538"]}, "phone": "+14088406369", "display_phone": "(408) 840-6369", "distance": 29882.997441254658}, {"id": "23dvbpp8C6eRYev8gxtHxA", "alias": "indian-express-san-jose-8", "name": "Indian Express", "image_url": "https://s3-media2.fl.yelpcdn.com/bphoto/EhHGKWS3YWw5JIyNs9XJUw/o.jpg", "is_closed": false, "url": "https://www.yelp.com/biz/indian-express-san-jose-8?adjust_creative=R39z9kjZ-1HrCCc7SW6pcw&utm_campaign=yelp_api_v3&utm_medium=api_v3_business_search&utm_source=R39z9kjZ-1HrCCc7SW6pcw", "review_count": 18, "categories": [{"alias": "foodtrucks", "title": "Food Trucks"}, {"alias": "halal", "title": "Halal"}, {"alias": "indpak", "title": "Indian"}], "rating": 4.0, "coordinates": {"latitude": 37.3817444712737, "longitude": -121.928059986855}, "transactions": ["pickup", "delivery"], "price": "$", "location": {"address1": "2525 N 1st St", "address2": null, "address3": "", "city": "San Jose", "zip_code": "95134", "country": "US", "state": "CA", "display_address": ["2525 N 1st St", "San Jose, CA 95134"]}, "phone": "+14132424862", "display_phone": "(413) 242-4862", "distance": 11745.035181673074}, {"id": "xOikWGy5qeV5govB9nvM8w", "alias": "market-grill-san-jose-3", "name": "Market Grill", "image_url": "https://s3-media2.fl.yelpcdn.com/bphoto/bfQk6lKDu6r86aP90RCbOg/o.jpg", "is_closed": false, "url": "https://www.yelp.com/biz/market-grill-san-jose-3?adjust_creative=R39z9kjZ-1HrCCc7SW6pcw&utm_campaign=yelp_api_v3&utm_medium=api_v3_business_search&utm_source=R39z9kjZ-1HrCCc7SW6pcw", "review_count": 1, "categories": [{"alias": "foodtrucks", "title": "Food Trucks"}, {"alias": "mediterranean", "title": "Mediterranean"}], "rating": 5.0, "coordinates": {"latitude": 37.32961, "longitude": -121.88642}, "transactions": [], "price": "$", "location": {"address1": "402 S Market St", "address2": null, "address3": "", "city": "San Jose", "zip_code": "95113", "country": "US", "state": "CA", "display_address": ["402 S Market St", "San Jose, CA 95113"]}, "phone": "+14087070490", "display_phone": "(408) 707-0490", "distance": 8438.984216645775}, {"id": "C9uewBH5505NV0EWYBIJAA", "alias": "lady-and-l-aperitivo-san-jose", "name": "Lady & L'Aperitivo", "image_url": "https://s3-media4.fl.yelpcdn.com/bphoto/3nz0sRE9MlOq_4xVRQRt9w/o.jpg", "is_closed": false, "url": "https://www.yelp.com/biz/lady-and-l-aperitivo-san-jose?adjust_creative=R39z9kjZ-1HrCCc7SW6pcw&utm_campaign=yelp_api_v3&utm_medium=api_v3_business_search&utm_source=R39z9kjZ-1HrCCc7SW6pcw", "review_count": 1, "categories": [{"alias": "bakeries", "title": "Bakeries"}, {"alias": "desserts", "title": "Desserts"}, {"alias": "cheesesteaks", "title": "Cheesesteaks"}], "rating": 5.0, "coordinates": {"latitude": 37.2208938598633, "longitude": -121.861633300781}, "transactions": [], "location": {"address1": null, "address2": null, "address3": "", "city": "San Jose", "zip_code": "95120", "country": "US", "state": "CA", "display_address": ["San Jose, CA 95120"]}, "phone": "", "display_phone": "", "distance": 15675.439679706313}, {"id": "m_ZtdeNjkT01xH8CH5GXXQ", "alias": "tacos-genesis-san-jose", "name": "Tacos Genesis", "image_url": "https://s3-media2.fl.yelpcdn.com/bphoto/fEiDP0rDx-rcfq28NeHmmQ/o.jpg", "is_closed": false, "url": "https://www.yelp.com/biz/tacos-genesis-san-jose?adjust_creative=R39z9kjZ-1HrCCc7SW6pcw&utm_campaign=yelp_api_v3&utm_medium=api_v3_business_search&utm_source=R39z9kjZ-1HrCCc7SW6pcw", "review_count": 2, "categories": [{"alias": "foodtrucks", "title": "Food Trucks"}, {"alias": "tacos", "title": "Tacos"}], "rating": 5.0, "coordinates": {"latitude": 37.3518005018, "longitude": -121.825944185}, "transactions": [], "location": {"address1": "2739 Story Rd", "address2": null, "address3": "", "city": "San Jose", "zip_code": "95127", "country": "US", "state": "CA", "display_address": ["2739 Story Rd", "San Jose, CA 95127"]}, "phone": "+14089213194", "display_phone": "(408) 921-3194", "distance": 14169.229816121746}, {"id": "oBrzFGtTxFIpMsxgfnWJSw", "alias": "tacos-los-3-hermanos-san-jose-4", "name": "Tacos Los 3 Hermanos", "image_url": "https://s3-media3.fl.yelpcdn.com/bphoto/-q5H-P10Vv3nauCdJT9zqg/o.jpg", "is_closed": false, "url": "https://www.yelp.com/biz/tacos-los-3-hermanos-san-jose-4?adjust_creative=R39z9kjZ-1HrCCc7SW6pcw&utm_campaign=yelp_api_v3&utm_medium=api_v3_business_search&utm_source=R39z9kjZ-1HrCCc7SW6pcw", "review_count": 9, "categories": [{"alias": "mexican", "title": "Mexican"}, {"alias": "foodtrucks", "title": "Food Trucks"}], "rating": 3.0, "coordinates": {"latitude": 37.3130124035993, "longitude": -121.870943344749}, "transactions": [], "price": "$", "location": {"address1": "1611 Monterrey Hwy", "address2": "", "address3": "", "city": "San Jose", "zip_code": "95112", "country": "US", "state": "CA", "display_address": ["1611 Monterrey Hwy", "San Jose, CA 95112"]}, "phone": "+14083558151", "display_phone": "(408) 355-8151", "distance": 8529.011907708595}, {"id": "oKm912E9HNdehISnGSkzvw", "alias": "asian-momo-house-sunnyvale-6", "name": "Asian Momo House", "image_url": "https://s3-media4.fl.yelpcdn.com/bphoto/1ZWwOieiFxLQ1Ffy3AtamA/o.jpg", "is_closed": false, "url": "https://www.yelp.com/biz/asian-momo-house-sunnyvale-6?adjust_creative=R39z9kjZ-1HrCCc7SW6pcw&utm_campaign=yelp_api_v3&utm_medium=api_v3_business_search&utm_source=R39z9kjZ-1HrCCc7SW6pcw", "review_count": 34, "categories": [{"alias": "foodtrucks", "title": "Food Trucks"}, {"alias": "indpak", "title": "Indian"}], "rating": 3.5, "coordinates": {"latitude": 37.35279, "longitude": -122.03139}, "transactions": [], "price": "$", "location": {"address1": "153 E Fremont Ave", "address2": "", "address3": "", "city": "Sunnyvale", "zip_code": "94087", "country": "US", "state": "CA", "display_address": ["153 E Fremont Ave", "Sunnyvale, CA 94087"]}, "phone": "+18556398669", "display_phone": "(855) 639-8669", "distance": 10526.351343479608}, {"id": "EdU8FIunfzJdxmwJl4nVAw", "alias": "subway-restaurants-campbell-5", "name": "Subway Restaurants", "image_url": "https://s3-media1.fl.yelpcdn.com/bphoto/dFiav5RV2YKGd7Ub07OVig/o.jpg", "is_closed": false, "url": "https://www.yelp.com/biz/subway-restaurants-campbell-5?adjust_creative=R39z9kjZ-1HrCCc7SW6pcw&utm_campaign=yelp_api_v3&utm_medium=api_v3_business_search&utm_source=R39z9kjZ-1HrCCc7SW6pcw", "review_count": 14, "categories": [{"alias": "sandwiches", "title": "Sandwiches"}], "rating": 2.0, "coordinates": {"latitude": 37.2626381, "longitude": -121.9444387}, "transactions": ["pickup", "delivery"], "price": "$", "location": {"address1": "3481 S Bascom Ave", "address2": "", "address3": "", "city": "Campbell", "zip_code": "95008", "country": "US", "state": "CA", "display_address": ["3481 S Bascom Ave", "Campbell, CA 95008"]}, "phone": "+14083779227", "display_phone": "(408) 377-9227", "distance": 2075.485544646756}, {"id": "NknognDC6ybcoUNmCvz5gg", "alias": "el-toro-tacos-san-jose", "name": "El Toro Tacos", "image_url": "https://s3-media2.fl.yelpcdn.com/bphoto/MuMNuCfwuKwNbZMKLM-bHQ/o.jpg", "is_closed": false, "url": "https://www.yelp.com/biz/el-toro-tacos-san-jose?adjust_creative=R39z9kjZ-1HrCCc7SW6pcw&utm_campaign=yelp_api_v3&utm_medium=api_v3_business_search&utm_source=R39z9kjZ-1HrCCc7SW6pcw", "review_count": 11, "categories": [{"alias": "foodtrucks", "title": "Food Trucks"}, {"alias": "tacos", "title": "Tacos"}], "rating": 4.5, "coordinates": {"latitude": 37.322199, "longitude": -121.8253679}, "transactions": [], "location": {"address1": "1708 Tully Rd", "address2": "", "address3": null, "city": "San Jose", "zip_code": "95122", "country": "US", "state": "CA", "display_address": ["1708 Tully Rd", "San Jose, CA 95122"]}, "phone": "+14088495396", "display_phone": "(408) 849-5396", "distance": 12622.207696322837}, {"id": "PDxq7VnVG0mCThRHHSN-6A", "alias": "los-jarochos-grill-san-jose-2", "name": "Los Jarochos Grill", "image_url": "https://s3-media1.fl.yelpcdn.com/bphoto/EAxtcK2U8BdCVieKFu2cFw/o.jpg", "is_closed": false, "url": "https://www.yelp.com/biz/los-jarochos-grill-san-jose-2?adjust_creative=R39z9kjZ-1HrCCc7SW6pcw&utm_campaign=yelp_api_v3&utm_medium=api_v3_business_search&utm_source=R39z9kjZ-1HrCCc7SW6pcw", "review_count": 18, "categories": [{"alias": "foodtrucks", "title": "Food Trucks"}, {"alias": "catering", "title": "Caterers"}, {"alias": "mexican", "title": "Mexican"}], "rating": 4.5, "coordinates": {"latitude": 37.3386497497559, "longitude": -121.88542175293}, "transactions": [], "price": "$", "location": {"address1": "", "address2": "", "address3": "", "city": "San Jose", "zip_code": "95054", "country": "US", "state": "CA", "display_address": ["San Jose, CA 95054"]}, "phone": "+14086444587", "display_phone": "(408) 644-4587", "distance": 13349.46935064576}, {"id": "-SnIHr-tALmciy_J1VqXRg", "alias": "cielito-lindo-mexican-street-kitchen-san-jos\u00e9-5", "name": "Cielito Lindo Mexican Street Kitchen", "image_url": "https://s3-media4.fl.yelpcdn.com/bphoto/kCSoIcRPwQ0tPiGQh3gEFw/o.jpg", "is_closed": false, "url": "https://www.yelp.com/biz/cielito-lindo-mexican-street-kitchen-san-jos%C3%A9-5?adjust_creative=R39z9kjZ-1HrCCc7SW6pcw&utm_campaign=yelp_api_v3&utm_medium=api_v3_business_search&utm_source=R39z9kjZ-1HrCCc7SW6pcw", "review_count": 40, "categories": [{"alias": "foodtrucks", "title": "Food Trucks"}, {"alias": "mexican", "title": "Mexican"}], "rating": 4.0, "coordinates": {"latitude": 37.3853149414062, "longitude": -121.893257141113}, "transactions": [], "price": "$", "location": {"address1": null, "address2": null, "address3": "", "city": "San Jos\u00e9", "zip_code": "95131", "country": "US", "state": "CA", "display_address": ["San Jos\u00e9, CA 95131"]}, "phone": "+16508629836", "display_phone": "(650) 862-9836", "distance": 13533.857144968839}, {"id": "MQDbjcZzQ9E3DTcoBF6dEw", "alias": "brooklyn-pizzeria-mobile-food-truck-santa-clara-4", "name": "Brooklyn Pizzeria Mobile Food Truck", "image_url": "https://s3-media2.fl.yelpcdn.com/bphoto/szDWnD758aSGG_O0yoKpEg/o.jpg", "is_closed": false, "url": "https://www.yelp.com/biz/brooklyn-pizzeria-mobile-food-truck-santa-clara-4?adjust_creative=R39z9kjZ-1HrCCc7SW6pcw&utm_campaign=yelp_api_v3&utm_medium=api_v3_business_search&utm_source=R39z9kjZ-1HrCCc7SW6pcw", "review_count": 23, "categories": [{"alias": "foodtrucks", "title": "Food Trucks"}, {"alias": "pizza", "title": "Pizza"}], "rating": 3.5, "coordinates": {"latitude": 37.3380215690544, "longitude": -121.996589643474}, "transactions": [], "price": "$$", "location": {"address1": "", "address2": null, "address3": "", "city": "Santa clara", "zip_code": "95051", "country": "US", "state": "CA", "display_address": ["Santa clara, CA 95051"]}, "phone": "+14085026836", "display_phone": "(408) 502-6836", "distance": 7462.368282284748}, {"id": "tGTSCjKLMa8vn8KArGZN_w", "alias": "just-mix-and-eat-san-jose", "name": "Just Mix & Eat", "image_url": "https://s3-media1.fl.yelpcdn.com/bphoto/orF5KUbsUaPobWI9MmbgFA/o.jpg", "is_closed": false, "url": "https://www.yelp.com/biz/just-mix-and-eat-san-jose?adjust_creative=R39z9kjZ-1HrCCc7SW6pcw&utm_campaign=yelp_api_v3&utm_medium=api_v3_business_search&utm_source=R39z9kjZ-1HrCCc7SW6pcw", "review_count": 30, "categories": [{"alias": "chicken_wings", "title": "Chicken Wings"}, {"alias": "korean", "title": "Korean"}, {"alias": "foodtrucks", "title": "Food Trucks"}], "rating": 3.0, "coordinates": {"latitude": 37.38256, "longitude": -121.94398}, "transactions": ["pickup", "delivery"], "price": "$$", "location": {"address1": "3295 Woodward Ave", "address2": null, "address3": "", "city": "San Jose", "zip_code": "95054", "country": "US", "state": "CA", "display_address": ["3295 Woodward Ave", "San Jose, CA 95054"]}, "phone": "+16692209394", "display_phone": "(669) 220-9394", "distance": 11610.700148587099}, {"id": "gMzVS6LgUkUpip1NwwHaLQ", "alias": "twister-food-truck-san-jose-14", "name": "Twister Food Truck", "image_url": "https://s3-media4.fl.yelpcdn.com/bphoto/R_s82Wu2MBCHOM6xMRNzIg/o.jpg", "is_closed": false, "url": "https://www.yelp.com/biz/twister-food-truck-san-jose-14?adjust_creative=R39z9kjZ-1HrCCc7SW6pcw&utm_campaign=yelp_api_v3&utm_medium=api_v3_business_search&utm_source=R39z9kjZ-1HrCCc7SW6pcw", "review_count": 42, "categories": [{"alias": "foodtrucks", "title": "Food Trucks"}, {"alias": "asianfusion", "title": "Asian Fusion"}], "rating": 3.5, "coordinates": {"latitude": 37.36971, "longitude": -121.89675}, "transactions": [], "price": "$", "location": {"address1": "660 East Gish Rd", "address2": null, "address3": null, "city": "San Jose", "zip_code": "95112", "country": "US", "state": "CA", "display_address": ["660 East Gish Rd", "San Jose, CA 95112"]}, "phone": "+15106953921", "display_phone": "(510) 695-3921", "distance": 11375.941893778587}, {"id": "6xHfXm7hcWRJgnXup0cHdA", "alias": "tacos-de-los-altos-san-jose", "name": "Tacos De Los Altos", "image_url": "https://s3-media2.fl.yelpcdn.com/bphoto/PdbW4mITavXeCO7nfdweAQ/o.jpg", "is_closed": false, "url": "https://www.yelp.com/biz/tacos-de-los-altos-san-jose?adjust_creative=R39z9kjZ-1HrCCc7SW6pcw&utm_campaign=yelp_api_v3&utm_medium=api_v3_business_search&utm_source=R39z9kjZ-1HrCCc7SW6pcw", "review_count": 23, "categories": [{"alias": "mexican", "title": "Mexican"}, {"alias": "foodtrucks", "title": "Food Trucks"}], "rating": 3.5, "coordinates": {"latitude": 37.292772307992, "longitude": -121.874259486794}, "transactions": [], "price": "$$", "location": {"address1": "2310 Canoas Gardens Ave", "address2": "", "address3": "", "city": "San Jose", "zip_code": "95125", "country": "US", "state": "CA", "display_address": ["2310 Canoas Gardens Ave", "San Jose, CA 95125"]}, "phone": "+14081111111", "display_phone": "(408) 111-1111", "distance": 7507.165376410233}, {"id": "sqO64yt3LwJYL6tBHJMipw", "alias": "the-cookout-food-truck-mountain-view-3", "name": "The Cookout Food Truck", "image_url": "https://s3-media2.fl.yelpcdn.com/bphoto/iXeP5nhdn5Zp9ogXmeWnRQ/o.jpg", "is_closed": false, "url": "https://www.yelp.com/biz/the-cookout-food-truck-mountain-view-3?adjust_creative=R39z9kjZ-1HrCCc7SW6pcw&utm_campaign=yelp_api_v3&utm_medium=api_v3_business_search&utm_source=R39z9kjZ-1HrCCc7SW6pcw", "review_count": 34, "categories": [{"alias": "foodtrucks", "title": "Food Trucks"}, {"alias": "fishnchips", "title": "Fish & Chips"}], "rating": 4.0, "coordinates": {"latitude": 37.428434, "longitude": -122.0723816}, "transactions": ["pickup", "delivery"], "price": "$$", "location": {"address1": "", "address2": "", "address3": null, "city": "Mountain View", "zip_code": "94043", "country": "US", "state": "CA", "display_address": ["Mountain View, CA 94043"]}, "phone": "+16503009945", "display_phone": "(650) 300-9945", "distance": 19518.4224049612}, {"id": "JTzWc_nHK5-XGqC77Y_yoA", "alias": "tacos-el-pelon-san-jose", "name": "Tacos El Pelon", "image_url": "https://s3-media1.fl.yelpcdn.com/bphoto/16pzFDCGkwn1sL67d2XepA/o.jpg", "is_closed": false, "url": "https://www.yelp.com/biz/tacos-el-pelon-san-jose?adjust_creative=R39z9kjZ-1HrCCc7SW6pcw&utm_campaign=yelp_api_v3&utm_medium=api_v3_business_search&utm_source=R39z9kjZ-1HrCCc7SW6pcw", "review_count": 40, "categories": [{"alias": "foodtrucks", "title": "Food Trucks"}, {"alias": "tacos", "title": "Tacos"}], "rating": 4.0, "coordinates": {"latitude": 37.3520331729227, "longitude": -121.824255734682}, "transactions": ["pickup", "delivery"], "price": "$", "location": {"address1": "1137 Mcginness Ave", "address2": "", "address3": "", "city": "San Jose", "zip_code": "95127", "country": "US", "state": "CA", "display_address": ["1137 Mcginness Ave", "San Jose, CA 95127"]}, "phone": "+14085922474", "display_phone": "(408) 592-2474", "distance": 14306.497548135987}, {"id": "HayiFbi-9xFPhNjIad1lmA", "alias": "road-dogs-san-jose", "name": "Road Dogs", "image_url": "https://s3-media1.fl.yelpcdn.com/bphoto/2Zf1lrcEta1d89YmGI_-aA/o.jpg", "is_closed": false, "url": "https://www.yelp.com/biz/road-dogs-san-jose?adjust_creative=R39z9kjZ-1HrCCc7SW6pcw&utm_campaign=yelp_api_v3&utm_medium=api_v3_business_search&utm_source=R39z9kjZ-1HrCCc7SW6pcw", "review_count": 117, "categories": [{"alias": "hotdog", "title": "Hot Dogs"}, {"alias": "foodtrucks", "title": "Food Trucks"}], "rating": 4.0, "coordinates": {"latitude": 37.4825052756125, "longitude": -121.925558528338}, "transactions": ["pickup"], "price": "$", "location": {"address1": "", "address2": "", "address3": "", "city": "San Jose", "zip_code": "95132", "country": "US", "state": "CA", "display_address": ["San Jose, CA 95132"]}, "phone": "+14088351867", "display_phone": "(408) 835-1867", "distance": 22835.107247259955}, {"id": "dTvTZ4agZo66oy4WlWfDtA", "alias": "masala-theory-san-jose-4", "name": "Masala Theory", "image_url": "https://s3-media1.fl.yelpcdn.com/bphoto/O612fes6FaNKdcsjil24Cw/o.jpg", "is_closed": false, "url": "https://www.yelp.com/biz/masala-theory-san-jose-4?adjust_creative=R39z9kjZ-1HrCCc7SW6pcw&utm_campaign=yelp_api_v3&utm_medium=api_v3_business_search&utm_source=R39z9kjZ-1HrCCc7SW6pcw", "review_count": 3, "categories": [{"alias": "foodtrucks", "title": "Food Trucks"}, {"alias": "indpak", "title": "Indian"}], "rating": 3.5, "coordinates": {"latitude": 37.39448, "longitude": -121.92574}, "transactions": [], "location": {"address1": "350 E Plumeria Dr", "address2": null, "address3": "", "city": "San Jose", "zip_code": "95134", "country": "US", "state": "CA", "display_address": ["350 E Plumeria Dr", "San Jose, CA 95134"]}, "phone": "+14083682224", "display_phone": "(408) 368-2224", "distance": 13185.110654178843}, {"id": "or6vgjw2EFtsWUW_F_eW3A", "alias": "yoshi-food-truck-fremont-2", "name": "Yoshi Food Truck", "image_url": "https://s3-media3.fl.yelpcdn.com/bphoto/YTdMb9ocRxHjMv-CEYwN5g/o.jpg", "is_closed": false, "url": "https://www.yelp.com/biz/yoshi-food-truck-fremont-2?adjust_creative=R39z9kjZ-1HrCCc7SW6pcw&utm_campaign=yelp_api_v3&utm_medium=api_v3_business_search&utm_source=R39z9kjZ-1HrCCc7SW6pcw", "review_count": 27, "categories": [{"alias": "foodtrucks", "title": "Food Trucks"}, {"alias": "poke", "title": "Poke"}, {"alias": "japanese", "title": "Japanese"}], "rating": 4.5, "coordinates": {"latitude": 37.494597, "longitude": -121.94160967}, "transactions": [], "location": {"address1": "45500 Fremont Blvd", "address2": null, "address3": "", "city": "Fremont", "zip_code": "94538", "country": "US", "state": "CA", "display_address": ["45500 Fremont Blvd", "Fremont, CA 94538"]}, "phone": "+16693776666", "display_phone": "(669) 377-6666", "distance": 23761.75453208625}, {"id": "Qa7brHniluYGS6kvDLn_7Q", "alias": "3geeks-food-truck-santa-clara", "name": "3GEEKS FOOD TRUCK", "image_url": "https://s3-media2.fl.yelpcdn.com/bphoto/Ahw89hwfujcvycQ_3soddQ/o.jpg", "is_closed": false, "url": "https://www.yelp.com/biz/3geeks-food-truck-santa-clara?adjust_creative=R39z9kjZ-1HrCCc7SW6pcw&utm_campaign=yelp_api_v3&utm_medium=api_v3_business_search&utm_source=R39z9kjZ-1HrCCc7SW6pcw", "review_count": 86, "categories": [{"alias": "seafood", "title": "Seafood"}, {"alias": "cheesesteaks", "title": "Cheesesteaks"}, {"alias": "foodtrucks", "title": "Food Trucks"}], "rating": 3.0, "coordinates": {"latitude": 37.39911, "longitude": -121.95728}, "transactions": [], "price": "$$", "location": {"address1": null, "address2": null, "address3": "", "city": "Santa Clara", "zip_code": "95054", "country": "US", "state": "CA", "display_address": ["Santa Clara, CA 95054"]}, "phone": "+14089090709", "display_phone": "(408) 909-0709", "distance": 13349.46935064576}, {"id": "AvMZaTZdPbawk3z8LFgUzQ", "alias": "food-street-su-jaime-food-truck-palo-alto", "name": "Food Street Su Jaime Food Truck", "image_url": "https://s3-media2.fl.yelpcdn.com/bphoto/QcM_YqwPV-DlcNFce_VJdg/o.jpg", "is_closed": false, "url": "https://www.yelp.com/biz/food-street-su-jaime-food-truck-palo-alto?adjust_creative=R39z9kjZ-1HrCCc7SW6pcw&utm_campaign=yelp_api_v3&utm_medium=api_v3_business_search&utm_source=R39z9kjZ-1HrCCc7SW6pcw", "review_count": 2, "categories": [{"alias": "foodtrucks", "title": "Food Trucks"}, {"alias": "tacos", "title": "Tacos"}, {"alias": "catering", "title": "Caterers"}], "rating": 5.0, "coordinates": {"latitude": 37.405068, "longitude": -122.140252}, "transactions": [], "location": {"address1": "3801 Miranda Ave", "address2": "", "address3": "", "city": "Palo Alto", "zip_code": "95127", "country": "US", "state": "CA", "display_address": ["3801 Miranda Ave", "Palo Alto, CA 95127"]}, "phone": "+16507508822", "display_phone": "(650) 750-8822", "distance": 21434.71670005286}, {"id": "qOKiXV4yxm40m3Ni9vsQlA", "alias": "momo-cook-fremont-3", "name": "MoMo CooK", "image_url": "https://s3-media1.fl.yelpcdn.com/bphoto/ZAM_gtFZMwrxbsxML0Qm2w/o.jpg", "is_closed": false, "url": "https://www.yelp.com/biz/momo-cook-fremont-3?adjust_creative=R39z9kjZ-1HrCCc7SW6pcw&utm_campaign=yelp_api_v3&utm_medium=api_v3_business_search&utm_source=R39z9kjZ-1HrCCc7SW6pcw", "review_count": 143, "categories": [{"alias": "chinese", "title": "Chinese"}, {"alias": "indpak", "title": "Indian"}, {"alias": "foodtrucks", "title": "Food Trucks"}], "rating": 4.5, "coordinates": {"latitude": 37.5536230879515, "longitude": -121.982570104301}, "transactions": [], "price": "$", "location": {"address1": "39039 Capitol Ave", "address2": null, "address3": "", "city": "Fremont", "zip_code": "94538", "country": "US", "state": "CA", "display_address": ["39039 Capitol Ave", "Fremont, CA 94538"]}, "phone": "+16012126767", "display_phone": "(601) 212-6767", "distance": 30653.786423966376}, {"id": "Leup0gVdW3eHxgikGvsGmw", "alias": "tierra-blanca-sushi-y-mariscos-redwood-city-5", "name": "Tierra Blanca Sushi Y Mariscos", "image_url": "https://s3-media4.fl.yelpcdn.com/bphoto/oN511OPbO2yrk38tX11wSQ/o.jpg", "is_closed": false, "url": "https://www.yelp.com/biz/tierra-blanca-sushi-y-mariscos-redwood-city-5?adjust_creative=R39z9kjZ-1HrCCc7SW6pcw&utm_campaign=yelp_api_v3&utm_medium=api_v3_business_search&utm_source=R39z9kjZ-1HrCCc7SW6pcw", "review_count": 35, "categories": [{"alias": "mexican", "title": "Mexican"}, {"alias": "foodtrucks", "title": "Food Trucks"}, {"alias": "seafood", "title": "Seafood"}], "rating": 4.5, "coordinates": {"latitude": 37.4839703, "longitude": -122.2006564}, "transactions": [], "price": "$$", "location": {"address1": "2ND Ave And Page St", "address2": null, "address3": "", "city": "Redwood City", "zip_code": "94063", "country": "US", "state": "CA", "display_address": ["2ND Ave And Page St", "Redwood City, CA 94063"]}, "phone": "+16506306133", "display_phone": "(650) 630-6133", "distance": 31367.082086692182}, {"id": "lgheXsHqe66AEZwoPDIEpw", "alias": "taco-coma-newark", "name": "Taco Coma", "image_url": "https://s3-media3.fl.yelpcdn.com/bphoto/DDz5lZDL5lDiRR_Ph0L4Sg/o.jpg", "is_closed": false, "url": "https://www.yelp.com/biz/taco-coma-newark?adjust_creative=R39z9kjZ-1HrCCc7SW6pcw&utm_campaign=yelp_api_v3&utm_medium=api_v3_business_search&utm_source=R39z9kjZ-1HrCCc7SW6pcw", "review_count": 3, "categories": [{"alias": "foodstands", "title": "Food Stands"}, {"alias": "tacos", "title": "Tacos"}], "rating": 5.0, "coordinates": {"latitude": 37.53453, "longitude": -122.03284}, "transactions": [], "location": {"address1": "", "address2": null, "address3": "", "city": "Newark", "zip_code": "94560", "country": "US", "state": "CA", "display_address": ["Newark, CA 94560"]}, "phone": "+15106971448", "display_phone": "(510) 697-1448", "distance": 28848.666317054034}, {"id": "ai1PcujD1397VPMNc8Ffcg", "alias": "cross-hatch-eatery-sunnyvale", "name": "Cross Hatch Eatery", "image_url": "https://s3-media1.fl.yelpcdn.com/bphoto/HPquQAnn8mSmsNlng5Z-_A/o.jpg", "is_closed": false, "url": "https://www.yelp.com/biz/cross-hatch-eatery-sunnyvale?adjust_creative=R39z9kjZ-1HrCCc7SW6pcw&utm_campaign=yelp_api_v3&utm_medium=api_v3_business_search&utm_source=R39z9kjZ-1HrCCc7SW6pcw", "review_count": 1, "categories": [{"alias": "asianfusion", "title": "Asian Fusion"}, {"alias": "foodtrucks", "title": "Food Trucks"}], "rating": 1.0, "coordinates": {"latitude": 37.3998374938965, "longitude": -121.997146606445}, "transactions": [], "location": {"address1": "", "address2": null, "address3": "", "city": "Sunnyvale", "zip_code": "94089", "country": "US", "state": "CA", "display_address": ["Sunnyvale, CA 94089"]}, "phone": "+16692322267", "display_phone": "(669) 232-2267", "distance": 15680.020038049268}, {"id": "7dHj1XDVA_7AYXTfp5i-BQ", "alias": "momo-noodle-san-francisco", "name": "MOMO noodle", "image_url": "https://s3-media4.fl.yelpcdn.com/bphoto/7zlv0Fz-2CTVIPLa767RVw/o.jpg", "is_closed": false, "url": "https://www.yelp.com/biz/momo-noodle-san-francisco?adjust_creative=R39z9kjZ-1HrCCc7SW6pcw&utm_campaign=yelp_api_v3&utm_medium=api_v3_business_search&utm_source=R39z9kjZ-1HrCCc7SW6pcw", "review_count": 46, "categories": [{"alias": "noodles", "title": "Noodles"}, {"alias": "foodtrucks", "title": "Food Trucks"}, {"alias": "szechuan", "title": "Szechuan"}], "rating": 4.0, "coordinates": {"latitude": 37.79106, "longitude": -122.40175}, "transactions": [], "price": "$$", "location": {"address1": null, "address2": null, "address3": "", "city": "San Francisco", "zip_code": "94104", "country": "US", "state": "CA", "display_address": ["San Francisco, CA 94104"]}, "phone": "+14088006819", "display_phone": "(408) 800-6819", "distance": 69180.68942571298}, {"id": "IU3OJCdlT92FsM8ohRiWig", "alias": "el-buen-taco-santa-cruz-2", "name": "El Buen Taco", "image_url": "https://s3-media2.fl.yelpcdn.com/bphoto/A_KAIKX-yDTTk2TTkFnFhw/o.jpg", "is_closed": false, "url": "https://www.yelp.com/biz/el-buen-taco-santa-cruz-2?adjust_creative=R39z9kjZ-1HrCCc7SW6pcw&utm_campaign=yelp_api_v3&utm_medium=api_v3_business_search&utm_source=R39z9kjZ-1HrCCc7SW6pcw", "review_count": 22, "categories": [{"alias": "tacos", "title": "Tacos"}, {"alias": "foodtrucks", "title": "Food Trucks"}], "rating": 4.5, "coordinates": {"latitude": 36.97017, "longitude": -122.02429}, "transactions": [], "location": {"address1": null, "address2": null, "address3": "", "city": "Santa Cruz", "zip_code": "95060", "country": "US", "state": "CA", "display_address": ["Santa Cruz, CA 95060"]}, "phone": "+18317130703", "display_phone": "(831) 713-0703", "distance": 34489.79962684767}, {"id": "rM6pPB_qmQ3de5yGpfLT1g", "alias": "lomo-libre-san-francisco-2", "name": "Lomo Libre", "image_url": "https://s3-media1.fl.yelpcdn.com/bphoto/vjnO-EUjFHKoLMy2_JQYvg/o.jpg", "is_closed": false, "url": "https://www.yelp.com/biz/lomo-libre-san-francisco-2?adjust_creative=R39z9kjZ-1HrCCc7SW6pcw&utm_campaign=yelp_api_v3&utm_medium=api_v3_business_search&utm_source=R39z9kjZ-1HrCCc7SW6pcw", "review_count": 8, "categories": [{"alias": "foodtrucks", "title": "Food Trucks"}, {"alias": "peruvian", "title": "Peruvian"}], "rating": 5.0, "coordinates": {"latitude": 37.799634, "longitude": -122.436301}, "transactions": [], "location": {"address1": "2101 Lombard St", "address2": "", "address3": null, "city": "San Francisco", "zip_code": "94123", "country": "US", "state": "CA", "display_address": ["2101 Lombard St", "San Francisco, CA 94123"]}, "phone": "+14156198149", "display_phone": "(415) 619-8149", "distance": 71695.34402048906}, {"id": "kIsGtzHcIxk40klNpTWuog", "alias": "grillaz-gone-wild-hayward", "name": "Grillaz Gone Wild", "image_url": "https://s3-media1.fl.yelpcdn.com/bphoto/4OKiJlqTPiue8J6EbwO3ug/o.jpg", "is_closed": false, "url": "https://www.yelp.com/biz/grillaz-gone-wild-hayward?adjust_creative=R39z9kjZ-1HrCCc7SW6pcw&utm_campaign=yelp_api_v3&utm_medium=api_v3_business_search&utm_source=R39z9kjZ-1HrCCc7SW6pcw", "review_count": 124, "categories": [{"alias": "cheesesteaks", "title": "Cheesesteaks"}, {"alias": "foodtrucks", "title": "Food Trucks"}, {"alias": "sandwiches", "title": "Sandwiches"}], "rating": 4.0, "coordinates": {"latitude": 37.63805, "longitude": -122.07161}, "transactions": [], "price": "$", "location": {"address1": "", "address2": "", "address3": "", "city": "Hayward", "zip_code": "94544", "country": "US", "state": "CA", "display_address": ["Hayward, CA 94544"]}, "phone": "+17075013252", "display_phone": "(707) 501-3252", "distance": 39584.533861079486}, {"id": "jCcAuXhCpeJP2n-8ol7mxg", "alias": "kolobok-russian-soul-food-truck-oakland", "name": "Kolobok Russian Soul Food Truck", "image_url": "https://s3-media1.fl.yelpcdn.com/bphoto/k8s1Bfc05Iw7SJXE6VJ74Q/o.jpg", "is_closed": false, "url": "https://www.yelp.com/biz/kolobok-russian-soul-food-truck-oakland?adjust_creative=R39z9kjZ-1HrCCc7SW6pcw&utm_campaign=yelp_api_v3&utm_medium=api_v3_business_search&utm_source=R39z9kjZ-1HrCCc7SW6pcw", "review_count": 47, "categories": [{"alias": "foodtrucks", "title": "Food Trucks"}, {"alias": "russian", "title": "Russian"}], "rating": 4.5, "coordinates": {"latitude": 37.7883087690458, "longitude": -122.309032460882}, "transactions": [], "price": "$$", "location": {"address1": null, "address2": null, "address3": "", "city": "Oakland", "zip_code": "94577", "country": "US", "state": "CA", "display_address": ["Oakland, CA 94577"]}, "phone": "+15105996542", "display_phone": "(510) 599-6542", "distance": 64605.05139662865}, {"id": "PxzM_zNIOy7jdtwT-fbB0w", "alias": "minnie-bells-san-francisco-2", "name": "Minnie Bells", "image_url": "https://s3-media2.fl.yelpcdn.com/bphoto/5YNxEigMmu8anIwGkIsEzg/o.jpg", "is_closed": false, "url": "https://www.yelp.com/biz/minnie-bells-san-francisco-2?adjust_creative=R39z9kjZ-1HrCCc7SW6pcw&utm_campaign=yelp_api_v3&utm_medium=api_v3_business_search&utm_source=R39z9kjZ-1HrCCc7SW6pcw", "review_count": 15, "categories": [{"alias": "soulfood", "title": "Soul Food"}, {"alias": "foodtrucks", "title": "Food Trucks"}, {"alias": "comfortfood", "title": "Comfort Food"}], "rating": 4.5, "coordinates": {"latitude": 37.7769775466477, "longitude": -122.416963241994}, "transactions": [], "location": {"address1": "", "address2": "", "address3": null, "city": "San Francisco", "zip_code": "94103", "country": "US", "state": "CA", "display_address": ["San Francisco, CA 94103"]}, "phone": "+14152739340", "display_phone": "(415) 273-9340", "distance": 68658.35360779484}, {"id": "Is1KN9f5THyPgo1RjAxRzg", "alias": "madd-mex-cantina-food-truck-san-mateo-3", "name": "Madd Mex Cantina Food Truck", "image_url": "https://s3-media3.fl.yelpcdn.com/bphoto/sqUQfoUkNqzsWDktPN09Dg/o.jpg", "is_closed": false, "url": "https://www.yelp.com/biz/madd-mex-cantina-food-truck-san-mateo-3?adjust_creative=R39z9kjZ-1HrCCc7SW6pcw&utm_campaign=yelp_api_v3&utm_medium=api_v3_business_search&utm_source=R39z9kjZ-1HrCCc7SW6pcw", "review_count": 225, "categories": [{"alias": "foodtrucks", "title": "Food Trucks"}, {"alias": "mexican", "title": "Mexican"}, {"alias": "catering", "title": "Caterers"}], "rating": 4.5, "coordinates": {"latitude": 37.5521392822266, "longitude": -122.260833740234}, "transactions": [], "price": "$", "location": {"address1": "", "address2": null, "address3": "", "city": "San Mateo", "zip_code": "94404", "country": "US", "state": "CA", "display_address": ["San Mateo, CA 94404"]}, "phone": "", "display_phone": "", "distance": 41377.745090299984}, {"id": "CUwBAy6lrFi4x6Neu9eRVw", "alias": "mini-street-burger-alameda-3", "name": "Mini Street Burger", "image_url": "https://s3-media2.fl.yelpcdn.com/bphoto/Kh-OQKBIclWY1dCeIuu57w/o.jpg", "is_closed": false, "url": "https://www.yelp.com/biz/mini-street-burger-alameda-3?adjust_creative=R39z9kjZ-1HrCCc7SW6pcw&utm_campaign=yelp_api_v3&utm_medium=api_v3_business_search&utm_source=R39z9kjZ-1HrCCc7SW6pcw", "review_count": 28, "categories": [{"alias": "foodtrucks", "title": "Food Trucks"}, {"alias": "burgers", "title": "Burgers"}], "rating": 4.0, "coordinates": {"latitude": 37.82628, "longitude": -122.25101}, "transactions": [], "location": {"address1": null, "address2": null, "address3": null, "city": "Alameda", "zip_code": "94611", "country": "US", "state": "CA", "display_address": ["Alameda, CA 94611"]}, "phone": "+15108278982", "display_phone": "(510) 827-8982", "distance": 65400.57877278507}, {"id": "uuouQQIFQ1B9mkmcxaAKFA", "alias": "tacos-el-rey-oakland", "name": "Tacos El Rey", "image_url": "https://s3-media2.fl.yelpcdn.com/bphoto/DblyFrtT9uyPCQAUfPbYbQ/o.jpg", "is_closed": false, "url": "https://www.yelp.com/biz/tacos-el-rey-oakland?adjust_creative=R39z9kjZ-1HrCCc7SW6pcw&utm_campaign=yelp_api_v3&utm_medium=api_v3_business_search&utm_source=R39z9kjZ-1HrCCc7SW6pcw", "review_count": 9, "categories": [{"alias": "foodtrucks", "title": "Food Trucks"}, {"alias": "mexican", "title": "Mexican"}], "rating": 4.0, "coordinates": {"latitude": 37.8294034, "longitude": -122.2875758}, "transactions": [], "price": "$", "location": {"address1": "40th & Horton", "address2": "", "address3": null, "city": "Oakland", "zip_code": "94608", "country": "US", "state": "CA", "display_address": ["40th & Horton", "Oakland, CA 94608"]}, "phone": "+15108130232", "display_phone": "(510) 813-0232", "distance": 67810.66464511033}, {"id": "M3vYD__s0sSkOie_Uwft3A", "alias": "taste-buds-bbq-tracy-2", "name": "Taste Buds BBQ", "image_url": "https://s3-media1.fl.yelpcdn.com/bphoto/pX1yclRMlmo1S7Db6iO6Lg/o.jpg", "is_closed": false, "url": "https://www.yelp.com/biz/taste-buds-bbq-tracy-2?adjust_creative=R39z9kjZ-1HrCCc7SW6pcw&utm_campaign=yelp_api_v3&utm_medium=api_v3_business_search&utm_source=R39z9kjZ-1HrCCc7SW6pcw", "review_count": 3, "categories": [{"alias": "bbq", "title": "Barbeque"}, {"alias": "catering", "title": "Caterers"}, {"alias": "foodtrucks", "title": "Food Trucks"}], "rating": 4.5, "coordinates": {"latitude": 37.74251, "longitude": -121.42994}, "transactions": [], "location": {"address1": "", "address2": null, "address3": "", "city": "Tracy", "zip_code": "95376", "country": "US", "state": "CA", "display_address": ["Tracy, CA 95376"]}, "phone": "+16502241324", "display_phone": "(650) 224-1324", "distance": 68536.41278185397}, {"id": "C8QSWh3j0xkXwiWC8h-7ag", "alias": "three-amigos-market-and-deli-oakland", "name": "Three Amigos Market & Deli", "image_url": "https://s3-media1.fl.yelpcdn.com/bphoto/B4LNxfyWsiyHibJqkrK1gQ/o.jpg", "is_closed": false, "url": "https://www.yelp.com/biz/three-amigos-market-and-deli-oakland?adjust_creative=R39z9kjZ-1HrCCc7SW6pcw&utm_campaign=yelp_api_v3&utm_medium=api_v3_business_search&utm_source=R39z9kjZ-1HrCCc7SW6pcw", "review_count": 9, "categories": [{"alias": "grocery", "title": "Grocery"}, {"alias": "sandwiches", "title": "Sandwiches"}, {"alias": "delis", "title": "Delis"}], "rating": 4.5, "coordinates": {"latitude": 37.791048, "longitude": -122.245431}, "transactions": [], "price": "$", "location": {"address1": "1554 13th Ave", "address2": "", "address3": "", "city": "Oakland", "zip_code": "94606", "country": "US", "state": "CA", "display_address": ["1554 13th Ave", "Oakland, CA 94606"]}, "phone": "+15102612353", "display_phone": "(510) 261-2353", "distance": 62384.74466008974}, {"id": "XTJJ_PUQoJKIh31ZIzsFzw", "alias": "cochinita-food-truck-san-francisco-6", "name": "Cochinita Food Truck", "image_url": "https://s3-media2.fl.yelpcdn.com/bphoto/w77SOd2jVJjOh1lwuYQ42w/o.jpg", "is_closed": false, "url": "https://www.yelp.com/biz/cochinita-food-truck-san-francisco-6?adjust_creative=R39z9kjZ-1HrCCc7SW6pcw&utm_campaign=yelp_api_v3&utm_medium=api_v3_business_search&utm_source=R39z9kjZ-1HrCCc7SW6pcw", "review_count": 49, "categories": [{"alias": "foodtrucks", "title": "Food Trucks"}, {"alias": "mexican", "title": "Mexican"}], "rating": 4.5, "coordinates": {"latitude": 37.770753, "longitude": -122.3916722}, "transactions": [], "price": "$", "location": {"address1": "601 Mission Blvd N", "address2": null, "address3": "", "city": "San Francisco", "zip_code": "94103", "country": "US", "state": "CA", "display_address": ["601 Mission Blvd N", "San Francisco, CA 94103"]}, "phone": "+14159883663", "display_phone": "(415) 988-3663", "distance": 66798.14272968829}, {"id": "sR0Wy3LYGdYV9HLszRlMmw", "alias": "tacos-la-palmita-stockton", "name": "Tacos La Palmita", "image_url": "https://s3-media2.fl.yelpcdn.com/bphoto/pzYoRmZjUQqxZ7qOyU7hUQ/o.jpg", "is_closed": false, "url": "https://www.yelp.com/biz/tacos-la-palmita-stockton?adjust_creative=R39z9kjZ-1HrCCc7SW6pcw&utm_campaign=yelp_api_v3&utm_medium=api_v3_business_search&utm_source=R39z9kjZ-1HrCCc7SW6pcw", "review_count": 90, "categories": [{"alias": "tacos", "title": "Tacos"}, {"alias": "foodtrucks", "title": "Food Trucks"}], "rating": 4.5, "coordinates": {"latitude": 38.008129, "longitude": -121.320219}, "transactions": ["pickup", "delivery"], "price": "$", "location": {"address1": "6393 Pacific Ave", "address2": null, "address3": null, "city": "Stockton", "zip_code": "95207", "country": "US", "state": "CA", "display_address": ["6393 Pacific Ave", "Stockton, CA 95207"]}, "phone": "+12093026825", "display_phone": "(209) 302-6825", "distance": 98609.77173248515}]}