{"location": "Clayton, CA", "term": "restaurant", "radius": 1775, "businesses": [{"id": "_q1wh3nQ-NTrHU0GqKnfXg", "alias": "canesas-brooklyn-heros-clayton", "name": "Canesa's Brooklyn Heros", "image_url": "https://s3-media3.fl.yelpcdn.com/bphoto/Tr9JVvqJtz5ti-ZV_v9mJg/o.jpg", "is_closed": false, "url": "https://www.yelp.com/biz/canesas-brooklyn-heros-clayton?adjust_creative=R39z9kjZ-1HrCCc7SW6pcw&utm_campaign=yelp_api_v3&utm_medium=api_v3_business_search&utm_source=R39z9kjZ-1HrCCc7SW6pcw", "review_count": 246, "categories": [{"alias": "delis", "title": "Delis"}, {"alias": "italian", "title": "Italian"}, {"alias": "sandwiches", "title": "Sandwiches"}], "rating": 4.5, "coordinates": {"latitude": 37.941062, "longitude": -121.936218}, "transactions": [], "price": "$$", "location": {"address1": "6026 Main St", "address2": "", "address3": "", "city": "Clayton", "zip_code": "94517", "country": "US", "state": "CA", "display_address": ["6026 Main St", "Clayton, CA 94517"]}, "phone": "+19258899299", "display_phone": "(925) 889-9299", "distance": 750.4197629249234}, {"id": "Ys7S2p521-k3y2pa6dXong", "alias": "moresis-chophouse-clayton", "name": "Moresi's Chophouse", "image_url": "https://s3-media1.fl.yelpcdn.com/bphoto/KPGGX9HxQtC7zFK7-o5Gag/o.jpg", "is_closed": false, "url": "https://www.yelp.com/biz/moresis-chophouse-clayton?adjust_creative=R39z9kjZ-1HrCCc7SW6pcw&utm_campaign=yelp_api_v3&utm_medium=api_v3_business_search&utm_source=R39z9kjZ-1HrCCc7SW6pcw", "review_count": 244, "categories": [{"alias": "steak", "title": "Steakhouses"}, {"alias": "bars", "title": "Bars"}], "rating": 4.0, "coordinates": {"latitude": 37.94147, "longitude": -121.93461}, "transactions": [], "price": "$$$", "location": {"address1": "6115 Main St", "address2": "", "address3": "", "city": "Clayton", "zip_code": "94517", "country": "US", "state": "CA", "display_address": ["6115 Main St", "Clayton, CA 94517"]}, "phone": "+19256721333", "display_phone": "(925) 672-1333", "distance": 663.4016022641483}, {"id": "fzUM_sXELNZinFm-Jc1lgw", "alias": "eds-mudville-grill-clayton", "name": "Ed's Mudville Grill", "image_url": "https://s3-media2.fl.yelpcdn.com/bphoto/DgVEgOUdpTIuLHbp8xHxyA/o.jpg", "is_closed": false, "url": "https://www.yelp.com/biz/eds-mudville-grill-clayton?adjust_creative=R39z9kjZ-1HrCCc7SW6pcw&utm_campaign=yelp_api_v3&utm_medium=api_v3_business_search&utm_source=R39z9kjZ-1HrCCc7SW6pcw", "review_count": 287, "categories": [{"alias": "tradamerican", "title": "American (Traditional)"}, {"alias": "sportsbars", "title": "Sports Bars"}], "rating": 4.0, "coordinates": {"latitude": 37.9403852, "longitude": -121.9332943}, "transactions": [], "price": "$$", "location": {"address1": "6200 Center St", "address2": "", "address3": "", "city": "Clayton", "zip_code": "94517", "country": "US", "state": "CA", "display_address": ["6200 Center St", "Clayton, CA 94517"]}, "phone": "+19256730333", "display_phone": "(925) 673-0333", "distance": 473.9034158824159}, {"id": "Z3JLikVlMLtU-3kD_lZwvw", "alias": "la-veranda-cafe-clayton", "name": "La Veranda Cafe", "image_url": "https://s3-media2.fl.yelpcdn.com/bphoto/agLVEwWbPRrA-t5ywNa4HA/o.jpg", "is_closed": false, "url": "https://www.yelp.com/biz/la-veranda-cafe-clayton?adjust_creative=R39z9kjZ-1HrCCc7SW6pcw&utm_campaign=yelp_api_v3&utm_medium=api_v3_business_search&utm_source=R39z9kjZ-1HrCCc7SW6pcw", "review_count": 145, "categories": [{"alias": "italian", "title": "Italian"}], "rating": 4.0, "coordinates": {"latitude": 37.9407009, "longitude": -121.9333096}, "transactions": ["pickup"], "price": "$$", "location": {"address1": "6201 Center St", "address2": "", "address3": "", "city": "Clayton", "zip_code": "94517", "country": "US", "state": "CA", "display_address": ["6201 Center St", "Clayton, CA 94517"]}, "phone": "+19255240011", "display_phone": "(925) 524-0011", "distance": 524.4816953101583}, {"id": "Zx-gO8zCkCFJgwQ4Us53Cg", "alias": "skipolinis-pizza-clayton", "name": "Skipolini's Pizza", "image_url": "https://s3-media1.fl.yelpcdn.com/bphoto/bQAIGjIS-7rFyPrloOfsBg/o.jpg", "is_closed": false, "url": "https://www.yelp.com/biz/skipolinis-pizza-clayton?adjust_creative=R39z9kjZ-1HrCCc7SW6pcw&utm_campaign=yelp_api_v3&utm_medium=api_v3_business_search&utm_source=R39z9kjZ-1HrCCc7SW6pcw", "review_count": 208, "categories": [{"alias": "pizza", "title": "Pizza"}, {"alias": "italian", "title": "Italian"}, {"alias": "salad", "title": "Salad"}], "rating": 4.0, "coordinates": {"latitude": 37.940945, "longitude": -121.936053}, "transactions": [], "price": "$$", "location": {"address1": "1033 Diablo St", "address2": "", "address3": "", "city": "Clayton", "zip_code": "94517", "country": "US", "state": "CA", "display_address": ["1033 Diablo St", "Clayton, CA 94517"]}, "phone": "+19256721111", "display_phone": "(925) 672-1111", "distance": 731.2227170381453}, {"id": "H5BKJgG8Ak2eLnaRMnTiLw", "alias": "center-street-deli-and-cafe-clayton-2", "name": "Center Street Deli & Cafe", "image_url": "https://s3-media3.fl.yelpcdn.com/bphoto/NFJkbmBM8Z19KfdJocTMow/o.jpg", "is_closed": false, "url": "https://www.yelp.com/biz/center-street-deli-and-cafe-clayton-2?adjust_creative=R39z9kjZ-1HrCCc7SW6pcw&utm_campaign=yelp_api_v3&utm_medium=api_v3_business_search&utm_source=R39z9kjZ-1HrCCc7SW6pcw", "review_count": 135, "categories": [{"alias": "delis", "title": "Delis"}, {"alias": "breakfast_brunch", "title": "Breakfast & Brunch"}, {"alias": "sandwiches", "title": "Sandwiches"}], "rating": 4.0, "coordinates": {"latitude": 37.9406349, "longitude": -121.9346807}, "transactions": ["pickup", "delivery"], "price": "$", "location": {"address1": "6101 Center St", "address2": "", "address3": "", "city": "Clayton", "zip_code": "94517", "country": "US", "state": "CA", "display_address": ["6101 Center St", "Clayton, CA 94517"]}, "phone": "+19256721203", "display_phone": "(925) 672-1203", "distance": 617.1074394607305}, {"id": "Fi6L_5HUmJyN3B9pWNbE8Q", "alias": "big-country-kitchen-concord-3", "name": "Big Country Kitchen", "image_url": "https://s3-media1.fl.yelpcdn.com/bphoto/ApMmjETxj097vX8m3_JVjg/o.jpg", "is_closed": false, "url": "https://www.yelp.com/biz/big-country-kitchen-concord-3?adjust_creative=R39z9kjZ-1HrCCc7SW6pcw&utm_campaign=yelp_api_v3&utm_medium=api_v3_business_search&utm_source=R39z9kjZ-1HrCCc7SW6pcw", "review_count": 89, "categories": [{"alias": "foodtrucks", "title": "Food Trucks"}, {"alias": "seafood", "title": "Seafood"}], "rating": 4.0, "coordinates": {"latitude": 37.97198, "longitude": -122.01508}, "transactions": ["pickup", "delivery"], "location": {"address1": "3399 Clayton Rd", "address2": null, "address3": "", "city": "Concord", "zip_code": "94519", "country": "US", "state": "CA", "display_address": ["3399 Clayton Rd", "Concord, CA 94519"]}, "phone": "+19258223009", "display_phone": "(925) 822-3009", "distance": 8477.819019068496}, {"id": "uVpchMuZGFDwS08g67_vsQ", "alias": "cocos-tamales-clayton-3", "name": "CoCo's Tamales", "image_url": "https://s3-media3.fl.yelpcdn.com/bphoto/FKh3-ISJduhpT0PdTCNbjQ/o.jpg", "is_closed": false, "url": "https://www.yelp.com/biz/cocos-tamales-clayton-3?adjust_creative=R39z9kjZ-1HrCCc7SW6pcw&utm_campaign=yelp_api_v3&utm_medium=api_v3_business_search&utm_source=R39z9kjZ-1HrCCc7SW6pcw", "review_count": 3, "categories": [{"alias": "mexican", "title": "Mexican"}], "rating": 3.5, "coordinates": {"latitude": 37.9412509446236, "longitude": -121.934208534658}, "transactions": [], "price": "$$", "location": {"address1": "10950 Main St", "address2": null, "address3": "", "city": "Clayton", "zip_code": "94517", "country": "US", "state": "CA", "display_address": ["10950 Main St", "Clayton, CA 94517"]}, "phone": "+15104597098", "display_phone": "(510) 459-7098", "distance": 623.7483973723297}, {"id": "RsgxKM4y5V_po23Iy3lTww", "alias": "fiya-spice-caribbean-pittsburg", "name": "Fiya Spice Caribbean", "image_url": "https://s3-media1.fl.yelpcdn.com/bphoto/7NBUdJXMLVWdJqIumy-GBg/o.jpg", "is_closed": false, "url": "https://www.yelp.com/biz/fiya-spice-caribbean-pittsburg?adjust_creative=R39z9kjZ-1HrCCc7SW6pcw&utm_campaign=yelp_api_v3&utm_medium=api_v3_business_search&utm_source=R39z9kjZ-1HrCCc7SW6pcw", "review_count": 1, "categories": [{"alias": "foodtrucks", "title": "Food Trucks"}, {"alias": "caribbean", "title": "Caribbean"}, {"alias": "catering", "title": "Caterers"}], "rating": 5.0, "coordinates": {"latitude": 38.011279, "longitude": -121.876098}, "transactions": [], "location": {"address1": "", "address2": null, "address3": "", "city": "Pittsburg", "zip_code": "94565", "country": "US", "state": "CA", "display_address": ["Pittsburg, CA 94565"]}, "phone": "+15106863325", "display_phone": "(510) 686-3325", "distance": 9432.350372881385}, {"id": "DC42MrpWtqEeWRmMsn6Z8w", "alias": "the-everest-momo-fremont-2", "name": "The Everest Momo", "image_url": "https://s3-media2.fl.yelpcdn.com/bphoto/T2f7tUQ1c104otx9oSdqYw/o.jpg", "is_closed": false, "url": "https://www.yelp.com/biz/the-everest-momo-fremont-2?adjust_creative=R39z9kjZ-1HrCCc7SW6pcw&utm_campaign=yelp_api_v3&utm_medium=api_v3_business_search&utm_source=R39z9kjZ-1HrCCc7SW6pcw", "review_count": 23, "categories": [{"alias": "foodtrucks", "title": "Food Trucks"}, {"alias": "indpak", "title": "Indian"}, {"alias": "himalayan", "title": "Himalayan/Nepalese"}], "rating": 4.5, "coordinates": {"latitude": 37.54643, "longitude": -121.98512}, "transactions": [], "price": "$", "location": {"address1": "39233 Fremont Blvd", "address2": null, "address3": null, "city": "Fremont", "zip_code": "94538", "country": "US", "state": "CA", "display_address": ["39233 Fremont Blvd", "Fremont, CA 94538"]}, "phone": "+14088406369", "display_phone": "(408) 840-6369", "distance": 43744.22099452102}, {"id": "xomxVUXe8Sy5R2nt7qBxxg", "alias": "fired-mobile-pizza-oven-stockton", "name": "FIRED Mobile Pizza Oven", "image_url": "https://s3-media4.fl.yelpcdn.com/bphoto/JV4MGBFFrJGZQbmtdoOLFQ/o.jpg", "is_closed": false, "url": "https://www.yelp.com/biz/fired-mobile-pizza-oven-stockton?adjust_creative=R39z9kjZ-1HrCCc7SW6pcw&utm_campaign=yelp_api_v3&utm_medium=api_v3_business_search&utm_source=R39z9kjZ-1HrCCc7SW6pcw", "review_count": 8, "categories": [{"alias": "pizza", "title": "Pizza"}, {"alias": "catering", "title": "Caterers"}, {"alias": "foodtrucks", "title": "Food Trucks"}], "rating": 5.0, "coordinates": {"latitude": 38.0521138, "longitude": -121.3484448}, "transactions": [], "location": {"address1": null, "address2": null, "address3": "", "city": "Stockton", "zip_code": "95209", "country": "US", "state": "CA", "display_address": ["Stockton, CA 95209"]}, "phone": "+12092424105", "display_phone": "(209) 242-4105", "distance": 52448.985224938224}, {"id": "PaIToCdy-W5h5-NuCQxFyA", "alias": "subway-restaurants-clayton-6", "name": "Subway Restaurants", "image_url": "https://s3-media3.fl.yelpcdn.com/bphoto/Fuk1TMUlPnrhCMCLSJiHtw/o.jpg", "is_closed": false, "url": "https://www.yelp.com/biz/subway-restaurants-clayton-6?adjust_creative=R39z9kjZ-1HrCCc7SW6pcw&utm_campaign=yelp_api_v3&utm_medium=api_v3_business_search&utm_source=R39z9kjZ-1HrCCc7SW6pcw", "review_count": 26, "categories": [{"alias": "sandwiches", "title": "Sandwiches"}], "rating": 3.5, "coordinates": {"latitude": 37.9407109, "longitude": -121.9364974}, "transactions": ["pickup", "delivery"], "price": "$", "location": {"address1": "1026 Oak St", "address2": "Suite 103", "address3": "", "city": "Clayton", "zip_code": "94517", "country": "US", "state": "CA", "display_address": ["1026 Oak St", "Suite 103", "Clayton, CA 94517"]}, "phone": "+19256930621", "display_phone": "(925) 693-0621", "distance": 751.3732244729271}, {"id": "rM6pPB_qmQ3de5yGpfLT1g", "alias": "lomo-libre-san-francisco-2", "name": "Lomo Libre", "image_url": "https://s3-media1.fl.yelpcdn.com/bphoto/vjnO-EUjFHKoLMy2_JQYvg/o.jpg", "is_closed": false, "url": "https://www.yelp.com/biz/lomo-libre-san-francisco-2?adjust_creative=R39z9kjZ-1HrCCc7SW6pcw&utm_campaign=yelp_api_v3&utm_medium=api_v3_business_search&utm_source=R39z9kjZ-1HrCCc7SW6pcw", "review_count": 8, "categories": [{"alias": "foodtrucks", "title": "Food Trucks"}, {"alias": "peruvian", "title": "Peruvian"}], "rating": 5.0, "coordinates": {"latitude": 37.799634, "longitude": -122.436301}, "transactions": [], "location": {"address1": "2101 Lombard St", "address2": "", "address3": null, "city": "San Francisco", "zip_code": "94123", "country": "US", "state": "CA", "display_address": ["2101 Lombard St", "San Francisco, CA 94123"]}, "phone": "+14156198149", "display_phone": "(415) 619-8149", "distance": 47091.424120719574}, {"id": "7hoR85ZbJVRQ98Q14OlQZQ", "alias": "cosa-nostra-pasta-truck-berkeley", "name": "Cosa Nostra Pasta Truck", "image_url": "https://s3-media1.fl.yelpcdn.com/bphoto/kJNRKi9NzgsPf3KmTr_fAg/o.jpg", "is_closed": false, "url": "https://www.yelp.com/biz/cosa-nostra-pasta-truck-berkeley?adjust_creative=R39z9kjZ-1HrCCc7SW6pcw&utm_campaign=yelp_api_v3&utm_medium=api_v3_business_search&utm_source=R39z9kjZ-1HrCCc7SW6pcw", "review_count": 31, "categories": [{"alias": "foodtrucks", "title": "Food Trucks"}, {"alias": "italian", "title": "Italian"}], "rating": 5.0, "coordinates": {"latitude": 37.8760173212886, "longitude": -122.303487025201}, "transactions": [], "price": "$$", "location": {"address1": "701 Page St", "address2": null, "address3": null, "city": "Berkeley", "zip_code": "94710", "country": "US", "state": "CA", "display_address": ["701 Page St", "Berkeley, CA 94710"]}, "phone": "+15102448782", "display_phone": "(510) 244-8782", "distance": 33555.71875331277}, {"id": "Mij1ZvLLpqvNmJFWNz9IsQ", "alias": "paquitas-mexican-grill-sacramento-2", "name": "Paquitas Mexican Grill", "image_url": "https://s3-media2.fl.yelpcdn.com/bphoto/Onav96dKMe8cWeFXMNFcyQ/o.jpg", "is_closed": false, "url": "https://www.yelp.com/biz/paquitas-mexican-grill-sacramento-2?adjust_creative=R39z9kjZ-1HrCCc7SW6pcw&utm_campaign=yelp_api_v3&utm_medium=api_v3_business_search&utm_source=R39z9kjZ-1HrCCc7SW6pcw", "review_count": 73, "categories": [{"alias": "foodtrucks", "title": "Food Trucks"}, {"alias": "mexican", "title": "Mexican"}], "rating": 4.0, "coordinates": {"latitude": 38.549732, "longitude": -121.406281}, "transactions": [], "price": "$", "location": {"address1": "49 Bicentennial Cir", "address2": null, "address3": "", "city": "Sacramento", "zip_code": "95826", "country": "US", "state": "CA", "display_address": ["49 Bicentennial Cir", "Sacramento, CA 95826"]}, "phone": "+15308484666", "display_phone": "(530) 848-4666", "distance": 81973.63440830236}, {"id": "8SNGFcMWZkvS4GWDUL8w1Q", "alias": "noon-o-kabob-san-jose-4", "name": "Noon O Kabob", "image_url": "https://s3-media2.fl.yelpcdn.com/bphoto/5GmY5FRw0m0XEWC5XXbVlA/o.jpg", "is_closed": false, "url": "https://www.yelp.com/biz/noon-o-kabob-san-jose-4?adjust_creative=R39z9kjZ-1HrCCc7SW6pcw&utm_campaign=yelp_api_v3&utm_medium=api_v3_business_search&utm_source=R39z9kjZ-1HrCCc7SW6pcw", "review_count": 29, "categories": [{"alias": "foodtrucks", "title": "Food Trucks"}, {"alias": "kebab", "title": "Kebab"}, {"alias": "persian", "title": "Persian/Iranian"}], "rating": 4.5, "coordinates": {"latitude": 37.3940232, "longitude": -122.0288052}, "transactions": [], "price": "$$", "location": {"address1": null, "address2": null, "address3": null, "city": "San Jose", "zip_code": "95101", "country": "US", "state": "CA", "display_address": ["San Jose, CA 95101"]}, "phone": "+14083346777", "display_phone": "(408) 334-6777", "distance": 61057.66479682424}, {"id": "jCcAuXhCpeJP2n-8ol7mxg", "alias": "kolobok-russian-soul-food-truck-oakland", "name": "Kolobok Russian Soul Food Truck", "image_url": "https://s3-media1.fl.yelpcdn.com/bphoto/k8s1Bfc05Iw7SJXE6VJ74Q/o.jpg", "is_closed": false, "url": "https://www.yelp.com/biz/kolobok-russian-soul-food-truck-oakland?adjust_creative=R39z9kjZ-1HrCCc7SW6pcw&utm_campaign=yelp_api_v3&utm_medium=api_v3_business_search&utm_source=R39z9kjZ-1HrCCc7SW6pcw", "review_count": 47, "categories": [{"alias": "foodtrucks", "title": "Food Trucks"}, {"alias": "russian", "title": "Russian"}], "rating": 4.5, "coordinates": {"latitude": 37.7883087690458, "longitude": -122.309032460882}, "transactions": [], "price": "$$", "location": {"address1": null, "address2": null, "address3": "", "city": "Oakland", "zip_code": "94577", "country": "US", "state": "CA", "display_address": ["Oakland, CA 94577"]}, "phone": "+15105996542", "display_phone": "(510) 599-6542", "distance": 37253.202499370585}, {"id": "CUwBAy6lrFi4x6Neu9eRVw", "alias": "mini-street-burger-alameda-3", "name": "Mini Street Burger", "image_url": "https://s3-media2.fl.yelpcdn.com/bphoto/Kh-OQKBIclWY1dCeIuu57w/o.jpg", "is_closed": false, "url": "https://www.yelp.com/biz/mini-street-burger-alameda-3?adjust_creative=R39z9kjZ-1HrCCc7SW6pcw&utm_campaign=yelp_api_v3&utm_medium=api_v3_business_search&utm_source=R39z9kjZ-1HrCCc7SW6pcw", "review_count": 28, "categories": [{"alias": "foodtrucks", "title": "Food Trucks"}, {"alias": "burgers", "title": "Burgers"}], "rating": 4.0, "coordinates": {"latitude": 37.82628, "longitude": -122.25101}, "transactions": [], "location": {"address1": null, "address2": null, "address3": null, "city": "Alameda", "zip_code": "94611", "country": "US", "state": "CA", "display_address": ["Alameda, CA 94611"]}, "phone": "+15108278982", "display_phone": "(510) 827-8982", "distance": 26669.51816393891}, {"id": "lgheXsHqe66AEZwoPDIEpw", "alias": "taco-coma-newark", "name": "Taco Coma", "image_url": "https://s3-media3.fl.yelpcdn.com/bphoto/DDz5lZDL5lDiRR_Ph0L4Sg/o.jpg", "is_closed": false, "url": "https://www.yelp.com/biz/taco-coma-newark?adjust_creative=R39z9kjZ-1HrCCc7SW6pcw&utm_campaign=yelp_api_v3&utm_medium=api_v3_business_search&utm_source=R39z9kjZ-1HrCCc7SW6pcw", "review_count": 3, "categories": [{"alias": "foodstands", "title": "Food Stands"}, {"alias": "tacos", "title": "Tacos"}], "rating": 5.0, "coordinates": {"latitude": 37.53453, "longitude": -122.03284}, "transactions": [], "location": {"address1": "", "address2": null, "address3": "", "city": "Newark", "zip_code": "94560", "country": "US", "state": "CA", "display_address": ["Newark, CA 94560"]}, "phone": "+15106971448", "display_phone": "(510) 697-1448", "distance": 46315.14474352113}, {"id": "uDiET4svV2YANPkSPDB9wQ", "alias": "o-my-cr\u00eapes-dublin-2", "name": "O My Cr\u00eapes!", "image_url": "https://s3-media2.fl.yelpcdn.com/bphoto/fhO5f-An4GYyPjPv57A66Q/o.jpg", "is_closed": false, "url": "https://www.yelp.com/biz/o-my-cr%C3%AApes-dublin-2?adjust_creative=R39z9kjZ-1HrCCc7SW6pcw&utm_campaign=yelp_api_v3&utm_medium=api_v3_business_search&utm_source=R39z9kjZ-1HrCCc7SW6pcw", "review_count": 52, "categories": [{"alias": "foodtrucks", "title": "Food Trucks"}, {"alias": "creperies", "title": "Creperies"}, {"alias": "catering", "title": "Caterers"}], "rating": 5.0, "coordinates": {"latitude": 37.71604, "longitude": -121.91311}, "transactions": [], "price": "$$", "location": {"address1": "", "address2": null, "address3": null, "city": "Dublin", "zip_code": "94568", "country": "US", "state": "CA", "display_address": ["Dublin, CA 94568"]}, "phone": "+19259848338", "display_phone": "(925) 984-8338", "distance": 24683.012040484868}, {"id": "XTJJ_PUQoJKIh31ZIzsFzw", "alias": "cochinita-food-truck-san-francisco-6", "name": "Cochinita Food Truck", "image_url": "https://s3-media2.fl.yelpcdn.com/bphoto/w77SOd2jVJjOh1lwuYQ42w/o.jpg", "is_closed": false, "url": "https://www.yelp.com/biz/cochinita-food-truck-san-francisco-6?adjust_creative=R39z9kjZ-1HrCCc7SW6pcw&utm_campaign=yelp_api_v3&utm_medium=api_v3_business_search&utm_source=R39z9kjZ-1HrCCc7SW6pcw", "review_count": 49, "categories": [{"alias": "foodtrucks", "title": "Food Trucks"}, {"alias": "mexican", "title": "Mexican"}], "rating": 4.5, "coordinates": {"latitude": 37.770753, "longitude": -122.3916722}, "transactions": [], "price": "$", "location": {"address1": "601 Mission Blvd N", "address2": null, "address3": "", "city": "San Francisco", "zip_code": "94103", "country": "US", "state": "CA", "display_address": ["601 Mission Blvd N", "San Francisco, CA 94103"]}, "phone": "+14159883663", "display_phone": "(415) 988-3663", "distance": 44647.46641598578}, {"id": "sR0Wy3LYGdYV9HLszRlMmw", "alias": "tacos-la-palmita-stockton", "name": "Tacos La Palmita", "image_url": "https://s3-media2.fl.yelpcdn.com/bphoto/pzYoRmZjUQqxZ7qOyU7hUQ/o.jpg", "is_closed": false, "url": "https://www.yelp.com/biz/tacos-la-palmita-stockton?adjust_creative=R39z9kjZ-1HrCCc7SW6pcw&utm_campaign=yelp_api_v3&utm_medium=api_v3_business_search&utm_source=R39z9kjZ-1HrCCc7SW6pcw", "review_count": 90, "categories": [{"alias": "tacos", "title": "Tacos"}, {"alias": "foodtrucks", "title": "Food Trucks"}], "rating": 4.5, "coordinates": {"latitude": 38.008129, "longitude": -121.320219}, "transactions": ["pickup", "delivery"], "price": "$", "location": {"address1": "6393 Pacific Ave", "address2": null, "address3": null, "city": "Stockton", "zip_code": "95207", "country": "US", "state": "CA", "display_address": ["6393 Pacific Ave", "Stockton, CA 95207"]}, "phone": "+12093026825", "display_phone": "(209) 302-6825", "distance": 53940.289808237016}, {"id": "ojUAPwlCiu_4vm_Z0ZqiYQ", "alias": "bayareatacocatering-belmont", "name": "BayAreaTacoCatering", "image_url": "https://s3-media2.fl.yelpcdn.com/bphoto/GMhjsoS5maG6UsosVN8Yhw/o.jpg", "is_closed": false, "url": "https://www.yelp.com/biz/bayareatacocatering-belmont?adjust_creative=R39z9kjZ-1HrCCc7SW6pcw&utm_campaign=yelp_api_v3&utm_medium=api_v3_business_search&utm_source=R39z9kjZ-1HrCCc7SW6pcw", "review_count": 24, "categories": [{"alias": "tacos", "title": "Tacos"}, {"alias": "catering", "title": "Caterers"}, {"alias": "foodtrucks", "title": "Food Trucks"}], "rating": 5.0, "coordinates": {"latitude": 37.5117858227472, "longitude": -122.292540979695}, "transactions": [], "price": "$", "location": {"address1": null, "address2": null, "address3": "", "city": "Belmont", "zip_code": "94002", "country": "US", "state": "CA", "display_address": ["Belmont, CA 94002"]}, "phone": "+15108666832", "display_phone": "(510) 866-6832", "distance": 57115.25560088946}, {"id": "uuouQQIFQ1B9mkmcxaAKFA", "alias": "tacos-el-rey-oakland", "name": "Tacos El Rey", "image_url": "https://s3-media2.fl.yelpcdn.com/bphoto/DblyFrtT9uyPCQAUfPbYbQ/o.jpg", "is_closed": false, "url": "https://www.yelp.com/biz/tacos-el-rey-oakland?adjust_creative=R39z9kjZ-1HrCCc7SW6pcw&utm_campaign=yelp_api_v3&utm_medium=api_v3_business_search&utm_source=R39z9kjZ-1HrCCc7SW6pcw", "review_count": 9, "categories": [{"alias": "foodtrucks", "title": "Food Trucks"}, {"alias": "mexican", "title": "Mexican"}], "rating": 4.0, "coordinates": {"latitude": 37.8294034, "longitude": -122.2875758}, "transactions": [], "price": "$", "location": {"address1": "40th & Horton", "address2": "", "address3": null, "city": "Oakland", "zip_code": "94608", "country": "US", "state": "CA", "display_address": ["40th & Horton", "Oakland, CA 94608"]}, "phone": "+15108130232", "display_phone": "(510) 813-0232", "distance": 33682.00889063739}, {"id": "SbjAjfh2riT7rWxo2OITJA", "alias": "candies-kitchen-sacramento", "name": "Candies Kitchen", "image_url": "https://s3-media1.fl.yelpcdn.com/bphoto/wZehoZn9-gQLuWPX4QIOLA/o.jpg", "is_closed": false, "url": "https://www.yelp.com/biz/candies-kitchen-sacramento?adjust_creative=R39z9kjZ-1HrCCc7SW6pcw&utm_campaign=yelp_api_v3&utm_medium=api_v3_business_search&utm_source=R39z9kjZ-1HrCCc7SW6pcw", "review_count": 2, "categories": [{"alias": "cajun", "title": "Cajun/Creole"}, {"alias": "soulfood", "title": "Soul Food"}, {"alias": "foodtrucks", "title": "Food Trucks"}], "rating": 3.5, "coordinates": {"latitude": 38.59429, "longitude": -121.48536}, "transactions": [], "location": {"address1": "1100 Richards Blvd", "address2": null, "address3": "", "city": "Sacramento", "zip_code": "95811", "country": "US", "state": "CA", "display_address": ["1100 Richards Blvd", "Sacramento, CA 95811"]}, "phone": "+19164399922", "display_phone": "(916) 439-9922", "distance": 82686.66753016267}, {"id": "4HaUjRfwmHUOoFAeKi84dw", "alias": "mudville-mcs-stockton", "name": "Mudville Mc's", "image_url": "https://s3-media4.fl.yelpcdn.com/bphoto/yOlLV3w6yY7iPmRFJQbA5A/o.jpg", "is_closed": false, "url": "https://www.yelp.com/biz/mudville-mcs-stockton?adjust_creative=R39z9kjZ-1HrCCc7SW6pcw&utm_campaign=yelp_api_v3&utm_medium=api_v3_business_search&utm_source=R39z9kjZ-1HrCCc7SW6pcw", "review_count": 3, "categories": [{"alias": "foodtrucks", "title": "Food Trucks"}, {"alias": "soulfood", "title": "Soul Food"}, {"alias": "spanish", "title": "Spanish"}], "rating": 3.0, "coordinates": {"latitude": 37.9772033691406, "longitude": -121.298080444336}, "transactions": [], "location": {"address1": "", "address2": "", "address3": "", "city": "Stockton", "zip_code": "95204", "country": "US", "state": "CA", "display_address": ["Stockton, CA 95204"]}, "phone": "+16572294627", "display_phone": "(657) 229-4627", "distance": 53053.651945067024}, {"id": "C9uewBH5505NV0EWYBIJAA", "alias": "lady-and-l-aperitivo-san-jose", "name": "Lady & L'Aperitivo", "image_url": "https://s3-media4.fl.yelpcdn.com/bphoto/3nz0sRE9MlOq_4xVRQRt9w/o.jpg", "is_closed": false, "url": "https://www.yelp.com/biz/lady-and-l-aperitivo-san-jose?adjust_creative=R39z9kjZ-1HrCCc7SW6pcw&utm_campaign=yelp_api_v3&utm_medium=api_v3_business_search&utm_source=R39z9kjZ-1HrCCc7SW6pcw", "review_count": 1, "categories": [{"alias": "bakeries", "title": "Bakeries"}, {"alias": "desserts", "title": "Desserts"}, {"alias": "cheesesteaks", "title": "Cheesesteaks"}], "rating": 5.0, "coordinates": {"latitude": 37.2208938598633, "longitude": -121.861633300781}, "transactions": [], "location": {"address1": null, "address2": null, "address3": "", "city": "San Jose", "zip_code": "95120", "country": "US", "state": "CA", "display_address": ["San Jose, CA 95120"]}, "phone": "", "display_phone": "", "distance": 85687.80677526313}]}