{"location": "Cloverdale, CA", "term": "restaurant", "radius": 1482, "businesses": [{"id": "slg-wyyA57sZSMWmNshl-Q", "alias": "railroad-station-bar-and-grill-cloverdale", "name": "Railroad Station Bar and Grill", "image_url": "https://s3-media1.fl.yelpcdn.com/bphoto/ynZ86v506_kwi8Rn57StyA/o.jpg", "is_closed": false, "url": "https://www.yelp.com/biz/railroad-station-bar-and-grill-cloverdale?adjust_creative=R39z9kjZ-1HrCCc7SW6pcw&utm_campaign=yelp_api_v3&utm_medium=api_v3_business_search&utm_source=R39z9kjZ-1HrCCc7SW6pcw", "review_count": 235, "categories": [{"alias": "newamerican", "title": "American (New)"}, {"alias": "southern", "title": "Southern"}, {"alias": "pubs", "title": "Pubs"}], "rating": 4.0, "coordinates": {"latitude": 38.8030784358586, "longitude": -123.015378005472}, "transactions": ["pickup"], "price": "$$", "location": {"address1": "236 S Cloverdale Blvd", "address2": null, "address3": "", "city": "Cloverdale", "zip_code": "95425", "country": "US", "state": "CA", "display_address": ["236 S Cloverdale Blvd", "Cloverdale, CA 95425"]}, "phone": "+17078944779", "display_phone": "(707) 894-4779", "distance": 946.1939012948063}, {"id": "6o26tulocbwnkZx89EVHkA", "alias": "trading-post-cloverdale-3", "name": "Trading Post", "image_url": "https://s3-media2.fl.yelpcdn.com/bphoto/5W8ESOurrdL8wmt5LqHRzw/o.jpg", "is_closed": false, "url": "https://www.yelp.com/biz/trading-post-cloverdale-3?adjust_creative=R39z9kjZ-1HrCCc7SW6pcw&utm_campaign=yelp_api_v3&utm_medium=api_v3_business_search&utm_source=R39z9kjZ-1HrCCc7SW6pcw", "review_count": 136, "categories": [{"alias": "bakeries", "title": "Bakeries"}, {"alias": "newamerican", "title": "American (New)"}, {"alias": "bars", "title": "Bars"}], "rating": 4.0, "coordinates": {"latitude": 38.8051039, "longitude": -123.0168659}, "transactions": [], "price": "$$", "location": {"address1": "102 S Cloverdale Blvd", "address2": null, "address3": "", "city": "Cloverdale", "zip_code": "95425", "country": "US", "state": "CA", "display_address": ["102 S Cloverdale Blvd", "Cloverdale, CA 95425"]}, "phone": "+17078946483", "display_phone": "(707) 894-6483", "distance": 1209.4635778871552}, {"id": "vDVaUkNFw3__cspco8z6nw", "alias": "el-molcajete-cloverdale", "name": "El Molcajete", "image_url": "https://s3-media3.fl.yelpcdn.com/bphoto/40POvkhcGmvcP1o20yIhFA/o.jpg", "is_closed": false, "url": "https://www.yelp.com/biz/el-molcajete-cloverdale?adjust_creative=R39z9kjZ-1HrCCc7SW6pcw&utm_campaign=yelp_api_v3&utm_medium=api_v3_business_search&utm_source=R39z9kjZ-1HrCCc7SW6pcw", "review_count": 93, "categories": [{"alias": "mexican", "title": "Mexican"}], "rating": 4.0, "coordinates": {"latitude": 38.7844049462974, "longitude": -123.014940979346}, "transactions": [], "price": "$$", "location": {"address1": "1129 S Cloverdale Blvd", "address2": "", "address3": "", "city": "Cloverdale", "zip_code": "95425", "country": "US", "state": "CA", "display_address": ["1129 S Cloverdale Blvd", "Cloverdale, CA 95425"]}, "phone": "+17078944495", "display_phone": "(707) 894-4495", "distance": 1210.6703110865717}, {"id": "kzQg7SmFR4YR_cK2tWRjEQ", "alias": "101-thai-way-cloverdale", "name": "101 Thai Way", "image_url": "https://s3-media2.fl.yelpcdn.com/bphoto/p2cFiXdWWQx9Vf7W6uNwSw/o.jpg", "is_closed": false, "url": "https://www.yelp.com/biz/101-thai-way-cloverdale?adjust_creative=R39z9kjZ-1HrCCc7SW6pcw&utm_campaign=yelp_api_v3&utm_medium=api_v3_business_search&utm_source=R39z9kjZ-1HrCCc7SW6pcw", "review_count": 203, "categories": [{"alias": "thai", "title": "Thai"}], "rating": 4.5, "coordinates": {"latitude": 38.783698, "longitude": -123.011209}, "transactions": [], "price": "$$", "location": {"address1": "1198 S Cloverdale Blvd", "address2": "Ste C", "address3": "", "city": "Cloverdale", "zip_code": "95425", "country": "US", "state": "CA", "display_address": ["1198 S Cloverdale Blvd", "Ste C", "Cloverdale, CA 95425"]}, "phone": "+17078949999", "display_phone": "(707) 894-9999", "distance": 1260.6343477425794}, {"id": "GT3BntVo-Ves8ZywrmHTkg", "alias": "ks-tian-yuen-restaurant-cloverdale", "name": "KS Tian Yuen Restaurant", "image_url": "https://s3-media2.fl.yelpcdn.com/bphoto/ZUxipGvTbNL8-D-xviIPhA/o.jpg", "is_closed": false, "url": "https://www.yelp.com/biz/ks-tian-yuen-restaurant-cloverdale?adjust_creative=R39z9kjZ-1HrCCc7SW6pcw&utm_campaign=yelp_api_v3&utm_medium=api_v3_business_search&utm_source=R39z9kjZ-1HrCCc7SW6pcw", "review_count": 124, "categories": [{"alias": "chinese", "title": "Chinese"}, {"alias": "japanese", "title": "Japanese"}, {"alias": "sushi", "title": "Sushi Bars"}], "rating": 4.0, "coordinates": {"latitude": 38.800350189209, "longitude": -123.017036437988}, "transactions": ["pickup"], "price": "$$", "location": {"address1": "421 S Cloverdale Blvd", "address2": "", "address3": "", "city": "Cloverdale", "zip_code": "95425", "country": "US", "state": "CA", "display_address": ["421 S Cloverdale Blvd", "Cloverdale, CA 95425"]}, "phone": "+17078945697", "display_phone": "(707) 894-5697", "distance": 743.519972231891}, {"id": "bwp-KNxkgfQhsbaBYYvqdw", "alias": "papas-pizza-cafe-cloverdale", "name": "Papa's Pizza Cafe", "image_url": "https://s3-media3.fl.yelpcdn.com/bphoto/kx4pnxA6aLCOtE-gUk3apg/o.jpg", "is_closed": false, "url": "https://www.yelp.com/biz/papas-pizza-cafe-cloverdale?adjust_creative=R39z9kjZ-1HrCCc7SW6pcw&utm_campaign=yelp_api_v3&utm_medium=api_v3_business_search&utm_source=R39z9kjZ-1HrCCc7SW6pcw", "review_count": 93, "categories": [{"alias": "pizza", "title": "Pizza"}, {"alias": "salad", "title": "Salad"}, {"alias": "sandwiches", "title": "Sandwiches"}], "rating": 4.5, "coordinates": {"latitude": 38.8053262, "longitude": -123.017612}, "transactions": [], "price": "$$", "location": {"address1": "105 N Cloverdale Blvd", "address2": "", "address3": "", "city": "Cloverdale", "zip_code": "95425", "country": "US", "state": "CA", "display_address": ["105 N Cloverdale Blvd", "Cloverdale, CA 95425"]}, "phone": "+17078944453", "display_phone": "(707) 894-4453", "distance": 1249.4399106732194}, {"id": "VmRLVJ4QPJCC3ZoxHCAdvA", "alias": "railroad-square-bar-and-grill-cloverdale", "name": "Railroad Square Bar and Grill", "image_url": "https://s3-media2.fl.yelpcdn.com/bphoto/OX5z1Yw9eHIe_U4xUbeO1w/o.jpg", "is_closed": false, "url": "https://www.yelp.com/biz/railroad-square-bar-and-grill-cloverdale?adjust_creative=R39z9kjZ-1HrCCc7SW6pcw&utm_campaign=yelp_api_v3&utm_medium=api_v3_business_search&utm_source=R39z9kjZ-1HrCCc7SW6pcw", "review_count": 7, "categories": [{"alias": "restaurants", "title": "Restaurants"}], "rating": 4.0, "coordinates": {"latitude": 38.8028774410486, "longitude": -123.015908896923}, "transactions": [], "location": {"address1": "236 S Cloverdale Blvd", "address2": "", "address3": "", "city": "Cloverdale", "zip_code": "95425", "country": "US", "state": "CA", "display_address": ["236 S Cloverdale Blvd", "Cloverdale, CA 95425"]}, "phone": "+17078944779", "display_phone": "(707) 894-4779", "distance": 1052.4975466528513}, {"id": "mweczDf0CB-zt4JsremEPQ", "alias": "moes-eagles-nest-deli-cloverdale", "name": "MoE's Eagles Nest Deli", "image_url": "https://s3-media1.fl.yelpcdn.com/bphoto/W4wxXPQ9ERJxeaqTw0QBAQ/o.jpg", "is_closed": false, "url": "https://www.yelp.com/biz/moes-eagles-nest-deli-cloverdale?adjust_creative=R39z9kjZ-1HrCCc7SW6pcw&utm_campaign=yelp_api_v3&utm_medium=api_v3_business_search&utm_source=R39z9kjZ-1HrCCc7SW6pcw", "review_count": 66, "categories": [{"alias": "delis", "title": "Delis"}], "rating": 3.5, "coordinates": {"latitude": 38.8056685, "longitude": -123.0174212}, "transactions": [], "price": "$", "location": {"address1": "113 N Cloverdale Blvd", "address2": "", "address3": "", "city": "Cloverdale", "zip_code": "95425", "country": "US", "state": "CA", "display_address": ["113 N Cloverdale Blvd", "Cloverdale, CA 95425"]}, "phone": "+17078949290", "display_phone": "(707) 894-9290", "distance": 1278.0965659696885}, {"id": "PgwlPkDTeiVvG44Jn2DjQg", "alias": "thai-spice-cloverdale-2", "name": "Thai Spice", "image_url": "https://s3-media1.fl.yelpcdn.com/bphoto/6Di52eNVPGU7dn4mcly0rA/o.jpg", "is_closed": false, "url": "https://www.yelp.com/biz/thai-spice-cloverdale-2?adjust_creative=R39z9kjZ-1HrCCc7SW6pcw&utm_campaign=yelp_api_v3&utm_medium=api_v3_business_search&utm_source=R39z9kjZ-1HrCCc7SW6pcw", "review_count": 55, "categories": [{"alias": "thai", "title": "Thai"}, {"alias": "desserts", "title": "Desserts"}, {"alias": "salad", "title": "Salad"}], "rating": 4.5, "coordinates": {"latitude": 38.7844048, "longitude": -123.0129948}, "transactions": ["delivery", "pickup"], "price": "$$", "location": {"address1": "1123 S Cloverdale Blvd", "address2": "Ste A", "address3": null, "city": "Cloverdale", "zip_code": "95425", "country": "US", "state": "CA", "display_address": ["1123 S Cloverdale Blvd", "Ste A", "Cloverdale, CA 95425"]}, "phone": "+17078948899", "display_phone": "(707) 894-8899", "distance": 1175.2550032164265}, {"id": "qqVysA8ns692wucr7ftr8w", "alias": "picks-drive-in-cloverdale", "name": "Picks Drive-In", "image_url": "https://s3-media3.fl.yelpcdn.com/bphoto/klIclezeR6CnsvAV1c13Vg/o.jpg", "is_closed": false, "url": "https://www.yelp.com/biz/picks-drive-in-cloverdale?adjust_creative=R39z9kjZ-1HrCCc7SW6pcw&utm_campaign=yelp_api_v3&utm_medium=api_v3_business_search&utm_source=R39z9kjZ-1HrCCc7SW6pcw", "review_count": 182, "categories": [{"alias": "burgers", "title": "Burgers"}, {"alias": "icecream", "title": "Ice Cream & Frozen Yogurt"}, {"alias": "sandwiches", "title": "Sandwiches"}], "rating": 3.5, "coordinates": {"latitude": 38.8047516408326, "longitude": -123.017062221254}, "transactions": [], "price": "$$", "location": {"address1": "117 S Cloverdale Blvd", "address2": "", "address3": "", "city": "Cloverdale", "zip_code": "95425", "country": "US", "state": "CA", "display_address": ["117 S Cloverdale Blvd", "Cloverdale, CA 95425"]}, "phone": "+17078942962", "display_phone": "(707) 894-2962", "distance": 1171.9856430656096}, {"id": "9G2LpinvOizjurjyRvn9wg", "alias": "los-pinos-deli-market-cloverdale", "name": "Los Pinos Deli Market", "image_url": "https://s3-media2.fl.yelpcdn.com/bphoto/5VrFAWA5Jd4HiotYZRJFag/o.jpg", "is_closed": false, "url": "https://www.yelp.com/biz/los-pinos-deli-market-cloverdale?adjust_creative=R39z9kjZ-1HrCCc7SW6pcw&utm_campaign=yelp_api_v3&utm_medium=api_v3_business_search&utm_source=R39z9kjZ-1HrCCc7SW6pcw", "review_count": 22, "categories": [{"alias": "grocery", "title": "Grocery"}, {"alias": "tacos", "title": "Tacos"}, {"alias": "sandwiches", "title": "Sandwiches"}], "rating": 4.5, "coordinates": {"latitude": 38.79853, "longitude": -123.01745}, "transactions": [], "price": "$$", "location": {"address1": "462 S Cloverdale Blvd", "address2": "", "address3": "", "city": "Cloverdale", "zip_code": "95425", "country": "US", "state": "CA", "display_address": ["462 S Cloverdale Blvd", "Cloverdale, CA 95425"]}, "phone": "+17078943342", "display_phone": "(707) 894-3342", "distance": 640.0092866016392}, {"id": "aPow7ctyoPiaMGzHhzfZvQ", "alias": "la-hacienda-cloverdale", "name": "La Hacienda", "image_url": "https://s3-media2.fl.yelpcdn.com/bphoto/riaP2iCJZdpN4sYOl22dxw/o.jpg", "is_closed": false, "url": "https://www.yelp.com/biz/la-hacienda-cloverdale?adjust_creative=R39z9kjZ-1HrCCc7SW6pcw&utm_campaign=yelp_api_v3&utm_medium=api_v3_business_search&utm_source=R39z9kjZ-1HrCCc7SW6pcw", "review_count": 88, "categories": [{"alias": "mexican", "title": "Mexican"}], "rating": 3.5, "coordinates": {"latitude": 38.8065349, "longitude": -123.0178458}, "transactions": [], "price": "$$", "location": {"address1": "134 N Cloverdale Blvd", "address2": "", "address3": "", "city": "Cloverdale", "zip_code": "95425", "country": "US", "state": "CA", "display_address": ["134 N Cloverdale Blvd", "Cloverdale, CA 95425"]}, "phone": "+17078949365", "display_phone": "(707) 894-9365", "distance": 1390.0770018653707}, {"id": "519ahIkavklyHgmZY_B-ig", "alias": "aztec-grill-cloverdale-4", "name": "Aztec Grill", "image_url": "https://s3-media3.fl.yelpcdn.com/bphoto/w6f8wFjVRRPr8wBxXUCSkQ/o.jpg", "is_closed": false, "url": "https://www.yelp.com/biz/aztec-grill-cloverdale-4?adjust_creative=R39z9kjZ-1HrCCc7SW6pcw&utm_campaign=yelp_api_v3&utm_medium=api_v3_business_search&utm_source=R39z9kjZ-1HrCCc7SW6pcw", "review_count": 18, "categories": [{"alias": "mexican", "title": "Mexican"}], "rating": 3.5, "coordinates": {"latitude": 38.78373, "longitude": -123.01269}, "transactions": [], "price": "$", "location": {"address1": "1165 S Cloverdale Blvd", "address2": "", "address3": "Redwood Market", "city": "Cloverdale", "zip_code": "95425", "country": "US", "state": "CA", "display_address": ["1165 S Cloverdale Blvd", "Redwood Market", "Cloverdale, CA 95425"]}, "phone": "+17078945979", "display_phone": "(707) 894-5979", "distance": 1270.1270226082913}, {"id": "AbV2CKvuLpXVGpWER65Z4Q", "alias": "mcdonalds-cloverdale-2", "name": "McDonald's", "image_url": "https://s3-media1.fl.yelpcdn.com/bphoto/TR8ECED_HB7cN5YoDdj0Lg/o.jpg", "is_closed": false, "url": "https://www.yelp.com/biz/mcdonalds-cloverdale-2?adjust_creative=R39z9kjZ-1HrCCc7SW6pcw&utm_campaign=yelp_api_v3&utm_medium=api_v3_business_search&utm_source=R39z9kjZ-1HrCCc7SW6pcw", "review_count": 40, "categories": [{"alias": "burgers", "title": "Burgers"}, {"alias": "hotdogs", "title": "Fast Food"}, {"alias": "coffee", "title": "Coffee & Tea"}], "rating": 1.5, "coordinates": {"latitude": 38.784104343224, "longitude": -123.013211269013}, "transactions": [], "price": "$", "location": {"address1": "1149 S Cloverdale Blvd", "address2": "", "address3": "", "city": "Cloverdale", "zip_code": "95425", "country": "US", "state": "CA", "display_address": ["1149 S Cloverdale Blvd", "Cloverdale, CA 95425"]}, "phone": "+17078944588", "display_phone": "(707) 894-4588", "distance": 1219.870758252624}, {"id": "OE1qwg3bKhp_sKy_1mxSFA", "alias": "taco-bell-cloverdale-2", "name": "Taco Bell", "image_url": "https://s3-media3.fl.yelpcdn.com/bphoto/cwT_tTz0mbyQHuFjCf-zIw/o.jpg", "is_closed": false, "url": "https://www.yelp.com/biz/taco-bell-cloverdale-2?adjust_creative=R39z9kjZ-1HrCCc7SW6pcw&utm_campaign=yelp_api_v3&utm_medium=api_v3_business_search&utm_source=R39z9kjZ-1HrCCc7SW6pcw", "review_count": 6, "categories": [{"alias": "hotdogs", "title": "Fast Food"}, {"alias": "tacos", "title": "Tacos"}], "rating": 3.0, "coordinates": {"latitude": 38.7839490229458, "longitude": -123.011410161853}, "transactions": [], "price": "$", "location": {"address1": "1194 S Cloverdale Boulevard", "address2": "", "address3": null, "city": "Cloverdale", "zip_code": "95425", "country": "US", "state": "CA", "display_address": ["1194 S Cloverdale Boulevard", "Cloverdale, CA 95425"]}, "phone": "+17076694189", "display_phone": "(707) 669-4189", "distance": 1232.0800781147586}, {"id": "SckKW2thzadVIqTvnSLJKg", "alias": "subway-restaurants-cloverdale-2", "name": "Subway Restaurants", "image_url": "https://s3-media2.fl.yelpcdn.com/bphoto/BPLrIuoq0x0Q9_yy99w1GA/o.jpg", "is_closed": false, "url": "https://www.yelp.com/biz/subway-restaurants-cloverdale-2?adjust_creative=R39z9kjZ-1HrCCc7SW6pcw&utm_campaign=yelp_api_v3&utm_medium=api_v3_business_search&utm_source=R39z9kjZ-1HrCCc7SW6pcw", "review_count": 9, "categories": [{"alias": "sandwiches", "title": "Sandwiches"}], "rating": 1.0, "coordinates": {"latitude": 38.784557, "longitude": -123.015081}, "transactions": [], "price": "$", "location": {"address1": "1117 B S Cloverdale Blvd.", "address2": null, "address3": null, "city": "Cloverdale", "zip_code": "95425", "country": "US", "state": "CA", "display_address": ["1117 B S Cloverdale Blvd.", "Cloverdale, CA 95425"]}, "phone": "+17078949391", "display_phone": "(707) 894-9391", "distance": 1157.8707311539301}, {"id": "9N-td0mNSbt5fOqUybF2iA", "alias": "golden-gate-shell-cloverdale", "name": "Golden Gate Shell", "image_url": "https://s3-media3.fl.yelpcdn.com/bphoto/Ei1fuTT7JQet7xU50wvpeA/o.jpg", "is_closed": false, "url": "https://www.yelp.com/biz/golden-gate-shell-cloverdale?adjust_creative=R39z9kjZ-1HrCCc7SW6pcw&utm_campaign=yelp_api_v3&utm_medium=api_v3_business_search&utm_source=R39z9kjZ-1HrCCc7SW6pcw", "review_count": 3, "categories": [{"alias": "servicestations", "title": "Gas Stations"}, {"alias": "hotdogs", "title": "Fast Food"}, {"alias": "sandwiches", "title": "Sandwiches"}], "rating": 2.5, "coordinates": {"latitude": 38.783863067627, "longitude": -123.011474609375}, "transactions": [], "price": "$$", "location": {"address1": "1194 S Cloverdale Blvd", "address2": "", "address3": "", "city": "Cloverdale", "zip_code": "95425", "country": "US", "state": "CA", "display_address": ["1194 S Cloverdale Blvd", "Cloverdale, CA 95425"]}, "phone": "+17078945856", "display_phone": "(707) 894-5856", "distance": 1223.2212408776206}, {"id": "W76ZrwAjPd751X-oEKvLJw", "alias": "subway-cloverdale-5", "name": "Subway", "image_url": "", "is_closed": false, "url": "https://www.yelp.com/biz/subway-cloverdale-5?adjust_creative=R39z9kjZ-1HrCCc7SW6pcw&utm_campaign=yelp_api_v3&utm_medium=api_v3_business_search&utm_source=R39z9kjZ-1HrCCc7SW6pcw", "review_count": 4, "categories": [{"alias": "sandwiches", "title": "Sandwiches"}, {"alias": "hotdogs", "title": "Fast Food"}], "rating": 2.5, "coordinates": {"latitude": 38.783863067627, "longitude": -123.011474609375}, "transactions": [], "price": "$", "location": {"address1": "1194 S Cloverdale Blvd", "address2": "", "address3": "", "city": "Cloverdale", "zip_code": "95425", "country": "US", "state": "CA", "display_address": ["1194 S Cloverdale Blvd", "Cloverdale, CA 95425"]}, "phone": "+17078945983", "display_phone": "(707) 894-5983", "distance": 1223.2212408776206}, {"id": "noqlnoOOQg5CCXJGP3of-Q", "alias": "mendocino-bbq-catering-ukiah", "name": "Mendocino BBQ Catering", "image_url": "https://s3-media4.fl.yelpcdn.com/bphoto/OZUrirzQcPOLuDRcjkJh0Q/o.jpg", "is_closed": false, "url": "https://www.yelp.com/biz/mendocino-bbq-catering-ukiah?adjust_creative=R39z9kjZ-1HrCCc7SW6pcw&utm_campaign=yelp_api_v3&utm_medium=api_v3_business_search&utm_source=R39z9kjZ-1HrCCc7SW6pcw", "review_count": 7, "categories": [{"alias": "catering", "title": "Caterers"}, {"alias": "bbq", "title": "Barbeque"}, {"alias": "foodtrucks", "title": "Food Trucks"}], "rating": 5.0, "coordinates": {"latitude": 39.1549905, "longitude": -123.2078366}, "transactions": [], "location": {"address1": "585 N State St", "address2": null, "address3": "", "city": "Ukiah", "zip_code": "95482", "country": "US", "state": "CA", "display_address": ["585 N State St", "Ukiah, CA 95482"]}, "phone": "+17073917647", "display_phone": "(707) 391-7647", "distance": 43464.08839483579}, {"id": "i6ZwMjYIbmFZ8EGYz6x5Bw", "alias": "phat-salads-and-wraps-napa", "name": "Phat Salads and Wraps", "image_url": "https://s3-media2.fl.yelpcdn.com/bphoto/FbrUwtrVIx2cLXiPdBhHkw/o.jpg", "is_closed": false, "url": "https://www.yelp.com/biz/phat-salads-and-wraps-napa?adjust_creative=R39z9kjZ-1HrCCc7SW6pcw&utm_campaign=yelp_api_v3&utm_medium=api_v3_business_search&utm_source=R39z9kjZ-1HrCCc7SW6pcw", "review_count": 48, "categories": [{"alias": "foodtrucks", "title": "Food Trucks"}, {"alias": "wraps", "title": "Wraps"}], "rating": 4.0, "coordinates": {"latitude": 38.3234491, "longitude": -122.3023962}, "transactions": [], "price": "$", "location": {"address1": "", "address2": "", "address3": "", "city": "Napa", "zip_code": "94558", "country": "US", "state": "CA", "display_address": ["Napa, CA 94558"]}, "phone": "+17073639658", "display_phone": "(707) 363-9658", "distance": 80962.37351891593}]}