{"location": "Cotati, CA", "term": "restaurant", "radius": 1249, "businesses": [{"id": "dt5ZL5N6NlO6-cJE2RMfIg", "alias": "smokin-bowls-rohnert-park", "name": "Smokin Bowls", "image_url": "https://s3-media3.fl.yelpcdn.com/bphoto/ud-7ZgtTTXbCPEqsHw95Xw/o.jpg", "is_closed": false, "url": "https://www.yelp.com/biz/smokin-bowls-rohnert-park?adjust_creative=R39z9kjZ-1HrCCc7SW6pcw&utm_campaign=yelp_api_v3&utm_medium=api_v3_business_search&utm_source=R39z9kjZ-1HrCCc7SW6pcw", "review_count": 302, "categories": [{"alias": "comfortfood", "title": "Comfort Food"}, {"alias": "gluten_free", "title": "Gluten-Free"}], "rating": 4.5, "coordinates": {"latitude": 38.3351310465053, "longitude": -122.706113005962}, "transactions": [], "price": "$", "location": {"address1": "295 Southwest Blvd", "address2": "", "address3": null, "city": "Rohnert Park", "zip_code": "94928", "country": "US", "state": "CA", "display_address": ["295 Southwest Blvd", "Rohnert Park, CA 94928"]}, "phone": "+17076655265", "display_phone": "(707) 665-5265", "distance": 516.8415924350304}, {"id": "lK4IeCLPar6hnyse5nz8lQ", "alias": "the-twins-restaurant-cotati", "name": "The Twins Restaurant", "image_url": "https://s3-media1.fl.yelpcdn.com/bphoto/394tHds-sdgQdZktdnnt7w/o.jpg", "is_closed": false, "url": "https://www.yelp.com/biz/the-twins-restaurant-cotati?adjust_creative=R39z9kjZ-1HrCCc7SW6pcw&utm_campaign=yelp_api_v3&utm_medium=api_v3_business_search&utm_source=R39z9kjZ-1HrCCc7SW6pcw", "review_count": 47, "categories": [{"alias": "tradamerican", "title": "American (Traditional)"}, {"alias": "breakfast_brunch", "title": "Breakfast & Brunch"}], "rating": 5.0, "coordinates": {"latitude": 38.32825, "longitude": -122.697405}, "transactions": [], "price": "$$", "location": {"address1": "572 E Cotati Ave", "address2": null, "address3": "", "city": "Cotati", "zip_code": "94931", "country": "US", "state": "CA", "display_address": ["572 E Cotati Ave", "Cotati, CA 94931"]}, "phone": "+17072423075", "display_phone": "(707) 242-3075", "distance": 918.8105388490933}, {"id": "_gOKWWR-m3glvjEQuuomkA", "alias": "don-julios-rincon-latin-grill-and-pupusas-rohnert-park", "name": "Don Julio's Rincon Latin Grill and Pupusas", "image_url": "https://s3-media2.fl.yelpcdn.com/bphoto/ye2g4o4FAFpjE1J8NqCRXg/o.jpg", "is_closed": false, "url": "https://www.yelp.com/biz/don-julios-rincon-latin-grill-and-pupusas-rohnert-park?adjust_creative=R39z9kjZ-1HrCCc7SW6pcw&utm_campaign=yelp_api_v3&utm_medium=api_v3_business_search&utm_source=R39z9kjZ-1HrCCc7SW6pcw", "review_count": 601, "categories": [{"alias": "salvadoran", "title": "Salvadoran"}, {"alias": "mexican", "title": "Mexican"}], "rating": 4.5, "coordinates": {"latitude": 38.3358972, "longitude": -122.7073831}, "transactions": [], "price": "$$", "location": {"address1": "217 Southwest Blvd", "address2": null, "address3": "", "city": "Rohnert Park", "zip_code": "94928", "country": "US", "state": "CA", "display_address": ["217 Southwest Blvd", "Rohnert Park, CA 94928"]}, "phone": "+17072423160", "display_phone": "(707) 242-3160", "distance": 579.803059553157}, {"id": "s3aOeRR4BvtyXwx13p8eiA", "alias": "down-to-earth-cafe-deli-cotati", "name": "Down To Earth Cafe + Deli", "image_url": "https://s3-media1.fl.yelpcdn.com/bphoto/3EKnkqrmNBzvbyHsKP7SfA/o.jpg", "is_closed": false, "url": "https://www.yelp.com/biz/down-to-earth-cafe-deli-cotati?adjust_creative=R39z9kjZ-1HrCCc7SW6pcw&utm_campaign=yelp_api_v3&utm_medium=api_v3_business_search&utm_source=R39z9kjZ-1HrCCc7SW6pcw", "review_count": 224, "categories": [{"alias": "delis", "title": "Delis"}, {"alias": "newamerican", "title": "American (New)"}, {"alias": "cafes", "title": "Cafes"}], "rating": 4.5, "coordinates": {"latitude": 38.3260526, "longitude": -122.7056549}, "transactions": ["pickup"], "price": "$$", "location": {"address1": "8204 Old Redwood Hwy", "address2": "", "address3": null, "city": "Cotati", "zip_code": "94931", "country": "US", "state": "CA", "display_address": ["8204 Old Redwood Hwy", "Cotati, CA 94931"]}, "phone": "+17077534925", "display_phone": "(707) 753-4925", "distance": 528.4514203644871}, {"id": "uPMcN06N9kTjepOIy4HJ0Q", "alias": "wing-man-cotati", "name": "Wing Man", "image_url": "https://s3-media1.fl.yelpcdn.com/bphoto/k1kCNwxQGdoXDmC5DcCZzQ/o.jpg", "is_closed": false, "url": "https://www.yelp.com/biz/wing-man-cotati?adjust_creative=R39z9kjZ-1HrCCc7SW6pcw&utm_campaign=yelp_api_v3&utm_medium=api_v3_business_search&utm_source=R39z9kjZ-1HrCCc7SW6pcw", "review_count": 85, "categories": [{"alias": "foodtrucks", "title": "Food Trucks"}, {"alias": "chicken_wings", "title": "Chicken Wings"}], "rating": 4.5, "coordinates": {"latitude": 38.327087, "longitude": -122.705307}, "transactions": ["delivery", "pickup"], "price": "$$", "location": {"address1": "101 East Cotati Ave", "address2": null, "address3": null, "city": "Cotati", "zip_code": "94931", "country": "US", "state": "CA", "display_address": ["101 East Cotati Ave", "Cotati, CA 94931"]}, "phone": "+17077949464", "display_phone": "(707) 794-9464", "distance": 434.30216566513303}, {"id": "ZftiYbvlbSeuWurSP63jIQ", "alias": "grav-south-brew-cotati-2", "name": "Grav South Brew", "image_url": "https://s3-media3.fl.yelpcdn.com/bphoto/ocFxC-295jmdOH5rmAVhzg/o.jpg", "is_closed": false, "url": "https://www.yelp.com/biz/grav-south-brew-cotati-2?adjust_creative=R39z9kjZ-1HrCCc7SW6pcw&utm_campaign=yelp_api_v3&utm_medium=api_v3_business_search&utm_source=R39z9kjZ-1HrCCc7SW6pcw", "review_count": 126, "categories": [{"alias": "breweries", "title": "Breweries"}, {"alias": "beerbar", "title": "Beer Bar"}, {"alias": "tradamerican", "title": "American (Traditional)"}], "rating": 4.5, "coordinates": {"latitude": 38.332395, "longitude": -122.714007}, "transactions": [], "price": "$$", "location": {"address1": "7950 Redwood Dr", "address2": "Ste 15", "address3": null, "city": "Cotati", "zip_code": "94931", "country": "US", "state": "CA", "display_address": ["7950 Redwood Dr", "Ste 15", "Cotati, CA 94931"]}, "phone": "+17077534198", "display_phone": "(707) 753-4198", "distance": 601.1604334921695}, {"id": "186z_hzo18QwprmLOaIlCA", "alias": "flagship-taproom-cotati", "name": "Flagship Taproom", "image_url": "https://s3-media2.fl.yelpcdn.com/bphoto/KT5kReQuZ-CvIiUDpLM-PQ/o.jpg", "is_closed": false, "url": "https://www.yelp.com/biz/flagship-taproom-cotati?adjust_creative=R39z9kjZ-1HrCCc7SW6pcw&utm_campaign=yelp_api_v3&utm_medium=api_v3_business_search&utm_source=R39z9kjZ-1HrCCc7SW6pcw", "review_count": 83, "categories": [{"alias": "tradamerican", "title": "American (Traditional)"}, {"alias": "bars", "title": "Bars"}, {"alias": "breakfast_brunch", "title": "Breakfast & Brunch"}], "rating": 4.5, "coordinates": {"latitude": 38.32706, "longitude": -122.70773}, "transactions": ["delivery", "pickup"], "price": "$$", "location": {"address1": "8099 La Plz", "address2": "Ste B", "address3": "", "city": "Cotati", "zip_code": "94931", "country": "US", "state": "CA", "display_address": ["8099 La Plz", "Ste B", "Cotati, CA 94931"]}, "phone": "+17076645904", "display_phone": "(707) 664-5904", "distance": 378.9108009808625}, {"id": "7uQvBjaeO-lsgzNVIE2GMw", "alias": "acme-burger-cotati-2", "name": "Acme Burger", "image_url": "https://s3-media1.fl.yelpcdn.com/bphoto/53W6DAYdqZQa7vLadZjksQ/o.jpg", "is_closed": false, "url": "https://www.yelp.com/biz/acme-burger-cotati-2?adjust_creative=R39z9kjZ-1HrCCc7SW6pcw&utm_campaign=yelp_api_v3&utm_medium=api_v3_business_search&utm_source=R39z9kjZ-1HrCCc7SW6pcw", "review_count": 225, "categories": [{"alias": "burgers", "title": "Burgers"}, {"alias": "tradamerican", "title": "American (Traditional)"}, {"alias": "sandwiches", "title": "Sandwiches"}], "rating": 4.0, "coordinates": {"latitude": 38.32809833, "longitude": -122.69776167}, "transactions": ["pickup"], "price": "$$", "location": {"address1": "550 E Cotati Ave", "address2": null, "address3": "", "city": "Cotati", "zip_code": "94931", "country": "US", "state": "CA", "display_address": ["550 E Cotati Ave", "Cotati, CA 94931"]}, "phone": "+17076655620", "display_phone": "(707) 665-5620", "distance": 888.1298090523006}, {"id": "iBRC0D8sn8LW5E8dvfaGEw", "alias": "redwood-cafe-cotati-2", "name": "Redwood Cafe", "image_url": "https://s3-media3.fl.yelpcdn.com/bphoto/fEr4lwh-oPLyA-RskTeHDA/o.jpg", "is_closed": false, "url": "https://www.yelp.com/biz/redwood-cafe-cotati-2?adjust_creative=R39z9kjZ-1HrCCc7SW6pcw&utm_campaign=yelp_api_v3&utm_medium=api_v3_business_search&utm_source=R39z9kjZ-1HrCCc7SW6pcw", "review_count": 470, "categories": [{"alias": "vegetarian", "title": "Vegetarian"}, {"alias": "tradamerican", "title": "American (Traditional)"}, {"alias": "mediterranean", "title": "Mediterranean"}], "rating": 4.0, "coordinates": {"latitude": 38.3257484436035, "longitude": -122.705101013184}, "transactions": ["delivery", "pickup"], "price": "$$", "location": {"address1": "8240 Old Redwood Hwy", "address2": "", "address3": "", "city": "Cotati", "zip_code": "94931", "country": "US", "state": "CA", "display_address": ["8240 Old Redwood Hwy", "Cotati, CA 94931"]}, "phone": "+17077957868", "display_phone": "(707) 795-7868", "distance": 584.1464839169511}, {"id": "O2Jb1VOgE4r8Z7HWrANydg", "alias": "sals-new-yorker-pizzeria-cotati", "name": "Sal's New Yorker Pizzeria", "image_url": "https://s3-media4.fl.yelpcdn.com/bphoto/vkJ6WfGkBW-MptWqJ9v5Bg/o.jpg", "is_closed": false, "url": "https://www.yelp.com/biz/sals-new-yorker-pizzeria-cotati?adjust_creative=R39z9kjZ-1HrCCc7SW6pcw&utm_campaign=yelp_api_v3&utm_medium=api_v3_business_search&utm_source=R39z9kjZ-1HrCCc7SW6pcw", "review_count": 244, "categories": [{"alias": "pizza", "title": "Pizza"}, {"alias": "italian", "title": "Italian"}], "rating": 4.5, "coordinates": {"latitude": 38.3245999, "longitude": -122.70424}, "transactions": [], "price": "$$", "location": {"address1": "8270 Old Redwood Hwy", "address2": null, "address3": "", "city": "Cotati", "zip_code": "94931", "country": "US", "state": "CA", "display_address": ["8270 Old Redwood Hwy", "Cotati, CA 94931"]}, "phone": "+17076648460", "display_phone": "(707) 664-8460", "distance": 729.3782983070989}, {"id": "XRnceu7ViCc9t6zRb_H2KQ", "alias": "cape-cod-fish-n-chips-cotati", "name": "Cape Cod Fish N' Chips", "image_url": "https://s3-media3.fl.yelpcdn.com/bphoto/TGpHuCkNtLVzJD6Hs6e-Lg/o.jpg", "is_closed": false, "url": "https://www.yelp.com/biz/cape-cod-fish-n-chips-cotati?adjust_creative=R39z9kjZ-1HrCCc7SW6pcw&utm_campaign=yelp_api_v3&utm_medium=api_v3_business_search&utm_source=R39z9kjZ-1HrCCc7SW6pcw", "review_count": 224, "categories": [{"alias": "seafood", "title": "Seafood"}, {"alias": "fishnchips", "title": "Fish & Chips"}], "rating": 4.0, "coordinates": {"latitude": 38.333897, "longitude": -122.712396}, "transactions": [], "price": "$$", "location": {"address1": "7530 Commerce Blvd", "address2": "Ste C", "address3": "", "city": "Cotati", "zip_code": "94931", "country": "US", "state": "CA", "display_address": ["7530 Commerce Blvd", "Ste C", "Cotati, CA 94931"]}, "phone": "+17077920982", "display_phone": "(707) 792-0982", "distance": 561.9146488589167}, {"id": "BMroJHu9WmkvphrCuhCUIQ", "alias": "tiny-thai-cotati", "name": "Tiny Thai", "image_url": "https://s3-media2.fl.yelpcdn.com/bphoto/eGopyqTVqkWXzgeHGlyAqA/o.jpg", "is_closed": false, "url": "https://www.yelp.com/biz/tiny-thai-cotati?adjust_creative=R39z9kjZ-1HrCCc7SW6pcw&utm_campaign=yelp_api_v3&utm_medium=api_v3_business_search&utm_source=R39z9kjZ-1HrCCc7SW6pcw", "review_count": 251, "categories": [{"alias": "thai", "title": "Thai"}], "rating": 4.0, "coordinates": {"latitude": 38.3255909, "longitude": -122.7052401}, "transactions": [], "price": "$$", "location": {"address1": "8238 Old Redwood Hwy", "address2": "", "address3": "", "city": "Cotati", "zip_code": "94931", "country": "US", "state": "CA", "display_address": ["8238 Old Redwood Hwy", "Cotati, CA 94931"]}, "phone": "+17077949404", "display_phone": "(707) 794-9404", "distance": 580.4479721139076}, {"id": "Um43vrVFwEGo7F1Gc3Y1hQ", "alias": "china-village-cotati", "name": "China Village", "image_url": "https://s3-media2.fl.yelpcdn.com/bphoto/Ri3XnMU3wH5Nfv-u1Tdbpg/o.jpg", "is_closed": false, "url": "https://www.yelp.com/biz/china-village-cotati?adjust_creative=R39z9kjZ-1HrCCc7SW6pcw&utm_campaign=yelp_api_v3&utm_medium=api_v3_business_search&utm_source=R39z9kjZ-1HrCCc7SW6pcw", "review_count": 200, "categories": [{"alias": "chinese", "title": "Chinese"}], "rating": 4.0, "coordinates": {"latitude": 38.3319, "longitude": -122.71548}, "transactions": ["pickup"], "price": "$$", "location": {"address1": "8501 Gravenstein Hwy", "address2": null, "address3": "", "city": "Cotati", "zip_code": "94931", "country": "US", "state": "CA", "display_address": ["8501 Gravenstein Hwy", "Cotati, CA 94931"]}, "phone": "+17077958810", "display_phone": "(707) 795-8810", "distance": 701.3589556881219}, {"id": "hSimZzA2H382xoqisaOCvQ", "alias": "saigon-cafe-cotati-2", "name": "Saigon Cafe", "image_url": "https://s3-media1.fl.yelpcdn.com/bphoto/AjAtvgSMKlM__bGcYoUs6w/o.jpg", "is_closed": false, "url": "https://www.yelp.com/biz/saigon-cafe-cotati-2?adjust_creative=R39z9kjZ-1HrCCc7SW6pcw&utm_campaign=yelp_api_v3&utm_medium=api_v3_business_search&utm_source=R39z9kjZ-1HrCCc7SW6pcw", "review_count": 10, "categories": [{"alias": "vietnamese", "title": "Vietnamese"}], "rating": 4.5, "coordinates": {"latitude": 38.328097, "longitude": -122.697972}, "transactions": [], "location": {"address1": "548  E Cotati Ave", "address2": "", "address3": null, "city": "Cotati", "zip_code": "94931", "country": "US", "state": "CA", "display_address": ["548  E Cotati Ave", "Cotati, CA 94931"]}, "phone": "+17076645925", "display_phone": "(707) 664-5925", "distance": 876.9389060016657}, {"id": "tMhK2sN1_2ywH8CfSgTfXw", "alias": "spring-thai-cotati", "name": "Spring Thai", "image_url": "https://s3-media4.fl.yelpcdn.com/bphoto/GMMr32Rmrx932FOjgKe2_g/o.jpg", "is_closed": false, "url": "https://www.yelp.com/biz/spring-thai-cotati?adjust_creative=R39z9kjZ-1HrCCc7SW6pcw&utm_campaign=yelp_api_v3&utm_medium=api_v3_business_search&utm_source=R39z9kjZ-1HrCCc7SW6pcw", "review_count": 177, "categories": [{"alias": "thai", "title": "Thai"}, {"alias": "asianfusion", "title": "Asian Fusion"}], "rating": 4.0, "coordinates": {"latitude": 38.3278185540848, "longitude": -122.698554809693}, "transactions": [], "price": "$$", "location": {"address1": "538 E Cotati Ave", "address2": "", "address3": null, "city": "Cotati", "zip_code": "94931", "country": "US", "state": "CA", "display_address": ["538 E Cotati Ave", "Cotati, CA 94931"]}, "phone": "+17076655180", "display_phone": "(707) 665-5180", "distance": 839.8687571100239}, {"id": "5UgdrIrJWfac9REkniCyHg", "alias": "mai-vietnamese-cuisine-cotati", "name": "Mai Vietnamese Cuisine", "image_url": "https://s3-media3.fl.yelpcdn.com/bphoto/yllQi3ki7MIF-Apw9EJ5rA/o.jpg", "is_closed": false, "url": "https://www.yelp.com/biz/mai-vietnamese-cuisine-cotati?adjust_creative=R39z9kjZ-1HrCCc7SW6pcw&utm_campaign=yelp_api_v3&utm_medium=api_v3_business_search&utm_source=R39z9kjZ-1HrCCc7SW6pcw", "review_count": 354, "categories": [{"alias": "vietnamese", "title": "Vietnamese"}], "rating": 4.0, "coordinates": {"latitude": 38.331109, "longitude": -122.716399}, "transactions": [], "price": "$$", "location": {"address1": "8492 Gravenstein Hwy", "address2": "", "address3": "", "city": "Cotati", "zip_code": "94931", "country": "US", "state": "CA", "display_address": ["8492 Gravenstein Hwy", "Cotati, CA 94931"]}, "phone": "+17076659628", "display_phone": "(707) 665-9628", "distance": 778.1469599708696}, {"id": "Hpy_0KKwiKrXLnkq_DyxoA", "alias": "cafe-salsa-cotati", "name": "Cafe Salsa", "image_url": "https://s3-media2.fl.yelpcdn.com/bphoto/1LXgs3alhWsBkueZeR-oSw/o.jpg", "is_closed": false, "url": "https://www.yelp.com/biz/cafe-salsa-cotati?adjust_creative=R39z9kjZ-1HrCCc7SW6pcw&utm_campaign=yelp_api_v3&utm_medium=api_v3_business_search&utm_source=R39z9kjZ-1HrCCc7SW6pcw", "review_count": 154, "categories": [{"alias": "mexican", "title": "Mexican"}, {"alias": "tradamerican", "title": "American (Traditional)"}], "rating": 4.5, "coordinates": {"latitude": 38.32582, "longitude": -122.70522}, "transactions": ["delivery", "pickup"], "price": "$$", "location": {"address1": "8230 Old Redwood Hwy", "address2": "", "address3": "", "city": "Cotati", "zip_code": "94931", "country": "US", "state": "CA", "display_address": ["8230 Old Redwood Hwy", "Cotati, CA 94931"]}, "phone": "+17077957068", "display_phone": "(707) 795-7068", "distance": 566.1191915522971}, {"id": "XBxXpcgm-SgaROS7tWpNIw", "alias": "amys-chinese-kitchen-cotati", "name": "Amy's Chinese Kitchen", "image_url": "https://s3-media1.fl.yelpcdn.com/bphoto/bXFtXzlAZP9ZUnVyd-KoCg/o.jpg", "is_closed": false, "url": "https://www.yelp.com/biz/amys-chinese-kitchen-cotati?adjust_creative=R39z9kjZ-1HrCCc7SW6pcw&utm_campaign=yelp_api_v3&utm_medium=api_v3_business_search&utm_source=R39z9kjZ-1HrCCc7SW6pcw", "review_count": 146, "categories": [{"alias": "chinese", "title": "Chinese"}, {"alias": "asianfusion", "title": "Asian Fusion"}], "rating": 4.0, "coordinates": {"latitude": 38.3312318, "longitude": -122.7114461}, "transactions": ["pickup"], "price": "$$", "location": {"address1": "8577 Gravenstein Hwy", "address2": "", "address3": "", "city": "Cotati", "zip_code": "94931", "country": "US", "state": "CA", "display_address": ["8577 Gravenstein Hwy", "Cotati, CA 94931"]}, "phone": "+17077949828", "display_phone": "(707) 794-9828", "distance": 391.5047832217723}, {"id": "p3u6HdtETW1E6QN6x9B_7A", "alias": "cotijas-restaurant-cotati-2", "name": "Cotija's Restaurant", "image_url": "https://s3-media2.fl.yelpcdn.com/bphoto/PogYCcNWsprB9-1SdkG_Lg/o.jpg", "is_closed": false, "url": "https://www.yelp.com/biz/cotijas-restaurant-cotati-2?adjust_creative=R39z9kjZ-1HrCCc7SW6pcw&utm_campaign=yelp_api_v3&utm_medium=api_v3_business_search&utm_source=R39z9kjZ-1HrCCc7SW6pcw", "review_count": 57, "categories": [{"alias": "mexican", "title": "Mexican"}], "rating": 4.0, "coordinates": {"latitude": 38.3284914630242, "longitude": -122.708953209221}, "transactions": [], "price": "$", "location": {"address1": "7981 Old Redwood Hwy", "address2": "Ste D", "address3": "", "city": "Cotati", "zip_code": "94931", "country": "US", "state": "CA", "display_address": ["7981 Old Redwood Hwy", "Ste D", "Cotati, CA 94931"]}, "phone": "+17072423370", "display_phone": "(707) 242-3370", "distance": 267.7049549985458}, {"id": "s7ZbA_OSdq8IkGhWEpoEWw", "alias": "superburger-cotati", "name": "Superburger", "image_url": "https://s3-media2.fl.yelpcdn.com/bphoto/ngAl0ZhXM8Mz0lK92122-A/o.jpg", "is_closed": false, "url": "https://www.yelp.com/biz/superburger-cotati?adjust_creative=R39z9kjZ-1HrCCc7SW6pcw&utm_campaign=yelp_api_v3&utm_medium=api_v3_business_search&utm_source=R39z9kjZ-1HrCCc7SW6pcw", "review_count": 222, "categories": [{"alias": "tradamerican", "title": "American (Traditional)"}, {"alias": "burgers", "title": "Burgers"}, {"alias": "sandwiches", "title": "Sandwiches"}], "rating": 3.5, "coordinates": {"latitude": 38.325469, "longitude": -122.705047}, "transactions": [], "price": "$$", "location": {"address1": "8252 Old Redwood Hwy", "address2": "", "address3": "", "city": "Cotati", "zip_code": "94931", "country": "US", "state": "CA", "display_address": ["8252 Old Redwood Hwy", "Cotati, CA 94931"]}, "phone": "+17076659790", "display_phone": "(707) 665-9790", "distance": 610.6279127444933}, {"id": "SSnG1B__2aGzRNvJEh09nw", "alias": "jaded-toad-bbq-and-grill-cotati-cotati", "name": "Jaded Toad BBQ & Grill - Cotati", "image_url": "https://s3-media4.fl.yelpcdn.com/bphoto/O3yVuwZRLPuonlE1lQwHeQ/o.jpg", "is_closed": false, "url": "https://www.yelp.com/biz/jaded-toad-bbq-and-grill-cotati-cotati?adjust_creative=R39z9kjZ-1HrCCc7SW6pcw&utm_campaign=yelp_api_v3&utm_medium=api_v3_business_search&utm_source=R39z9kjZ-1HrCCc7SW6pcw", "review_count": 353, "categories": [{"alias": "bbq", "title": "Barbeque"}, {"alias": "beergardens", "title": "Beer Gardens"}, {"alias": "newamerican", "title": "American (New)"}], "rating": 3.0, "coordinates": {"latitude": 38.3285399, "longitude": -122.6992553}, "transactions": [], "price": "$$", "location": {"address1": "500 E Cotati Ave", "address2": "", "address3": "", "city": "Cotati", "zip_code": "94931", "country": "US", "state": "CA", "display_address": ["500 E Cotati Ave", "Cotati, CA 94931"]}, "phone": "+17072423383", "display_phone": "(707) 242-3383", "distance": 765.1407671398792}, {"id": "9FiICPgMTBFOXrX8a2eeuw", "alias": "marvins-restaurant-cotati", "name": "Marvin's Restaurant", "image_url": "https://s3-media3.fl.yelpcdn.com/bphoto/GRghghvNbcZHvfSod1FGag/o.jpg", "is_closed": false, "url": "https://www.yelp.com/biz/marvins-restaurant-cotati?adjust_creative=R39z9kjZ-1HrCCc7SW6pcw&utm_campaign=yelp_api_v3&utm_medium=api_v3_business_search&utm_source=R39z9kjZ-1HrCCc7SW6pcw", "review_count": 162, "categories": [{"alias": "bakeries", "title": "Bakeries"}, {"alias": "tradamerican", "title": "American (Traditional)"}], "rating": 4.0, "coordinates": {"latitude": 38.3284798, "longitude": -122.7082768}, "transactions": [], "price": "$$", "location": {"address1": "7991 Old Redwood Hwy", "address2": "", "address3": "", "city": "Cotati", "zip_code": "94931", "country": "US", "state": "CA", "display_address": ["7991 Old Redwood Hwy", "Cotati, CA 94931"]}, "phone": "+17076641720", "display_phone": "(707) 664-1720", "distance": 265.2712245571644}, {"id": "FWJ-TkfpAy07v7UF-z85UA", "alias": "mi-ranchito-cotati", "name": "Mi Ranchito", "image_url": "https://s3-media3.fl.yelpcdn.com/bphoto/gt6a1bInRbMg9Qeij-pG6A/o.jpg", "is_closed": false, "url": "https://www.yelp.com/biz/mi-ranchito-cotati?adjust_creative=R39z9kjZ-1HrCCc7SW6pcw&utm_campaign=yelp_api_v3&utm_medium=api_v3_business_search&utm_source=R39z9kjZ-1HrCCc7SW6pcw", "review_count": 317, "categories": [{"alias": "mexican", "title": "Mexican"}], "rating": 3.5, "coordinates": {"latitude": 38.33293, "longitude": -122.71084}, "transactions": [], "price": "$$", "location": {"address1": "7600 Commerce Blvd", "address2": "", "address3": "", "city": "Cotati", "zip_code": "94931", "country": "US", "state": "CA", "display_address": ["7600 Commerce Blvd", "Cotati, CA 94931"]}, "phone": "+17077957600", "display_phone": "(707) 795-7600", "distance": 427.92319564236107}, {"id": "nLOb71LZzdGLdKR0478O_g", "alias": "mikes-at-the-crossroads-cotati", "name": "Mike's at the Crossroads", "image_url": "https://s3-media2.fl.yelpcdn.com/bphoto/Ew1X3buWK_GRAUCMxHybaQ/o.jpg", "is_closed": false, "url": "https://www.yelp.com/biz/mikes-at-the-crossroads-cotati?adjust_creative=R39z9kjZ-1HrCCc7SW6pcw&utm_campaign=yelp_api_v3&utm_medium=api_v3_business_search&utm_source=R39z9kjZ-1HrCCc7SW6pcw", "review_count": 313, "categories": [{"alias": "tradamerican", "title": "American (Traditional)"}, {"alias": "burgers", "title": "Burgers"}], "rating": 3.5, "coordinates": {"latitude": 38.3316078186035, "longitude": -122.711784362793}, "transactions": [], "price": "$$", "location": {"address1": "7665 Old Redwood Hwy", "address2": "", "address3": "", "city": "Cotati", "zip_code": "94931", "country": "US", "state": "CA", "display_address": ["7665 Old Redwood Hwy", "Cotati, CA 94931"]}, "phone": "+17076659999", "display_phone": "(707) 665-9999", "distance": 376.4960051947398}, {"id": "PVWM3z4CdX78JYj3LizcyA", "alias": "lynns-thai-restaurant-cotati", "name": "Lynn's Thai Restaurant", "image_url": "https://s3-media1.fl.yelpcdn.com/bphoto/33N9o4NairJXossqSrRVUg/o.jpg", "is_closed": false, "url": "https://www.yelp.com/biz/lynns-thai-restaurant-cotati?adjust_creative=R39z9kjZ-1HrCCc7SW6pcw&utm_campaign=yelp_api_v3&utm_medium=api_v3_business_search&utm_source=R39z9kjZ-1HrCCc7SW6pcw", "review_count": 163, "categories": [{"alias": "thai", "title": "Thai"}], "rating": 4.0, "coordinates": {"latitude": 38.3311806241767, "longitude": -122.71640735582}, "transactions": ["delivery", "pickup"], "price": "$$", "location": {"address1": "8492 Gravenstein Hwy", "address2": "Ste M", "address3": "", "city": "Cotati", "zip_code": "94931", "country": "US", "state": "CA", "display_address": ["8492 Gravenstein Hwy", "Ste M", "Cotati, CA 94931"]}, "phone": "+17077939300", "display_phone": "(707) 793-9300", "distance": 779.4789445826231}, {"id": "TZIhdfTfNVABM8qtIbexvA", "alias": "china-chef-cotati", "name": "China Chef", "image_url": "https://s3-media3.fl.yelpcdn.com/bphoto/Jb9jOhI-qm4wou1fFLxObA/o.jpg", "is_closed": false, "url": "https://www.yelp.com/biz/china-chef-cotati?adjust_creative=R39z9kjZ-1HrCCc7SW6pcw&utm_campaign=yelp_api_v3&utm_medium=api_v3_business_search&utm_source=R39z9kjZ-1HrCCc7SW6pcw", "review_count": 188, "categories": [{"alias": "chinese", "title": "Chinese"}, {"alias": "seafood", "title": "Seafood"}, {"alias": "noodles", "title": "Noodles"}], "rating": 3.0, "coordinates": {"latitude": 38.3284798, "longitude": -122.7082768}, "transactions": ["delivery", "pickup"], "price": "$$", "location": {"address1": "7991 Old Redwood Hwy", "address2": "Ste 2B", "address3": "", "city": "Cotati", "zip_code": "94931", "country": "US", "state": "CA", "display_address": ["7991 Old Redwood Hwy", "Ste 2B", "Cotati, CA 94931"]}, "phone": "+17076641088", "display_phone": "(707) 664-1088", "distance": 265.2712245571644}, {"id": "Ju-JGwaUnyXk16A8ZzCR8Q", "alias": "lilajays-baked-goods-cotati", "name": "Lilajay's Baked Goods", "image_url": "https://s3-media2.fl.yelpcdn.com/bphoto/7WecXfQsQMBTepQSUb-IBg/o.jpg", "is_closed": false, "url": "https://www.yelp.com/biz/lilajays-baked-goods-cotati?adjust_creative=R39z9kjZ-1HrCCc7SW6pcw&utm_campaign=yelp_api_v3&utm_medium=api_v3_business_search&utm_source=R39z9kjZ-1HrCCc7SW6pcw", "review_count": 10, "categories": [{"alias": "gluten_free", "title": "Gluten-Free"}, {"alias": "bakeries", "title": "Bakeries"}], "rating": 5.0, "coordinates": {"latitude": 38.3284, "longitude": -122.70563}, "transactions": [], "price": "$$", "location": {"address1": "", "address2": "", "address3": "", "city": "Cotati", "zip_code": "94931", "country": "US", "state": "CA", "display_address": ["Cotati, CA 94931"]}, "phone": "+17072415023", "display_phone": "(707) 241-5023", "distance": 235.9267173320506}, {"id": "xPc1g2HJmAcemEeZlqqg_w", "alias": "mi-pueblo-cotati", "name": "Mi Pueblo", "image_url": "https://s3-media1.fl.yelpcdn.com/bphoto/0rPjZDjzj-xZNTwPGAq8Cw/o.jpg", "is_closed": false, "url": "https://www.yelp.com/biz/mi-pueblo-cotati?adjust_creative=R39z9kjZ-1HrCCc7SW6pcw&utm_campaign=yelp_api_v3&utm_medium=api_v3_business_search&utm_source=R39z9kjZ-1HrCCc7SW6pcw", "review_count": 198, "categories": [{"alias": "mexican", "title": "Mexican"}, {"alias": "seafood", "title": "Seafood"}, {"alias": "steak", "title": "Steakhouses"}], "rating": 3.5, "coordinates": {"latitude": 38.3348632748173, "longitude": -122.712258598879}, "transactions": [], "price": "$$", "location": {"address1": "7384 Commerce Blvd", "address2": "", "address3": "", "city": "Cotati", "zip_code": "94928", "country": "US", "state": "CA", "display_address": ["7384 Commerce Blvd", "Cotati, CA 94928"]}, "phone": "+17077924380", "display_phone": "(707) 792-4380", "distance": 629.0372506715896}, {"id": "htFKAU3x9AswK1gZjxY3ag", "alias": "fu-zhou-chinese-restaurant-cotati", "name": "Fu Zhou Chinese Restaurant", "image_url": "https://s3-media1.fl.yelpcdn.com/bphoto/NHcJk1sFTafJbeYD1RCJvA/o.jpg", "is_closed": false, "url": "https://www.yelp.com/biz/fu-zhou-chinese-restaurant-cotati?adjust_creative=R39z9kjZ-1HrCCc7SW6pcw&utm_campaign=yelp_api_v3&utm_medium=api_v3_business_search&utm_source=R39z9kjZ-1HrCCc7SW6pcw", "review_count": 109, "categories": [{"alias": "chinese", "title": "Chinese"}], "rating": 3.0, "coordinates": {"latitude": 38.3288048, "longitude": -122.6986151}, "transactions": [], "price": "$", "location": {"address1": "572 E Cotati Ave", "address2": "", "address3": "", "city": "Cotati", "zip_code": "94931", "country": "US", "state": "CA", "display_address": ["572 E Cotati Ave", "Cotati, CA 94931"]}, "phone": "+17077957680", "display_phone": "(707) 795-7680", "distance": 918.8105388490933}, {"id": "uVDThs7fwXr_hGSEWoNkTw", "alias": "taco-loco-rohnert-park", "name": "Taco Loco", "image_url": "https://s3-media1.fl.yelpcdn.com/bphoto/hH9x6S8jx778GE7OgL2sWw/o.jpg", "is_closed": false, "url": "https://www.yelp.com/biz/taco-loco-rohnert-park?adjust_creative=R39z9kjZ-1HrCCc7SW6pcw&utm_campaign=yelp_api_v3&utm_medium=api_v3_business_search&utm_source=R39z9kjZ-1HrCCc7SW6pcw", "review_count": 1, "categories": [{"alias": "mexican", "title": "Mexican"}], "rating": 5.0, "coordinates": {"latitude": 38.335211, "longitude": -122.706616}, "transactions": [], "location": {"address1": "217 Sw Blvd", "address2": "", "address3": "", "city": "Rohnert Park", "zip_code": "94928", "country": "US", "state": "CA", "display_address": ["217 Sw Blvd", "Rohnert Park, CA 94928"]}, "phone": "", "display_phone": "", "distance": 517.150496343468}, {"id": "pNYbWUueDxWNkWwRLMLeFg", "alias": "mocha-madness-rohnert-park-3", "name": "Mocha Madness", "image_url": "https://s3-media2.fl.yelpcdn.com/bphoto/rqULYPYkJo_Hr387HpDWIg/o.jpg", "is_closed": false, "url": "https://www.yelp.com/biz/mocha-madness-rohnert-park-3?adjust_creative=R39z9kjZ-1HrCCc7SW6pcw&utm_campaign=yelp_api_v3&utm_medium=api_v3_business_search&utm_source=R39z9kjZ-1HrCCc7SW6pcw", "review_count": 74, "categories": [{"alias": "coffee", "title": "Coffee & Tea"}, {"alias": "breakfast_brunch", "title": "Breakfast & Brunch"}], "rating": 4.5, "coordinates": {"latitude": 38.3359887987, "longitude": -122.705940753}, "transactions": [], "price": "$", "location": {"address1": "355 Southwest Blvd", "address2": "", "address3": "", "city": "Rohnert Park", "zip_code": "94928", "country": "US", "state": "CA", "display_address": ["355 Southwest Blvd", "Rohnert Park, CA 94928"]}, "phone": "+17076648688", "display_phone": "(707) 664-8688", "distance": 613.1342151102942}, {"id": "TajlBDAQDdoxADddid3G_g", "alias": "tubbys-restaurant-rohnert-park", "name": "Tubby's Restaurant", "image_url": "https://s3-media2.fl.yelpcdn.com/bphoto/2w5b2Ro2-CRBpG0TPzhLgg/o.jpg", "is_closed": false, "url": "https://www.yelp.com/biz/tubbys-restaurant-rohnert-park?adjust_creative=R39z9kjZ-1HrCCc7SW6pcw&utm_campaign=yelp_api_v3&utm_medium=api_v3_business_search&utm_source=R39z9kjZ-1HrCCc7SW6pcw", "review_count": 49, "categories": [{"alias": "tradamerican", "title": "American (Traditional)"}, {"alias": "breakfast_brunch", "title": "Breakfast & Brunch"}], "rating": 3.5, "coordinates": {"latitude": 38.3358897094282, "longitude": -122.706952777885}, "transactions": [], "price": "$$", "location": {"address1": "199 Southwest Blvd", "address2": "", "address3": "", "city": "Rohnert Park", "zip_code": "94928", "country": "US", "state": "CA", "display_address": ["199 Southwest Blvd", "Rohnert Park, CA 94928"]}, "phone": "+17077921232", "display_phone": "(707) 792-1232", "distance": 588.7741594970953}, {"id": "DYD0shFoUy8z91yPMaer_w", "alias": "taqueria-el-paisa-rohnert-park", "name": "Taqueria El Paisa", "image_url": "https://s3-media4.fl.yelpcdn.com/bphoto/DZZsQBZ9T1BmGm_ZyG7JZw/o.jpg", "is_closed": false, "url": "https://www.yelp.com/biz/taqueria-el-paisa-rohnert-park?adjust_creative=R39z9kjZ-1HrCCc7SW6pcw&utm_campaign=yelp_api_v3&utm_medium=api_v3_business_search&utm_source=R39z9kjZ-1HrCCc7SW6pcw", "review_count": 38, "categories": [{"alias": "mexican", "title": "Mexican"}, {"alias": "latin", "title": "Latin American"}, {"alias": "seafood", "title": "Seafood"}], "rating": 3.5, "coordinates": {"latitude": 38.3356762077131, "longitude": -122.708656373367}, "transactions": [], "price": "$", "location": {"address1": "157 Sw Blvd", "address2": "", "address3": "", "city": "Rohnert Park", "zip_code": "94928", "country": "US", "state": "CA", "display_address": ["157 Sw Blvd", "Rohnert Park, CA 94928"]}, "phone": "+17079920345", "display_phone": "(707) 992-0345", "distance": 572.0477683480607}, {"id": "ANKy5Zhh4O6EhkpvN7kRhQ", "alias": "johnnys-java-cotati", "name": "Johnny's Java", "image_url": "https://s3-media3.fl.yelpcdn.com/bphoto/WpSX1ztFquku3T-kOEInOA/o.jpg", "is_closed": false, "url": "https://www.yelp.com/biz/johnnys-java-cotati?adjust_creative=R39z9kjZ-1HrCCc7SW6pcw&utm_campaign=yelp_api_v3&utm_medium=api_v3_business_search&utm_source=R39z9kjZ-1HrCCc7SW6pcw", "review_count": 53, "categories": [{"alias": "coffee", "title": "Coffee & Tea"}, {"alias": "breakfast_brunch", "title": "Breakfast & Brunch"}, {"alias": "internetcafe", "title": "Internet Cafes"}], "rating": 3.0, "coordinates": {"latitude": 38.330926, "longitude": -122.715972}, "transactions": [], "price": "$", "location": {"address1": "8492 Gravenstein Hwy", "address2": "Ste A", "address3": "", "city": "Cotati", "zip_code": "94931", "country": "US", "state": "CA", "display_address": ["8492 Gravenstein Hwy", "Ste A", "Cotati, CA 94931"]}, "phone": "+17077940168", "display_phone": "(707) 794-0168", "distance": 739.7624497889066}, {"id": "g14PDUb_YPI19Z4PeVGqMg", "alias": "papa-murphys-cotati-2", "name": "Papa Murphy's", "image_url": "https://s3-media2.fl.yelpcdn.com/bphoto/yY-9jTL50FYx_bsEpGwDWw/o.jpg", "is_closed": false, "url": "https://www.yelp.com/biz/papa-murphys-cotati-2?adjust_creative=R39z9kjZ-1HrCCc7SW6pcw&utm_campaign=yelp_api_v3&utm_medium=api_v3_business_search&utm_source=R39z9kjZ-1HrCCc7SW6pcw", "review_count": 59, "categories": [{"alias": "pizza", "title": "Pizza"}], "rating": 3.0, "coordinates": {"latitude": 38.3280665, "longitude": -122.7078985}, "transactions": [], "price": "$", "location": {"address1": "8005 Old Redwood Hwy.", "address2": "", "address3": "", "city": "Cotati", "zip_code": "94931", "country": "US", "state": "CA", "display_address": ["8005 Old Redwood Hwy.", "Cotati, CA 94931"]}, "phone": "+17076648888", "display_phone": "(707) 664-8888", "distance": 293.74558504070495}, {"id": "jNdUkgVhz2In43Nw0t8e2Q", "alias": "cotijas-restutant-cotati", "name": "Cotijas Restutant", "image_url": "https://s3-media3.fl.yelpcdn.com/bphoto/lFy_yBr8MZD0yxIDp9etag/o.jpg", "is_closed": false, "url": "https://www.yelp.com/biz/cotijas-restutant-cotati?adjust_creative=R39z9kjZ-1HrCCc7SW6pcw&utm_campaign=yelp_api_v3&utm_medium=api_v3_business_search&utm_source=R39z9kjZ-1HrCCc7SW6pcw", "review_count": 2, "categories": [{"alias": "newmexican", "title": "New Mexican Cuisine"}], "rating": 3.0, "coordinates": {"latitude": 38.32841, "longitude": -122.70874}, "transactions": [], "location": {"address1": "7981 Old Redwood Hwy", "address2": "", "address3": null, "city": "Cotati", "zip_code": "94931", "country": "US", "state": "CA", "display_address": ["7981 Old Redwood Hwy", "Cotati, CA 94931"]}, "phone": "+17072423370", "display_phone": "(707) 242-3370", "distance": 270.7812582047846}, {"id": "qnNilkaM5AYrZUamiJLxXw", "alias": "el-roys-mexican-grill-food-truck-petaluma", "name": "El Roy's Mexican Grill Food Truck", "image_url": "https://s3-media1.fl.yelpcdn.com/bphoto/L9jAgQYDlrkr7bizfCMylw/o.jpg", "is_closed": false, "url": "https://www.yelp.com/biz/el-roys-mexican-grill-food-truck-petaluma?adjust_creative=R39z9kjZ-1HrCCc7SW6pcw&utm_campaign=yelp_api_v3&utm_medium=api_v3_business_search&utm_source=R39z9kjZ-1HrCCc7SW6pcw", "review_count": 279, "categories": [{"alias": "mexican", "title": "Mexican"}, {"alias": "foodtrucks", "title": "Food Trucks"}], "rating": 4.5, "coordinates": {"latitude": 38.2397441466801, "longitude": -122.633983174041}, "transactions": [], "price": "$", "location": {"address1": "401 E Washington St", "address2": "", "address3": "", "city": "Petaluma", "zip_code": "94952", "country": "US", "state": "CA", "display_address": ["401 E Washington St", "Petaluma, CA 94952"]}, "phone": "+17072416534", "display_phone": "(707) 241-6534", "distance": 11969.34902831405}, {"id": "4lMLs9yydBAsvNT2oiCBSQ", "alias": "papa-johns-pizza-cotati", "name": "Papa John's Pizza", "image_url": "https://s3-media4.fl.yelpcdn.com/bphoto/6sXPN34F3obaRz2ys0pLKg/o.jpg", "is_closed": false, "url": "https://www.yelp.com/biz/papa-johns-pizza-cotati?adjust_creative=R39z9kjZ-1HrCCc7SW6pcw&utm_campaign=yelp_api_v3&utm_medium=api_v3_business_search&utm_source=R39z9kjZ-1HrCCc7SW6pcw", "review_count": 5, "categories": [{"alias": "pizza", "title": "Pizza"}], "rating": 3.0, "coordinates": {"latitude": 38.328834, "longitude": -122.698044}, "transactions": [], "location": {"address1": "590 E Cotati Ave", "address2": "", "address3": null, "city": "Cotati", "zip_code": "94931", "country": "US", "state": "CA", "display_address": ["590 E Cotati Ave", "Cotati, CA 94931"]}, "phone": "+17077557272", "display_phone": "(707) 755-7272", "distance": 848.2282938636636}, {"id": "hYH7W4NES6pS-O2YgAQMPw", "alias": "burger-king-cotati", "name": "Burger King", "image_url": "https://s3-media4.fl.yelpcdn.com/bphoto/DnEI74UVAV3aWp0GI-ljDA/o.jpg", "is_closed": false, "url": "https://www.yelp.com/biz/burger-king-cotati?adjust_creative=R39z9kjZ-1HrCCc7SW6pcw&utm_campaign=yelp_api_v3&utm_medium=api_v3_business_search&utm_source=R39z9kjZ-1HrCCc7SW6pcw", "review_count": 10, "categories": [{"alias": "burgers", "title": "Burgers"}, {"alias": "hotdogs", "title": "Fast Food"}], "rating": 2.0, "coordinates": {"latitude": 38.331018, "longitude": -122.714647}, "transactions": [], "price": "$", "location": {"address1": "8510 Gravenstein Hwy", "address2": "", "address3": "", "city": "Cotati", "zip_code": "94931", "country": "US", "state": "CA", "display_address": ["8510 Gravenstein Hwy", "Cotati, CA 94931"]}, "phone": "+17076648273", "display_phone": "(707) 664-8273", "distance": 624.9952264733058}, {"id": "UCWi0VaL-Yxvd7MWa9B8QA", "alias": "subway-restaurants-cotati-2", "name": "Subway Restaurants", "image_url": "https://s3-media2.fl.yelpcdn.com/bphoto/EY_o1PfhOqNdaCyzoK4-PA/o.jpg", "is_closed": false, "url": "https://www.yelp.com/biz/subway-restaurants-cotati-2?adjust_creative=R39z9kjZ-1HrCCc7SW6pcw&utm_campaign=yelp_api_v3&utm_medium=api_v3_business_search&utm_source=R39z9kjZ-1HrCCc7SW6pcw", "review_count": 13, "categories": [{"alias": "sandwiches", "title": "Sandwiches"}], "rating": 2.5, "coordinates": {"latitude": 38.331367, "longitude": -122.715524}, "transactions": [], "price": "$", "location": {"address1": "8500 Gravenstein Highway", "address2": "Unit B", "address3": "", "city": "Cotati", "zip_code": "94931", "country": "US", "state": "CA", "display_address": ["8500 Gravenstein Highway", "Unit B", "Cotati, CA 94931"]}, "phone": "+17076648422", "display_phone": "(707) 664-8422", "distance": 704.8744185102764}, {"id": "TxPq7vI9Fnno6AV52bi8Zw", "alias": "subway-restaurants-cotati", "name": "Subway Restaurants", "image_url": "https://s3-media4.fl.yelpcdn.com/bphoto/IryGap6WyBGHUbvZx5iGfw/o.jpg", "is_closed": false, "url": "https://www.yelp.com/biz/subway-restaurants-cotati?adjust_creative=R39z9kjZ-1HrCCc7SW6pcw&utm_campaign=yelp_api_v3&utm_medium=api_v3_business_search&utm_source=R39z9kjZ-1HrCCc7SW6pcw", "review_count": 16, "categories": [{"alias": "sandwiches", "title": "Sandwiches"}], "rating": 2.5, "coordinates": {"latitude": 38.329004, "longitude": -122.697503}, "transactions": [], "price": "$", "location": {"address1": "640 East Cotati Ave", "address2": "Ste 3", "address3": "", "city": "Cotati", "zip_code": "94931", "country": "US", "state": "CA", "display_address": ["640 East Cotati Ave", "Ste 3", "Cotati, CA 94931"]}, "phone": "+17076649306", "display_phone": "(707) 664-9306", "distance": 899.7061330293687}, {"id": "xg0QxzSY8P1H3GV2EWiK_g", "alias": "napa-valley-crust-st-helena", "name": "Napa Valley Crust", "image_url": "https://s3-media4.fl.yelpcdn.com/bphoto/_Oa2t_ccNnwdVXH9BuZv9Q/o.jpg", "is_closed": false, "url": "https://www.yelp.com/biz/napa-valley-crust-st-helena?adjust_creative=R39z9kjZ-1HrCCc7SW6pcw&utm_campaign=yelp_api_v3&utm_medium=api_v3_business_search&utm_source=R39z9kjZ-1HrCCc7SW6pcw", "review_count": 12, "categories": [{"alias": "foodtrucks", "title": "Food Trucks"}, {"alias": "pizza", "title": "Pizza"}], "rating": 4.5, "coordinates": {"latitude": 38.506296, "longitude": -122.469455}, "transactions": [], "location": {"address1": "1010 Adams St", "address2": null, "address3": "", "city": "St. Helena", "zip_code": "94574", "country": "US", "state": "CA", "display_address": ["1010 Adams St", "St. Helena, CA 94574"]}, "phone": "+17073961579", "display_phone": "(707) 396-1579", "distance": 28490.52550767288}, {"id": "3zRfkzhTk7jzXNC0cKdWRg", "alias": "tortas-gigantes-metro-balderas-2-santa-rosa", "name": "Tortas Gigantes Metro Balderas 2", "image_url": "https://s3-media3.fl.yelpcdn.com/bphoto/1zH8mMORZDEuR8Eg1A4ilQ/o.jpg", "is_closed": false, "url": "https://www.yelp.com/biz/tortas-gigantes-metro-balderas-2-santa-rosa?adjust_creative=R39z9kjZ-1HrCCc7SW6pcw&utm_campaign=yelp_api_v3&utm_medium=api_v3_business_search&utm_source=R39z9kjZ-1HrCCc7SW6pcw", "review_count": 4, "categories": [{"alias": "foodtrucks", "title": "Food Trucks"}, {"alias": "mexican", "title": "Mexican"}], "rating": 4.0, "coordinates": {"latitude": 38.42913, "longitude": -122.73433}, "transactions": [], "price": "$", "location": {"address1": "1289 Sebastopol Rd", "address2": "", "address3": null, "city": "Santa Rosa", "zip_code": "95407", "country": "US", "state": "CA", "display_address": ["1289 Sebastopol Rd", "Santa Rosa, CA 95407"]}, "phone": "+17072604343", "display_phone": "(707) 260-4343", "distance": 11225.13956082446}, {"id": "i6ZwMjYIbmFZ8EGYz6x5Bw", "alias": "phat-salads-and-wraps-napa", "name": "Phat Salads and Wraps", "image_url": "https://s3-media2.fl.yelpcdn.com/bphoto/FbrUwtrVIx2cLXiPdBhHkw/o.jpg", "is_closed": false, "url": "https://www.yelp.com/biz/phat-salads-and-wraps-napa?adjust_creative=R39z9kjZ-1HrCCc7SW6pcw&utm_campaign=yelp_api_v3&utm_medium=api_v3_business_search&utm_source=R39z9kjZ-1HrCCc7SW6pcw", "review_count": 48, "categories": [{"alias": "foodtrucks", "title": "Food Trucks"}, {"alias": "wraps", "title": "Wraps"}], "rating": 4.0, "coordinates": {"latitude": 38.3234491, "longitude": -122.3023962}, "transactions": [], "price": "$", "location": {"address1": "", "address2": "", "address3": "", "city": "Napa", "zip_code": "94558", "country": "US", "state": "CA", "display_address": ["Napa, CA 94558"]}, "phone": "+17073639658", "display_phone": "(707) 363-9658", "distance": 35346.40669356564}, {"id": "UgpER14Qy4CiwlxC5ZwsqA", "alias": "la-cuchara-de-do\u00f1a-rosa-vallejo", "name": "La cuchara de Do\u00f1a Rosa", "image_url": "https://s3-media3.fl.yelpcdn.com/bphoto/IlLx-PG3Jt6VZBcxToYRng/o.jpg", "is_closed": false, "url": "https://www.yelp.com/biz/la-cuchara-de-do%C3%B1a-rosa-vallejo?adjust_creative=R39z9kjZ-1HrCCc7SW6pcw&utm_campaign=yelp_api_v3&utm_medium=api_v3_business_search&utm_source=R39z9kjZ-1HrCCc7SW6pcw", "review_count": 14, "categories": [{"alias": "foodtrucks", "title": "Food Trucks"}, {"alias": "tacos", "title": "Tacos"}], "rating": 4.0, "coordinates": {"latitude": 38.115436, "longitude": -122.2541558}, "transactions": ["delivery", "pickup"], "price": "$$", "location": {"address1": "105 Couch St", "address2": "", "address3": null, "city": "Vallejo", "zip_code": "94590", "country": "US", "state": "CA", "display_address": ["105 Couch St", "Vallejo, CA 94590"]}, "phone": "+15103138892", "display_phone": "(510) 313-8892", "distance": 46268.78252920498}, {"id": "CUwBAy6lrFi4x6Neu9eRVw", "alias": "mini-street-burger-alameda-3", "name": "Mini Street Burger", "image_url": "https://s3-media2.fl.yelpcdn.com/bphoto/Kh-OQKBIclWY1dCeIuu57w/o.jpg", "is_closed": false, "url": "https://www.yelp.com/biz/mini-street-burger-alameda-3?adjust_creative=R39z9kjZ-1HrCCc7SW6pcw&utm_campaign=yelp_api_v3&utm_medium=api_v3_business_search&utm_source=R39z9kjZ-1HrCCc7SW6pcw", "review_count": 28, "categories": [{"alias": "foodtrucks", "title": "Food Trucks"}, {"alias": "burgers", "title": "Burgers"}], "rating": 4.0, "coordinates": {"latitude": 37.82628, "longitude": -122.25101}, "transactions": [], "location": {"address1": null, "address2": null, "address3": null, "city": "Alameda", "zip_code": "94611", "country": "US", "state": "CA", "display_address": ["Alameda, CA 94611"]}, "phone": "+15108278982", "display_phone": "(510) 827-8982", "distance": 70737.18605381885}, {"id": "jCcAuXhCpeJP2n-8ol7mxg", "alias": "kolobok-russian-soul-food-truck-oakland", "name": "Kolobok Russian Soul Food Truck", "image_url": "https://s3-media1.fl.yelpcdn.com/bphoto/k8s1Bfc05Iw7SJXE6VJ74Q/o.jpg", "is_closed": false, "url": "https://www.yelp.com/biz/kolobok-russian-soul-food-truck-oakland?adjust_creative=R39z9kjZ-1HrCCc7SW6pcw&utm_campaign=yelp_api_v3&utm_medium=api_v3_business_search&utm_source=R39z9kjZ-1HrCCc7SW6pcw", "review_count": 47, "categories": [{"alias": "foodtrucks", "title": "Food Trucks"}, {"alias": "russian", "title": "Russian"}], "rating": 4.5, "coordinates": {"latitude": 37.7883087690458, "longitude": -122.309032460882}, "transactions": [], "price": "$$", "location": {"address1": null, "address2": null, "address3": "", "city": "Oakland", "zip_code": "94577", "country": "US", "state": "CA", "display_address": ["Oakland, CA 94577"]}, "phone": "+15105996542", "display_phone": "(510) 599-6542", "distance": 69665.56278689078}, {"id": "DC42MrpWtqEeWRmMsn6Z8w", "alias": "the-everest-momo-fremont-2", "name": "The Everest Momo", "image_url": "https://s3-media2.fl.yelpcdn.com/bphoto/T2f7tUQ1c104otx9oSdqYw/o.jpg", "is_closed": false, "url": "https://www.yelp.com/biz/the-everest-momo-fremont-2?adjust_creative=R39z9kjZ-1HrCCc7SW6pcw&utm_campaign=yelp_api_v3&utm_medium=api_v3_business_search&utm_source=R39z9kjZ-1HrCCc7SW6pcw", "review_count": 23, "categories": [{"alias": "foodtrucks", "title": "Food Trucks"}, {"alias": "indpak", "title": "Indian"}, {"alias": "himalayan", "title": "Himalayan/Nepalese"}], "rating": 4.5, "coordinates": {"latitude": 37.54643, "longitude": -121.98512}, "transactions": [], "price": "$", "location": {"address1": "39233 Fremont Blvd", "address2": null, "address3": null, "city": "Fremont", "zip_code": "94538", "country": "US", "state": "CA", "display_address": ["39233 Fremont Blvd", "Fremont, CA 94538"]}, "phone": "+14088406369", "display_phone": "(408) 840-6369", "distance": 107775.64695641703}, {"id": "lgheXsHqe66AEZwoPDIEpw", "alias": "taco-coma-newark", "name": "Taco Coma", "image_url": "https://s3-media3.fl.yelpcdn.com/bphoto/DDz5lZDL5lDiRR_Ph0L4Sg/o.jpg", "is_closed": false, "url": "https://www.yelp.com/biz/taco-coma-newark?adjust_creative=R39z9kjZ-1HrCCc7SW6pcw&utm_campaign=yelp_api_v3&utm_medium=api_v3_business_search&utm_source=R39z9kjZ-1HrCCc7SW6pcw", "review_count": 3, "categories": [{"alias": "foodstands", "title": "Food Stands"}, {"alias": "tacos", "title": "Tacos"}], "rating": 5.0, "coordinates": {"latitude": 37.53453, "longitude": -122.03284}, "transactions": [], "location": {"address1": "", "address2": null, "address3": "", "city": "Newark", "zip_code": "94560", "country": "US", "state": "CA", "display_address": ["Newark, CA 94560"]}, "phone": "+15106971448", "display_phone": "(510) 697-1448", "distance": 106627.40274165735}, {"id": "8SNGFcMWZkvS4GWDUL8w1Q", "alias": "noon-o-kabob-san-jose-4", "name": "Noon O Kabob", "image_url": "https://s3-media2.fl.yelpcdn.com/bphoto/5GmY5FRw0m0XEWC5XXbVlA/o.jpg", "is_closed": false, "url": "https://www.yelp.com/biz/noon-o-kabob-san-jose-4?adjust_creative=R39z9kjZ-1HrCCc7SW6pcw&utm_campaign=yelp_api_v3&utm_medium=api_v3_business_search&utm_source=R39z9kjZ-1HrCCc7SW6pcw", "review_count": 29, "categories": [{"alias": "foodtrucks", "title": "Food Trucks"}, {"alias": "kebab", "title": "Kebab"}, {"alias": "persian", "title": "Persian/Iranian"}], "rating": 4.5, "coordinates": {"latitude": 37.3940232, "longitude": -122.0288052}, "transactions": [], "price": "$$", "location": {"address1": null, "address2": null, "address3": null, "city": "San Jose", "zip_code": "95101", "country": "US", "state": "CA", "display_address": ["San Jose, CA 95101"]}, "phone": "+14083346777", "display_phone": "(408) 334-6777", "distance": 119981.43837829928}, {"id": "C9uewBH5505NV0EWYBIJAA", "alias": "lady-and-l-aperitivo-san-jose", "name": "Lady & L'Aperitivo", "image_url": "https://s3-media4.fl.yelpcdn.com/bphoto/3nz0sRE9MlOq_4xVRQRt9w/o.jpg", "is_closed": false, "url": "https://www.yelp.com/biz/lady-and-l-aperitivo-san-jose?adjust_creative=R39z9kjZ-1HrCCc7SW6pcw&utm_campaign=yelp_api_v3&utm_medium=api_v3_business_search&utm_source=R39z9kjZ-1HrCCc7SW6pcw", "review_count": 1, "categories": [{"alias": "bakeries", "title": "Bakeries"}, {"alias": "desserts", "title": "Desserts"}, {"alias": "cheesesteaks", "title": "Cheesesteaks"}], "rating": 5.0, "coordinates": {"latitude": 37.2208938598633, "longitude": -121.861633300781}, "transactions": [], "location": {"address1": null, "address2": null, "address3": "", "city": "San Jose", "zip_code": "95120", "country": "US", "state": "CA", "display_address": ["San Jose, CA 95120"]}, "phone": "", "display_phone": "", "distance": 149716.53085459696}, {"id": "22KzWfCP7jt9tOl6Gl17LQ", "alias": "mai-thai-kitchen-las-vegas", "name": "Mai Thai Kitchen", "image_url": "https://s3-media1.fl.yelpcdn.com/bphoto/t1Zp5dvdlEzcNrgITCLZkw/o.jpg", "is_closed": false, "url": "https://www.yelp.com/biz/mai-thai-kitchen-las-vegas?adjust_creative=R39z9kjZ-1HrCCc7SW6pcw&utm_campaign=yelp_api_v3&utm_medium=api_v3_business_search&utm_source=R39z9kjZ-1HrCCc7SW6pcw", "review_count": 9, "categories": [{"alias": "foodtrucks", "title": "Food Trucks"}, {"alias": "thai", "title": "Thai"}, {"alias": "catering", "title": "Caterers"}], "rating": 3.5, "coordinates": {"latitude": 36.1067341598394, "longitude": -115.040667839348}, "transactions": [], "price": "$$$$", "location": {"address1": "", "address2": "", "address3": null, "city": "Las Vegas", "zip_code": "89122", "country": "US", "state": "NV", "display_address": ["Las Vegas, NV 89122"]}, "phone": "+14152591625", "display_phone": "(415) 259-1625", "distance": 722233.9109756767}]}