{"location": "Danville, CA", "term": "restaurant", "radius": 3856, "businesses": [{"id": "Iu2SsLtRLS_BOq8yV_inqw", "alias": "danville-harvest-danville", "name": "Danville Harvest", "image_url": "https://s3-media3.fl.yelpcdn.com/bphoto/NtjnsUl3qCGRk-tm97uM5g/o.jpg", "is_closed": false, "url": "https://www.yelp.com/biz/danville-harvest-danville?adjust_creative=-1a8ZLzJ76_AvFzvJVcndQ&utm_campaign=yelp_api_v3&utm_medium=api_v3_business_search&utm_source=-1a8ZLzJ76_AvFzvJVcndQ", "review_count": 799, "categories": [{"alias": "newamerican", "title": "American (New)"}, {"alias": "bars", "title": "Bars"}], "rating": 4.0, "coordinates": {"latitude": 37.82068, "longitude": -121.99789}, "transactions": ["pickup", "restaurant_reservation"], "price": "$$", "location": {"address1": "500 Hartz Ave", "address2": "", "address3": "", "city": "Danville", "zip_code": "94526", "country": "US", "state": "CA", "display_address": ["500 Hartz Ave", "Danville, CA 94526"]}, "phone": "+19253623665", "display_phone": "(925) 362-3665", "distance": 2829.366875790569}, {"id": "wRPGJ7Dx73awSO7OU2uCLw", "alias": "cocina-hermanas-danville", "name": "Cocina Hermanas", "image_url": "https://s3-media2.fl.yelpcdn.com/bphoto/GrO1LfEudg93yqyGbK1p_g/o.jpg", "is_closed": false, "url": "https://www.yelp.com/biz/cocina-hermanas-danville?adjust_creative=-1a8ZLzJ76_AvFzvJVcndQ&utm_campaign=yelp_api_v3&utm_medium=api_v3_business_search&utm_source=-1a8ZLzJ76_AvFzvJVcndQ", "review_count": 375, "categories": [{"alias": "mexican", "title": "Mexican"}, {"alias": "bars", "title": "Bars"}], "rating": 4.0, "coordinates": {"latitude": 37.82032, "longitude": -121.99824}, "transactions": ["restaurant_reservation"], "price": "$$", "location": {"address1": "501 Hartz Ave", "address2": "", "address3": null, "city": "Danville", "zip_code": "94526", "country": "US", "state": "CA", "display_address": ["501 Hartz Ave", "Danville, CA 94526"]}, "phone": "+19257254161", "display_phone": "(925) 725-4161", "distance": 2845.8838945016114}, {"id": "J_haSpjPyC1W1EUuwK5QLw", "alias": "revel-kitchen-and-bar-danville", "name": "Revel Kitchen & Bar", "image_url": "https://s3-media1.fl.yelpcdn.com/bphoto/h9WwdGY5DuunoO9ckBAAvw/o.jpg", "is_closed": false, "url": "https://www.yelp.com/biz/revel-kitchen-and-bar-danville?adjust_creative=-1a8ZLzJ76_AvFzvJVcndQ&utm_campaign=yelp_api_v3&utm_medium=api_v3_business_search&utm_source=-1a8ZLzJ76_AvFzvJVcndQ", "review_count": 711, "categories": [{"alias": "bars", "title": "Bars"}, {"alias": "gastropubs", "title": "Gastropubs"}, {"alias": "tradamerican", "title": "American (Traditional)"}], "rating": 4.0, "coordinates": {"latitude": 37.82193, "longitude": -122.00071}, "transactions": [], "price": "$$", "location": {"address1": "331 Hartz Ave", "address2": "", "address3": "", "city": "Danville", "zip_code": "94526", "country": "US", "state": "CA", "display_address": ["331 Hartz Ave", "Danville, CA 94526"]}, "phone": "+19252081758", "display_phone": "(925) 208-1758", "distance": 3103.280527797443}, {"id": "K1E97tkJrC9X4Hxvo-AZZA", "alias": "locanda-ravello-danville-2", "name": "Locanda Ravello", "image_url": "https://s3-media2.fl.yelpcdn.com/bphoto/iWC5aHpw9zmjh7tqsN8yRQ/o.jpg", "is_closed": false, "url": "https://www.yelp.com/biz/locanda-ravello-danville-2?adjust_creative=-1a8ZLzJ76_AvFzvJVcndQ&utm_campaign=yelp_api_v3&utm_medium=api_v3_business_search&utm_source=-1a8ZLzJ76_AvFzvJVcndQ", "review_count": 641, "categories": [{"alias": "italian", "title": "Italian"}, {"alias": "pizza", "title": "Pizza"}, {"alias": "salad", "title": "Salad"}], "rating": 4.0, "coordinates": {"latitude": 37.822601, "longitude": -121.998969}, "transactions": ["pickup", "restaurant_reservation"], "price": "$$", "location": {"address1": "172 E Prospect Ave", "address2": "", "address3": "", "city": "Danville", "zip_code": "94526", "country": "US", "state": "CA", "display_address": ["172 E Prospect Ave", "Danville, CA 94526"]}, "phone": "+19259842101", "display_phone": "(925) 984-2101", "distance": 2985.805965881977}, {"id": "03KTO7fwIQSmWoBhY15PmA", "alias": "mangia-mi-danville", "name": "Mangia Mi", "image_url": "https://s3-media1.fl.yelpcdn.com/bphoto/3T2bESAI3-33m-kOkH2ihw/o.jpg", "is_closed": false, "url": "https://www.yelp.com/biz/mangia-mi-danville?adjust_creative=-1a8ZLzJ76_AvFzvJVcndQ&utm_campaign=yelp_api_v3&utm_medium=api_v3_business_search&utm_source=-1a8ZLzJ76_AvFzvJVcndQ", "review_count": 428, "categories": [{"alias": "italian", "title": "Italian"}], "rating": 4.0, "coordinates": {"latitude": 37.821491405904, "longitude": -121.99921008653}, "transactions": ["restaurant_reservation"], "price": "$$", "location": {"address1": "406 Hartz Ave", "address2": "", "address3": "", "city": "Danville", "zip_code": "94526", "country": "US", "state": "CA", "display_address": ["406 Hartz Ave", "Danville, CA 94526"]}, "phone": "+19258313276", "display_phone": "(925) 831-3276", "distance": 2964.3303312899966}, {"id": "XsFZn4e_B8CegDGu-4yHFw", "alias": "taru-japanese-sushi-and-cuisine-danville", "name": "Taru Japanese Sushi & Cuisine", "image_url": "https://s3-media1.fl.yelpcdn.com/bphoto/Q2TWkYYkeVb_Fq1qynny6g/o.jpg", "is_closed": false, "url": "https://www.yelp.com/biz/taru-japanese-sushi-and-cuisine-danville?adjust_creative=-1a8ZLzJ76_AvFzvJVcndQ&utm_campaign=yelp_api_v3&utm_medium=api_v3_business_search&utm_source=-1a8ZLzJ76_AvFzvJVcndQ", "review_count": 312, "categories": [{"alias": "sushi", "title": "Sushi Bars"}, {"alias": "japanese", "title": "Japanese"}], "rating": 4.5, "coordinates": {"latitude": 37.82221, "longitude": -121.99964}, "transactions": ["pickup", "restaurant_reservation"], "price": "$$", "location": {"address1": "120 E Prospect Ave", "address2": null, "address3": "", "city": "Danville", "zip_code": "94526", "country": "US", "state": "CA", "display_address": ["120 E Prospect Ave", "Danville, CA 94526"]}, "phone": "+19255537061", "display_phone": "(925) 553-7061", "distance": 3035.834850885867}, {"id": "OT17VOickYoD2cw2DW7HDw", "alias": "bridges-restaurant-and-bar-danville", "name": "Bridges Restaurant & Bar", "image_url": "https://s3-media2.fl.yelpcdn.com/bphoto/ivCq0XxbT4vxM6LAaoLyvg/o.jpg", "is_closed": false, "url": "https://www.yelp.com/biz/bridges-restaurant-and-bar-danville?adjust_creative=-1a8ZLzJ76_AvFzvJVcndQ&utm_campaign=yelp_api_v3&utm_medium=api_v3_business_search&utm_source=-1a8ZLzJ76_AvFzvJVcndQ", "review_count": 743, "categories": [{"alias": "tradamerican", "title": "American (Traditional)"}], "rating": 4.0, "coordinates": {"latitude": 37.8211326599121, "longitude": -121.997955322266}, "transactions": [], "price": "$$$", "location": {"address1": "44 Church St", "address2": "", "address3": "", "city": "Danville", "zip_code": "94526", "country": "US", "state": "CA", "display_address": ["44 Church St", "Danville, CA 94526"]}, "phone": "+19258207200", "display_phone": "(925) 820-7200", "distance": 2846.0392380533717}, {"id": "B9RnGW_fpd2SkhxyZeKaCw", "alias": "esin-restaurant-and-bar-danville", "name": "Esin Restaurant & Bar", "image_url": "https://s3-media3.fl.yelpcdn.com/bphoto/vspQMT4BcRrTRBFk5pqudQ/o.jpg", "is_closed": false, "url": "https://www.yelp.com/biz/esin-restaurant-and-bar-danville?adjust_creative=-1a8ZLzJ76_AvFzvJVcndQ&utm_campaign=yelp_api_v3&utm_medium=api_v3_business_search&utm_source=-1a8ZLzJ76_AvFzvJVcndQ", "review_count": 951, "categories": [{"alias": "newamerican", "title": "American (New)"}, {"alias": "mediterranean", "title": "Mediterranean"}, {"alias": "wine_bars", "title": "Wine Bars"}], "rating": 4.0, "coordinates": {"latitude": 37.809958, "longitude": -121.990629}, "transactions": ["delivery", "pickup"], "price": "$$$", "location": {"address1": "750 Camino Ramon", "address2": "", "address3": "", "city": "Danville", "zip_code": "94526", "country": "US", "state": "CA", "display_address": ["750 Camino Ramon", "Danville, CA 94526"]}, "phone": "+19253140974", "display_phone": "(925) 314-0974", "distance": 2145.2461311821367}, {"id": "CrHVkLLsVqzmszxBR75-SQ", "alias": "piatti-ristorante-and-bar-danville", "name": "Piatti Ristorante & Bar", "image_url": "https://s3-media4.fl.yelpcdn.com/bphoto/u9CFOEpBmVFDH7lA23OjGA/o.jpg", "is_closed": false, "url": "https://www.yelp.com/biz/piatti-ristorante-and-bar-danville?adjust_creative=-1a8ZLzJ76_AvFzvJVcndQ&utm_campaign=yelp_api_v3&utm_medium=api_v3_business_search&utm_source=-1a8ZLzJ76_AvFzvJVcndQ", "review_count": 763, "categories": [{"alias": "italian", "title": "Italian"}, {"alias": "pizza", "title": "Pizza"}, {"alias": "bars", "title": "Bars"}], "rating": 4.0, "coordinates": {"latitude": 37.811686, "longitude": -121.996399}, "transactions": [], "price": "$$", "location": {"address1": "100 Sycamore Valley Rd W", "address2": "", "address3": "", "city": "Danville", "zip_code": "94526", "country": "US", "state": "CA", "display_address": ["100 Sycamore Valley Rd W", "Danville, CA 94526"]}, "phone": "+19258382082", "display_phone": "(925) 838-2082", "distance": 2635.4793637952002}, {"id": "AaDYfCB03yZOOQBykvjOAg", "alias": "cielito-danville", "name": "Cielito", "image_url": "https://s3-media2.fl.yelpcdn.com/bphoto/pxn6HBDWASw9RTi5yCYs1Q/o.jpg", "is_closed": false, "url": "https://www.yelp.com/biz/cielito-danville?adjust_creative=-1a8ZLzJ76_AvFzvJVcndQ&utm_campaign=yelp_api_v3&utm_medium=api_v3_business_search&utm_source=-1a8ZLzJ76_AvFzvJVcndQ", "review_count": 203, "categories": [{"alias": "mexican", "title": "Mexican"}, {"alias": "bars", "title": "Bars"}], "rating": 4.0, "coordinates": {"latitude": 37.81879067, "longitude": -121.99700383}, "transactions": [], "price": "$$", "location": {"address1": "445 Railroad Ave", "address2": "", "address3": null, "city": "Danville", "zip_code": "94526", "country": "US", "state": "CA", "display_address": ["445 Railroad Ave", "Danville, CA 94526"]}, "phone": "+19257254732", "display_phone": "(925) 725-4732", "distance": 2696.8253209557042}, {"id": "am1-7jQQnU8NhWCLrBjKMg", "alias": "forbes-mill-steakhouse-danville", "name": "Forbes Mill Steakhouse", "image_url": "https://s3-media4.fl.yelpcdn.com/bphoto/6x6HNjQs3G6wyc-i1m0MBA/o.jpg", "is_closed": false, "url": "https://www.yelp.com/biz/forbes-mill-steakhouse-danville?adjust_creative=-1a8ZLzJ76_AvFzvJVcndQ&utm_campaign=yelp_api_v3&utm_medium=api_v3_business_search&utm_source=-1a8ZLzJ76_AvFzvJVcndQ", "review_count": 749, "categories": [{"alias": "steak", "title": "Steakhouses"}], "rating": 4.0, "coordinates": {"latitude": 37.81205, "longitude": -121.9968}, "transactions": [], "price": "$$$", "location": {"address1": "200 Sycamore Valley Rd W", "address2": null, "address3": "", "city": "Danville", "zip_code": "94526", "country": "US", "state": "CA", "display_address": ["200 Sycamore Valley Rd W", "Danville, CA 94526"]}, "phone": "+19255520505", "display_phone": "(925) 552-0505", "distance": 2651.881719753708}, {"id": "l9bruxkw11jKAO0yBt9FtQ", "alias": "albatross-danville-2", "name": "Albatross", "image_url": "https://s3-media3.fl.yelpcdn.com/bphoto/nGNR9XT_VpRwW3BL3_Eyfw/o.jpg", "is_closed": false, "url": "https://www.yelp.com/biz/albatross-danville-2?adjust_creative=-1a8ZLzJ76_AvFzvJVcndQ&utm_campaign=yelp_api_v3&utm_medium=api_v3_business_search&utm_source=-1a8ZLzJ76_AvFzvJVcndQ", "review_count": 171, "categories": [{"alias": "newamerican", "title": "American (New)"}, {"alias": "breakfast_brunch", "title": "Breakfast & Brunch"}, {"alias": "salad", "title": "Salad"}], "rating": 4.0, "coordinates": {"latitude": 37.82008, "longitude": -121.998363}, "transactions": [], "price": "$$", "location": {"address1": "312 Railroad Ave", "address2": null, "address3": "", "city": "Danville", "zip_code": "94526", "country": "US", "state": "CA", "display_address": ["312 Railroad Ave", "Danville, CA 94526"]}, "phone": "+19257185445", "display_phone": "(925) 718-5445", "distance": 2852.4716852330153}, {"id": "i5yBZsyS4JL6oRXJVeclww", "alias": "danville-brewing-danville", "name": "Danville Brewing", "image_url": "https://s3-media2.fl.yelpcdn.com/bphoto/Y8lpu_mWs5eALZrKhkkfkQ/o.jpg", "is_closed": false, "url": "https://www.yelp.com/biz/danville-brewing-danville?adjust_creative=-1a8ZLzJ76_AvFzvJVcndQ&utm_campaign=yelp_api_v3&utm_medium=api_v3_business_search&utm_source=-1a8ZLzJ76_AvFzvJVcndQ", "review_count": 433, "categories": [{"alias": "salad", "title": "Salad"}, {"alias": "breweries", "title": "Breweries"}, {"alias": "sandwiches", "title": "Sandwiches"}], "rating": 4.0, "coordinates": {"latitude": 37.8210142544642, "longitude": -122.000220666586}, "transactions": [], "price": "$$", "location": {"address1": "200 Railroad Ave", "address2": "", "address3": null, "city": "Danville", "zip_code": "94526", "country": "US", "state": "CA", "display_address": ["200 Railroad Ave", "Danville, CA 94526"]}, "phone": "+19252174172", "display_phone": "(925) 217-4172", "distance": 3035.8953705247395}, {"id": "JbnDMtuzFuYk10KmBfx9nA", "alias": "blue-line-pizza-danville", "name": "Blue Line Pizza", "image_url": "https://s3-media3.fl.yelpcdn.com/bphoto/Eo20PiLz_kE-9g5eyHcb3Q/o.jpg", "is_closed": false, "url": "https://www.yelp.com/biz/blue-line-pizza-danville?adjust_creative=-1a8ZLzJ76_AvFzvJVcndQ&utm_campaign=yelp_api_v3&utm_medium=api_v3_business_search&utm_source=-1a8ZLzJ76_AvFzvJVcndQ", "review_count": 344, "categories": [{"alias": "pizza", "title": "Pizza"}, {"alias": "gluten_free", "title": "Gluten-Free"}, {"alias": "salad", "title": "Salad"}], "rating": 4.5, "coordinates": {"latitude": 37.82039, "longitude": -121.99741}, "transactions": [], "price": "$$", "location": {"address1": "550 Hartz Ave", "address2": null, "address3": "", "city": "Danville", "zip_code": "94526", "country": "US", "state": "CA", "display_address": ["550 Hartz Ave", "Danville, CA 94526"]}, "phone": "+19253623295", "display_phone": "(925) 362-3295", "distance": 2782.9516802272087}, {"id": "PVbCDISvDg-KlaJtNje7IA", "alias": "zalla-kabab-house-danville", "name": "Zalla Kabab House", "image_url": "https://s3-media4.fl.yelpcdn.com/bphoto/9c6lOnHBi1mJaXrCvETVYQ/o.jpg", "is_closed": false, "url": "https://www.yelp.com/biz/zalla-kabab-house-danville?adjust_creative=-1a8ZLzJ76_AvFzvJVcndQ&utm_campaign=yelp_api_v3&utm_medium=api_v3_business_search&utm_source=-1a8ZLzJ76_AvFzvJVcndQ", "review_count": 193, "categories": [{"alias": "mediterranean", "title": "Mediterranean"}, {"alias": "afghani", "title": "Afghan"}], "rating": 4.5, "coordinates": {"latitude": 37.81221, "longitude": -121.99733}, "transactions": ["pickup"], "price": "$$", "location": {"address1": "202 Sycamore Valley Rd W", "address2": null, "address3": "", "city": "Danville", "zip_code": "94526", "country": "US", "state": "CA", "display_address": ["202 Sycamore Valley Rd W", "Danville, CA 94526"]}, "phone": "+19252081403", "display_phone": "(925) 208-1403", "distance": 2664.5488564320945}, {"id": "Q7jMvyWLSNP9hUgqbnlEQw", "alias": "giannis-italian-bistro-san-ramon", "name": "Gianni's Italian Bistro", "image_url": "https://s3-media1.fl.yelpcdn.com/bphoto/Gq0lqVFMpeL2bz2AYrPeGg/o.jpg", "is_closed": false, "url": "https://www.yelp.com/biz/giannis-italian-bistro-san-ramon?adjust_creative=-1a8ZLzJ76_AvFzvJVcndQ&utm_campaign=yelp_api_v3&utm_medium=api_v3_business_search&utm_source=-1a8ZLzJ76_AvFzvJVcndQ", "review_count": 460, "categories": [{"alias": "italian", "title": "Italian"}, {"alias": "bars", "title": "Bars"}], "rating": 4.5, "coordinates": {"latitude": 37.78384, "longitude": -121.98028}, "transactions": ["delivery", "pickup", "restaurant_reservation"], "price": "$$", "location": {"address1": "2065 San Ramon Valley Blvd", "address2": null, "address3": "", "city": "San Ramon", "zip_code": "94583", "country": "US", "state": "CA", "display_address": ["2065 San Ramon Valley Blvd", "San Ramon, CA 94583"]}, "phone": "+19258206969", "display_phone": "(925) 820-6969", "distance": 3554.0096144902927}, {"id": "4F0HW9skhwor4HrnwqXm5w", "alias": "santorini-mediterranean-danville", "name": "Santorini Mediterranean", "image_url": "https://s3-media2.fl.yelpcdn.com/bphoto/_eafrOE0hnQsOF__c9nYmQ/o.jpg", "is_closed": false, "url": "https://www.yelp.com/biz/santorini-mediterranean-danville?adjust_creative=-1a8ZLzJ76_AvFzvJVcndQ&utm_campaign=yelp_api_v3&utm_medium=api_v3_business_search&utm_source=-1a8ZLzJ76_AvFzvJVcndQ", "review_count": 334, "categories": [{"alias": "mediterranean", "title": "Mediterranean"}, {"alias": "greek", "title": "Greek"}, {"alias": "mideastern", "title": "Middle Eastern"}], "rating": 4.0, "coordinates": {"latitude": 37.81449383, "longitude": -121.99825283}, "transactions": ["pickup"], "price": "$$", "location": {"address1": "105 Town Country Dr", "address2": "Ste A", "address3": "", "city": "Danville", "zip_code": "94526", "country": "US", "state": "CA", "display_address": ["105 Town Country Dr", "Ste A", "Danville, CA 94526"]}, "phone": "+19257431035", "display_phone": "(925) 743-1035", "distance": 2757.3839870264615}, {"id": "CRtUxwunePHiGNvJOQbzjg", "alias": "incontro-ristorante-danville-2", "name": "Incontro Ristorante", "image_url": "https://s3-media4.fl.yelpcdn.com/bphoto/zBI9GxFvfGcSwhYqGlalow/o.jpg", "is_closed": false, "url": "https://www.yelp.com/biz/incontro-ristorante-danville-2?adjust_creative=-1a8ZLzJ76_AvFzvJVcndQ&utm_campaign=yelp_api_v3&utm_medium=api_v3_business_search&utm_source=-1a8ZLzJ76_AvFzvJVcndQ", "review_count": 408, "categories": [{"alias": "italian", "title": "Italian"}], "rating": 4.0, "coordinates": {"latitude": 37.82052, "longitude": -121.99894}, "transactions": [], "price": "$$", "location": {"address1": "455 Hartz Ave", "address2": "", "address3": "", "city": "Danville", "zip_code": "94526", "country": "US", "state": "CA", "display_address": ["455 Hartz Ave", "Danville, CA 94526"]}, "phone": "+19258202349", "display_phone": "(925) 820-2349", "distance": 2911.8405277128377}, {"id": "LKUC2S65y6vhdnIdJBicwA", "alias": "sandwicheez-san-ramon-san-ramon-3", "name": "Sandwicheez San Ramon", "image_url": "https://s3-media3.fl.yelpcdn.com/bphoto/NrJYjD50I1naIgIwR5_A0Q/o.jpg", "is_closed": false, "url": "https://www.yelp.com/biz/sandwicheez-san-ramon-san-ramon-3?adjust_creative=-1a8ZLzJ76_AvFzvJVcndQ&utm_campaign=yelp_api_v3&utm_medium=api_v3_business_search&utm_source=-1a8ZLzJ76_AvFzvJVcndQ", "review_count": 20, "categories": [{"alias": "sandwiches", "title": "Sandwiches"}], "rating": 5.0, "coordinates": {"latitude": 37.7801442, "longitude": -121.9724326}, "transactions": [], "location": {"address1": "2005 Crow Canyon Pl", "address2": "Ste 136", "address3": "", "city": "San Ramon", "zip_code": "94583", "country": "US", "state": "CA", "display_address": ["2005 Crow Canyon Pl", "Ste 136", "San Ramon, CA 94583"]}, "phone": "+19258046454", "display_phone": "(925) 804-6454", "distance": 3809.5930173078236}, {"id": "YapIdalQkicL7Q1E-GLXjQ", "alias": "crumbs-breakfast-lunch-and-bar-danville", "name": "Crumbs Breakfast, Lunch & Bar", "image_url": "https://s3-media3.fl.yelpcdn.com/bphoto/mT6iDlX0IZL-qvqG-x25gw/o.jpg", "is_closed": false, "url": "https://www.yelp.com/biz/crumbs-breakfast-lunch-and-bar-danville?adjust_creative=-1a8ZLzJ76_AvFzvJVcndQ&utm_campaign=yelp_api_v3&utm_medium=api_v3_business_search&utm_source=-1a8ZLzJ76_AvFzvJVcndQ", "review_count": 475, "categories": [{"alias": "breakfast_brunch", "title": "Breakfast & Brunch"}, {"alias": "comfortfood", "title": "Comfort Food"}, {"alias": "newamerican", "title": "American (New)"}], "rating": 4.0, "coordinates": {"latitude": 37.81926, "longitude": -121.99698}, "transactions": [], "price": "$$", "location": {"address1": "428 Railroad Ave", "address2": "Ste B", "address3": null, "city": "Danville", "zip_code": "94526", "country": "US", "state": "CA", "display_address": ["428 Railroad Ave", "Ste B", "Danville, CA 94526"]}, "phone": "+19258388824", "display_phone": "(925) 838-8824", "distance": 2710.0374060838826}, {"id": "0HWZm5ecPoUZghB_XDLn_g", "alias": "yos-on-hartz-danville", "name": "Yo's On Hartz", "image_url": "https://s3-media2.fl.yelpcdn.com/bphoto/JY3UgM1HW07Je3AOsQnfXQ/o.jpg", "is_closed": false, "url": "https://www.yelp.com/biz/yos-on-hartz-danville?adjust_creative=-1a8ZLzJ76_AvFzvJVcndQ&utm_campaign=yelp_api_v3&utm_medium=api_v3_business_search&utm_source=-1a8ZLzJ76_AvFzvJVcndQ", "review_count": 221, "categories": [{"alias": "asianfusion", "title": "Asian Fusion"}, {"alias": "sushi", "title": "Sushi Bars"}], "rating": 4.0, "coordinates": {"latitude": 37.8202307, "longitude": -121.9981379}, "transactions": [], "price": "$$", "location": {"address1": "531 Hartz Ave", "address2": "", "address3": "", "city": "Danville", "zip_code": "94526", "country": "US", "state": "CA", "display_address": ["531 Hartz Ave", "Danville, CA 94526"]}, "phone": "+19258555580", "display_phone": "(925) 855-5580", "distance": 2837.131210935341}, {"id": "hZtYa-FMKfyXZ2lKRtYjBQ", "alias": "slow-gs-healthy-eatery-danville", "name": "Slow G's Healthy Eatery", "image_url": "https://s3-media2.fl.yelpcdn.com/bphoto/k9KNvksJR7OZje3IplHpJQ/o.jpg", "is_closed": false, "url": "https://www.yelp.com/biz/slow-gs-healthy-eatery-danville?adjust_creative=-1a8ZLzJ76_AvFzvJVcndQ&utm_campaign=yelp_api_v3&utm_medium=api_v3_business_search&utm_source=-1a8ZLzJ76_AvFzvJVcndQ", "review_count": 254, "categories": [{"alias": "sandwiches", "title": "Sandwiches"}, {"alias": "gluten_free", "title": "Gluten-Free"}, {"alias": "salad", "title": "Salad"}], "rating": 4.5, "coordinates": {"latitude": 37.82403226499, "longitude": -121.99285526314}, "transactions": ["pickup"], "price": "$", "location": {"address1": "440 Diablo Rd", "address2": "", "address3": "", "city": "Danville", "zip_code": "94526", "country": "US", "state": "CA", "display_address": ["440 Diablo Rd", "Danville, CA 94526"]}, "phone": "+19258311268", "display_phone": "(925) 831-1268", "distance": 2542.0461595827555}, {"id": "CBhZ9Atvkcmberl79JdC8w", "alias": "melos-pizza-and-pasta-danville-2", "name": "Melo's Pizza & Pasta", "image_url": "https://s3-media2.fl.yelpcdn.com/bphoto/tC5o4Ho1RKrtvXPEIsn6uA/o.jpg", "is_closed": false, "url": "https://www.yelp.com/biz/melos-pizza-and-pasta-danville-2?adjust_creative=-1a8ZLzJ76_AvFzvJVcndQ&utm_campaign=yelp_api_v3&utm_medium=api_v3_business_search&utm_source=-1a8ZLzJ76_AvFzvJVcndQ", "review_count": 231, "categories": [{"alias": "pizza", "title": "Pizza"}, {"alias": "italian", "title": "Italian"}], "rating": 4.0, "coordinates": {"latitude": 37.8126836, "longitude": -121.9953584}, "transactions": [], "price": "$$", "location": {"address1": "664 San Ramon Valley Blvd", "address2": "", "address3": "", "city": "Danville", "zip_code": "94526", "country": "US", "state": "CA", "display_address": ["664 San Ramon Valley Blvd", "Danville, CA 94526"]}, "phone": "+19258206000", "display_phone": "(925) 820-6000", "distance": 2445.3921865392185}, {"id": "khJM0lTsJaIKq9uvZC5iUg", "alias": "mcgahs-pub-and-pianos-danville", "name": "McGah's Pub & Pianos", "image_url": "https://s3-media2.fl.yelpcdn.com/bphoto/QNGaZM7atibn5-w-9MxarA/o.jpg", "is_closed": false, "url": "https://www.yelp.com/biz/mcgahs-pub-and-pianos-danville?adjust_creative=-1a8ZLzJ76_AvFzvJVcndQ&utm_campaign=yelp_api_v3&utm_medium=api_v3_business_search&utm_source=-1a8ZLzJ76_AvFzvJVcndQ", "review_count": 224, "categories": [{"alias": "sportsbars", "title": "Sports Bars"}, {"alias": "pianobars", "title": "Piano Bars"}, {"alias": "tradamerican", "title": "American (Traditional)"}], "rating": 4.0, "coordinates": {"latitude": 37.8221402038362, "longitude": -121.999357416568}, "transactions": [], "price": "$$", "location": {"address1": "148 E Prospect Ave", "address2": null, "address3": "", "city": "Danville", "zip_code": "94526", "country": "US", "state": "CA", "display_address": ["148 E Prospect Ave", "Danville, CA 94526"]}, "phone": "+19257438466", "display_phone": "(925) 743-8466", "distance": 2997.443658876665}, {"id": "9pbuKBpQQTuSg3v-crh6BQ", "alias": "danas-danville", "name": "Dana's", "image_url": "https://s3-media4.fl.yelpcdn.com/bphoto/e0O7_VPUoZBe72AiNFNrWA/o.jpg", "is_closed": false, "url": "https://www.yelp.com/biz/danas-danville?adjust_creative=-1a8ZLzJ76_AvFzvJVcndQ&utm_campaign=yelp_api_v3&utm_medium=api_v3_business_search&utm_source=-1a8ZLzJ76_AvFzvJVcndQ", "review_count": 248, "categories": [{"alias": "newamerican", "title": "American (New)"}, {"alias": "bars", "title": "Bars"}], "rating": 3.5, "coordinates": {"latitude": 37.8126198, "longitude": -121.997103}, "transactions": [], "price": "$$", "location": {"address1": "416 Sycamore Valley Rd W", "address2": null, "address3": "", "city": "Danville", "zip_code": "94526", "country": "US", "state": "CA", "display_address": ["416 Sycamore Valley Rd W", "Danville, CA 94526"]}, "phone": "+19258387611", "display_phone": "(925) 838-7611", "distance": 2668.75535956779}, {"id": "1xQKKcdZ8cfMr1b6TzaOHA", "alias": "kabila-san-ramon-2", "name": "Kabila", "image_url": "https://s3-media1.fl.yelpcdn.com/bphoto/9oh0y0jE1Mp8sDek94PQKg/o.jpg", "is_closed": false, "url": "https://www.yelp.com/biz/kabila-san-ramon-2?adjust_creative=-1a8ZLzJ76_AvFzvJVcndQ&utm_campaign=yelp_api_v3&utm_medium=api_v3_business_search&utm_source=-1a8ZLzJ76_AvFzvJVcndQ", "review_count": 34, "categories": [{"alias": "indpak", "title": "Indian"}, {"alias": "buffets", "title": "Buffets"}, {"alias": "tapasmallplates", "title": "Tapas/Small Plates"}], "rating": 4.0, "coordinates": {"latitude": 37.7798817451464, "longitude": -121.971576416}, "transactions": [], "location": {"address1": "2005 Crow Canyon Pl", "address2": "Ste 160", "address3": null, "city": "San Ramon", "zip_code": "94583", "country": "US", "state": "CA", "display_address": ["2005 Crow Canyon Pl", "Ste 160", "San Ramon, CA 94583"]}, "phone": "+19254153223", "display_phone": "(925) 415-3223", "distance": 3829.52536062399}, {"id": "5VZbin3EPhq-pq6UM1A_ng", "alias": "sultans-kebab-danville", "name": "Sultan's Kebab", "image_url": "https://s3-media2.fl.yelpcdn.com/bphoto/jPe5NDR77XgnU7ZabbUhNg/o.jpg", "is_closed": false, "url": "https://www.yelp.com/biz/sultans-kebab-danville?adjust_creative=-1a8ZLzJ76_AvFzvJVcndQ&utm_campaign=yelp_api_v3&utm_medium=api_v3_business_search&utm_source=-1a8ZLzJ76_AvFzvJVcndQ", "review_count": 227, "categories": [{"alias": "mediterranean", "title": "Mediterranean"}, {"alias": "turkish", "title": "Turkish"}, {"alias": "halal", "title": "Halal"}], "rating": 4.0, "coordinates": {"latitude": 37.81891, "longitude": -121.99582}, "transactions": ["pickup"], "price": "$$", "location": {"address1": "480 San Ramon Valley Blvd", "address2": "Ste E", "address3": "", "city": "Danville", "zip_code": "94526", "country": "US", "state": "CA", "display_address": ["480 San Ramon Valley Blvd", "Ste E", "Danville, CA 94526"]}, "phone": "+19253623228", "display_phone": "(925) 362-3228", "distance": 2597.3076071201203}, {"id": "PwIevnTIugcMHvlSFnhJkw", "alias": "homegrown-danville", "name": "Homegrown", "image_url": "https://s3-media2.fl.yelpcdn.com/bphoto/O0rHT6U9_3OAORe0OHY-Fw/o.jpg", "is_closed": false, "url": "https://www.yelp.com/biz/homegrown-danville?adjust_creative=-1a8ZLzJ76_AvFzvJVcndQ&utm_campaign=yelp_api_v3&utm_medium=api_v3_business_search&utm_source=-1a8ZLzJ76_AvFzvJVcndQ", "review_count": 197, "categories": [{"alias": "salad", "title": "Salad"}, {"alias": "breakfast_brunch", "title": "Breakfast & Brunch"}, {"alias": "sandwiches", "title": "Sandwiches"}], "rating": 4.0, "coordinates": {"latitude": 37.819181, "longitude": -121.9976724}, "transactions": [], "price": "$$", "location": {"address1": "405 Railroad Ave", "address2": "", "address3": null, "city": "Danville", "zip_code": "94526", "country": "US", "state": "CA", "display_address": ["405 Railroad Ave", "Danville, CA 94526"]}, "phone": "+18775679240", "display_phone": "(877) 567-9240", "distance": 2786.5869828240716}, {"id": "Ts45fjN6Pr_o0r0pt-fYWA", "alias": "los-panchos-mexican-restaurant-danville", "name": "Los Panchos Mexican Restaurant", "image_url": "https://s3-media4.fl.yelpcdn.com/bphoto/cTE9tbaD4CFirssMidlRYg/o.jpg", "is_closed": false, "url": "https://www.yelp.com/biz/los-panchos-mexican-restaurant-danville?adjust_creative=-1a8ZLzJ76_AvFzvJVcndQ&utm_campaign=yelp_api_v3&utm_medium=api_v3_business_search&utm_source=-1a8ZLzJ76_AvFzvJVcndQ", "review_count": 461, "categories": [{"alias": "mexican", "title": "Mexican"}], "rating": 3.5, "coordinates": {"latitude": 37.8189916, "longitude": -121.9957227}, "transactions": [], "price": "$$", "location": {"address1": "480 San Ramon Valley Blvd", "address2": "", "address3": "", "city": "Danville", "zip_code": "94526", "country": "US", "state": "CA", "display_address": ["480 San Ramon Valley Blvd", "Danville, CA 94526"]}, "phone": "+19258200181", "display_phone": "(925) 820-0181", "distance": 2599.472191510545}, {"id": "D1tNltoGMR2Qoa54DzqCOA", "alias": "thai-house-restaurant-danville", "name": "Thai House Restaurant", "image_url": "https://s3-media2.fl.yelpcdn.com/bphoto/tBPmXLi9khns7wHhTBfmEg/o.jpg", "is_closed": false, "url": "https://www.yelp.com/biz/thai-house-restaurant-danville?adjust_creative=-1a8ZLzJ76_AvFzvJVcndQ&utm_campaign=yelp_api_v3&utm_medium=api_v3_business_search&utm_source=-1a8ZLzJ76_AvFzvJVcndQ", "review_count": 370, "categories": [{"alias": "thai", "title": "Thai"}], "rating": 4.0, "coordinates": {"latitude": 37.823425, "longitude": -122.000367}, "transactions": ["pickup"], "price": "$$", "location": {"address1": "254 Rose Ave", "address2": "", "address3": "", "city": "Danville", "zip_code": "94526", "country": "US", "state": "CA", "display_address": ["254 Rose Ave", "Danville, CA 94526"]}, "phone": "+19258200635", "display_phone": "(925) 820-0635", "distance": 3126.556330236066}, {"id": "NWrtBIEHIjALcDIDXccSjA", "alias": "fat-maddies-grille-san-ramon", "name": "Fat Maddie's Grille", "image_url": "https://s3-media3.fl.yelpcdn.com/bphoto/HP-ac1oCMeZ9-5bNqrVixA/o.jpg", "is_closed": false, "url": "https://www.yelp.com/biz/fat-maddies-grille-san-ramon?adjust_creative=-1a8ZLzJ76_AvFzvJVcndQ&utm_campaign=yelp_api_v3&utm_medium=api_v3_business_search&utm_source=-1a8ZLzJ76_AvFzvJVcndQ", "review_count": 802, "categories": [{"alias": "tradamerican", "title": "American (Traditional)"}], "rating": 4.0, "coordinates": {"latitude": 37.7799, "longitude": -121.9723}, "transactions": [], "price": "$$", "location": {"address1": "2005 Crow Canyon Pl", "address2": "Ste 142", "address3": "", "city": "San Ramon", "zip_code": "94583", "country": "US", "state": "CA", "display_address": ["2005 Crow Canyon Pl", "Ste 142", "San Ramon, CA 94583"]}, "phone": "+19253551975", "display_phone": "(925) 355-1975", "distance": 3829.5786236654967}, {"id": "-N9OQ0RBTSYxJH0rHtUJvA", "alias": "great-impasta-danville", "name": "Great Impasta", "image_url": "https://s3-media1.fl.yelpcdn.com/bphoto/P176chBcPHyZUEBv0NgZbA/o.jpg", "is_closed": false, "url": "https://www.yelp.com/biz/great-impasta-danville?adjust_creative=-1a8ZLzJ76_AvFzvJVcndQ&utm_campaign=yelp_api_v3&utm_medium=api_v3_business_search&utm_source=-1a8ZLzJ76_AvFzvJVcndQ", "review_count": 215, "categories": [{"alias": "italian", "title": "Italian"}, {"alias": "pastashops", "title": "Pasta Shops"}, {"alias": "sandwiches", "title": "Sandwiches"}], "rating": 4.0, "coordinates": {"latitude": 37.8115945, "longitude": -121.9965881}, "transactions": ["delivery", "pickup"], "price": "$$", "location": {"address1": "318 Sycamore Valley Rd W", "address2": "", "address3": "", "city": "Danville", "zip_code": "94526", "country": "US", "state": "CA", "display_address": ["318 Sycamore Valley Rd W", "Danville, CA 94526"]}, "phone": "+19258319363", "display_phone": "(925) 831-9363", "distance": 2639.049247879845}, {"id": "dA2IV6FKICj0HLaFFLcwqA", "alias": "the-growler-danville", "name": "The Growler", "image_url": "https://s3-media3.fl.yelpcdn.com/bphoto/rvCO7CsBbi_uV0LdekLvKg/o.jpg", "is_closed": false, "url": "https://www.yelp.com/biz/the-growler-danville?adjust_creative=-1a8ZLzJ76_AvFzvJVcndQ&utm_campaign=yelp_api_v3&utm_medium=api_v3_business_search&utm_source=-1a8ZLzJ76_AvFzvJVcndQ", "review_count": 262, "categories": [{"alias": "gastropubs", "title": "Gastropubs"}, {"alias": "breakfast_brunch", "title": "Breakfast & Brunch"}, {"alias": "tradamerican", "title": "American (Traditional)"}], "rating": 3.5, "coordinates": {"latitude": 37.81704, "longitude": -121.99701}, "transactions": [], "price": "$$", "location": {"address1": "515 San Ramon Valley Blvd", "address2": "", "address3": "", "city": "Danville", "zip_code": "94526", "country": "US", "state": "CA", "display_address": ["515 San Ramon Valley Blvd", "Danville, CA 94526"]}, "phone": "+19259842706", "display_phone": "(925) 984-2706", "distance": 2668.718044008651}, {"id": "vmk85O2KAfTurySovWfBYQ", "alias": "domenicos-delicatessen-and-cafe-danville-2", "name": "Domenico's Delicatessen & Cafe", "image_url": "https://s3-media2.fl.yelpcdn.com/bphoto/fK6qUV11lymjZre7Tc9faw/o.jpg", "is_closed": false, "url": "https://www.yelp.com/biz/domenicos-delicatessen-and-cafe-danville-2?adjust_creative=-1a8ZLzJ76_AvFzvJVcndQ&utm_campaign=yelp_api_v3&utm_medium=api_v3_business_search&utm_source=-1a8ZLzJ76_AvFzvJVcndQ", "review_count": 517, "categories": [{"alias": "sandwiches", "title": "Sandwiches"}, {"alias": "gelato", "title": "Gelato"}, {"alias": "salad", "title": "Salad"}], "rating": 4.0, "coordinates": {"latitude": 37.819834, "longitude": -121.996603}, "transactions": ["pickup"], "price": "$", "location": {"address1": "682 Hartz Ave", "address2": "", "address3": "", "city": "Danville", "zip_code": "94526", "country": "US", "state": "CA", "display_address": ["682 Hartz Ave", "Danville, CA 94526"]}, "phone": "+19258378301", "display_phone": "(925) 837-8301", "distance": 2696.5296209309136}, {"id": "t-i4RHsLlgj1TUHIH5aY_g", "alias": "sushi-yokohama-danville", "name": "Sushi Yokohama", "image_url": "https://s3-media1.fl.yelpcdn.com/bphoto/vQULnNQVtF2hxib469qTUA/o.jpg", "is_closed": false, "url": "https://www.yelp.com/biz/sushi-yokohama-danville?adjust_creative=-1a8ZLzJ76_AvFzvJVcndQ&utm_campaign=yelp_api_v3&utm_medium=api_v3_business_search&utm_source=-1a8ZLzJ76_AvFzvJVcndQ", "review_count": 239, "categories": [{"alias": "japanese", "title": "Japanese"}], "rating": 3.5, "coordinates": {"latitude": 37.8172799, "longitude": -121.996}, "transactions": ["pickup"], "price": "$$", "location": {"address1": "558 San Ramon Valley Blvd", "address2": "", "address3": "", "city": "Danville", "zip_code": "94526", "country": "US", "state": "CA", "display_address": ["558 San Ramon Valley Blvd", "Danville, CA 94526"]}, "phone": "+19258203823", "display_phone": "(925) 820-3823", "distance": 2570.8125193681226}, {"id": "CAbrgqPW9LqjKYearA13Dw", "alias": "basque-boulangerie-cafe-danville-2", "name": "Basque Boulangerie Cafe", "image_url": "https://s3-media3.fl.yelpcdn.com/bphoto/WbHGh4zR9W_Lz5ydiznQfw/o.jpg", "is_closed": false, "url": "https://www.yelp.com/biz/basque-boulangerie-cafe-danville-2?adjust_creative=-1a8ZLzJ76_AvFzvJVcndQ&utm_campaign=yelp_api_v3&utm_medium=api_v3_business_search&utm_source=-1a8ZLzJ76_AvFzvJVcndQ", "review_count": 229, "categories": [{"alias": "cafes", "title": "Cafes"}, {"alias": "bakeries", "title": "Bakeries"}, {"alias": "desserts", "title": "Desserts"}], "rating": 4.0, "coordinates": {"latitude": 37.821370185698, "longitude": -121.999757858752}, "transactions": [], "price": "$$", "location": {"address1": "411 Hartz Ave", "address2": "Ste A", "address3": null, "city": "Danville", "zip_code": "94526", "country": "US", "state": "CA", "display_address": ["411 Hartz Ave", "Ste A", "Danville, CA 94526"]}, "phone": "+19252081631", "display_phone": "(925) 208-1631", "distance": 3006.952917485129}, {"id": "1INHmm3Cb8UY3jrBwkJp4A", "alias": "faz-restaurants-and-catering-danville-danville", "name": "Faz Restaurants & Catering- Danville", "image_url": "https://s3-media3.fl.yelpcdn.com/bphoto/GXbdC3Al8cC8lGCaXge-Xw/o.jpg", "is_closed": false, "url": "https://www.yelp.com/biz/faz-restaurants-and-catering-danville-danville?adjust_creative=-1a8ZLzJ76_AvFzvJVcndQ&utm_campaign=yelp_api_v3&utm_medium=api_v3_business_search&utm_source=-1a8ZLzJ76_AvFzvJVcndQ", "review_count": 285, "categories": [{"alias": "mediterranean", "title": "Mediterranean"}, {"alias": "venues", "title": "Venues & Event Spaces"}, {"alias": "persian", "title": "Persian/Iranian"}], "rating": 3.5, "coordinates": {"latitude": 37.820212, "longitude": -121.997012}, "transactions": ["pickup"], "price": "$$", "location": {"address1": "600 Hartz Ave", "address2": "", "address3": "", "city": "Danville", "zip_code": "94526", "country": "US", "state": "CA", "display_address": ["600 Hartz Ave", "Danville, CA 94526"]}, "phone": "+19258381320", "display_phone": "(925) 838-1320", "distance": 2740.7043691000813}, {"id": "rcLDR6n6Kbsq_dQ7xTYDIw", "alias": "forge-pizza-danville-danville-2", "name": "Forge Pizza Danville", "image_url": "https://s3-media1.fl.yelpcdn.com/bphoto/dTwrjmTIG8HMOuCgeOVUYw/o.jpg", "is_closed": false, "url": "https://www.yelp.com/biz/forge-pizza-danville-danville-2?adjust_creative=-1a8ZLzJ76_AvFzvJVcndQ&utm_campaign=yelp_api_v3&utm_medium=api_v3_business_search&utm_source=-1a8ZLzJ76_AvFzvJVcndQ", "review_count": 192, "categories": [{"alias": "pizza", "title": "Pizza"}, {"alias": "bars", "title": "Bars"}], "rating": 4.0, "coordinates": {"latitude": 37.819369, "longitude": -121.998053550262}, "transactions": ["pickup"], "price": "$$", "location": {"address1": "345 Railroad Ave", "address2": "Ste B", "address3": "", "city": "Danville", "zip_code": "94526", "country": "US", "state": "CA", "display_address": ["345 Railroad Ave", "Ste B", "Danville, CA 94526"]}, "phone": "+19258551700", "display_phone": "(925) 855-1700", "distance": 2808.4605854944566}, {"id": "XBYlT1tnu2AFosMuoiq6oQ", "alias": "norms-place-danville", "name": "Norm's Place", "image_url": "https://s3-media4.fl.yelpcdn.com/bphoto/gJO8CKhavUUft7XoN46ylQ/o.jpg", "is_closed": false, "url": "https://www.yelp.com/biz/norms-place-danville?adjust_creative=-1a8ZLzJ76_AvFzvJVcndQ&utm_campaign=yelp_api_v3&utm_medium=api_v3_business_search&utm_source=-1a8ZLzJ76_AvFzvJVcndQ", "review_count": 338, "categories": [{"alias": "tradamerican", "title": "American (Traditional)"}, {"alias": "sportsbars", "title": "Sports Bars"}, {"alias": "sandwiches", "title": "Sandwiches"}], "rating": 3.5, "coordinates": {"latitude": 37.82222, "longitude": -122.00006}, "transactions": [], "price": "$$", "location": {"address1": "356 Hartz Ave", "address2": "", "address3": "", "city": "Danville", "zip_code": "94526", "country": "US", "state": "CA", "display_address": ["356 Hartz Ave", "Danville, CA 94526"]}, "phone": "+19255526676", "display_phone": "(925) 552-6676", "distance": 3063.1149507659643}, {"id": "xXRvEWfXSyfVzpxo027qmg", "alias": "tower-grill-danville-2", "name": "Tower Grill", "image_url": "https://s3-media2.fl.yelpcdn.com/bphoto/Q-QDZEYJMxsFE7jTZWph8A/o.jpg", "is_closed": false, "url": "https://www.yelp.com/biz/tower-grill-danville-2?adjust_creative=-1a8ZLzJ76_AvFzvJVcndQ&utm_campaign=yelp_api_v3&utm_medium=api_v3_business_search&utm_source=-1a8ZLzJ76_AvFzvJVcndQ", "review_count": 259, "categories": [{"alias": "tradamerican", "title": "American (Traditional)"}, {"alias": "sportsbars", "title": "Sports Bars"}], "rating": 3.5, "coordinates": {"latitude": 37.82238, "longitude": -122.00116}, "transactions": [], "price": "$$", "location": {"address1": "301 Hartz Ave", "address2": "Ste 103", "address3": "", "city": "Danville", "zip_code": "94526", "country": "US", "state": "CA", "display_address": ["301 Hartz Ave", "Ste 103", "Danville, CA 94526"]}, "phone": "+19258206996", "display_phone": "(925) 820-6996", "distance": 3171.197641746429}, {"id": "rmdFdcdckzUYO5kHz7t6Dw", "alias": "hartz-cafe-danville", "name": "Hartz Cafe", "image_url": "https://s3-media1.fl.yelpcdn.com/bphoto/7a3Zj3b_8yWcj2Wj1WEK3A/o.jpg", "is_closed": false, "url": "https://www.yelp.com/biz/hartz-cafe-danville?adjust_creative=-1a8ZLzJ76_AvFzvJVcndQ&utm_campaign=yelp_api_v3&utm_medium=api_v3_business_search&utm_source=-1a8ZLzJ76_AvFzvJVcndQ", "review_count": 26, "categories": [{"alias": "icecream", "title": "Ice Cream & Frozen Yogurt"}, {"alias": "cafes", "title": "Cafes"}], "rating": 4.5, "coordinates": {"latitude": 37.8220539169295, "longitude": -122.000115915366}, "transactions": [], "location": {"address1": "370 Hartz Ave", "address2": "", "address3": null, "city": "Danville", "zip_code": "94526", "country": "US", "state": "CA", "display_address": ["370 Hartz Ave", "Danville, CA 94526"]}, "phone": "+19258542179", "display_phone": "(925) 854-2179", "distance": 3058.3287588618473}, {"id": "ka8mIEpiPxsQhdGovdP02A", "alias": "el-nido-mexican-restaurant-danville", "name": "El Nido Mexican Restaurant", "image_url": "https://s3-media3.fl.yelpcdn.com/bphoto/lj8UEQ2Avf44kiBe87FxLA/o.jpg", "is_closed": false, "url": "https://www.yelp.com/biz/el-nido-mexican-restaurant-danville?adjust_creative=-1a8ZLzJ76_AvFzvJVcndQ&utm_campaign=yelp_api_v3&utm_medium=api_v3_business_search&utm_source=-1a8ZLzJ76_AvFzvJVcndQ", "review_count": 268, "categories": [{"alias": "mexican", "title": "Mexican"}], "rating": 3.5, "coordinates": {"latitude": 37.814664, "longitude": -121.998067}, "transactions": [], "price": "$$", "location": {"address1": "107 Town And Country Dr", "address2": "Ste A", "address3": "", "city": "Danville", "zip_code": "94526", "country": "US", "state": "CA", "display_address": ["107 Town And Country Dr", "Ste A", "Danville, CA 94526"]}, "phone": "+19258205330", "display_phone": "(925) 820-5330", "distance": 2748.9178006646684}, {"id": "3_ZUdPoVDViqkvx3-wyBVw", "alias": "sushi-bar-hana-danville", "name": "Sushi Bar Hana", "image_url": "https://s3-media1.fl.yelpcdn.com/bphoto/A9oBPVuz16dl0CjADONwEA/o.jpg", "is_closed": false, "url": "https://www.yelp.com/biz/sushi-bar-hana-danville?adjust_creative=-1a8ZLzJ76_AvFzvJVcndQ&utm_campaign=yelp_api_v3&utm_medium=api_v3_business_search&utm_source=-1a8ZLzJ76_AvFzvJVcndQ", "review_count": 128, "categories": [{"alias": "sushi", "title": "Sushi Bars"}, {"alias": "japanese", "title": "Japanese"}], "rating": 4.0, "coordinates": {"latitude": 37.82238, "longitude": -122.00116}, "transactions": [], "price": "$$", "location": {"address1": "301 Hartz Ave", "address2": "Ste 106", "address3": "", "city": "Danville", "zip_code": "94526", "country": "US", "state": "CA", "display_address": ["301 Hartz Ave", "Ste 106", "Danville, CA 94526"]}, "phone": "+19258200670", "display_phone": "(925) 820-0670", "distance": 3171.197641746429}, {"id": "y8AfJKxJMZIy2fN_9EDiCQ", "alias": "black-bear-diner-danville-2", "name": "Black Bear Diner", "image_url": "https://s3-media2.fl.yelpcdn.com/bphoto/eELRmH7rTtBv_RMQiYx5rA/o.jpg", "is_closed": false, "url": "https://www.yelp.com/biz/black-bear-diner-danville-2?adjust_creative=-1a8ZLzJ76_AvFzvJVcndQ&utm_campaign=yelp_api_v3&utm_medium=api_v3_business_search&utm_source=-1a8ZLzJ76_AvFzvJVcndQ", "review_count": 240, "categories": [{"alias": "diners", "title": "Diners"}, {"alias": "breakfast_brunch", "title": "Breakfast & Brunch"}, {"alias": "burgers", "title": "Burgers"}], "rating": 3.5, "coordinates": {"latitude": 37.8102016684444, "longitude": -121.991270242792}, "transactions": [], "price": "$$", "location": {"address1": "807 Camino Ramon", "address2": null, "address3": null, "city": "Danville", "zip_code": "94526", "country": "US", "state": "CA", "display_address": ["807 Camino Ramon", "Danville, CA 94526"]}, "phone": "+19258372327", "display_phone": "(925) 837-2327", "distance": 2194.756908947009}, {"id": "oMw-xBoKOIMoQuDFZTbFVQ", "alias": "amicis-east-coast-pizzeria-danville", "name": "Amici's East Coast Pizzeria", "image_url": "https://s3-media3.fl.yelpcdn.com/bphoto/EobrEcG_G_r09vwQgZmo4g/o.jpg", "is_closed": false, "url": "https://www.yelp.com/biz/amicis-east-coast-pizzeria-danville?adjust_creative=-1a8ZLzJ76_AvFzvJVcndQ&utm_campaign=yelp_api_v3&utm_medium=api_v3_business_search&utm_source=-1a8ZLzJ76_AvFzvJVcndQ", "review_count": 263, "categories": [{"alias": "pizza", "title": "Pizza"}], "rating": 3.5, "coordinates": {"latitude": 37.809847794622, "longitude": -121.990098179932}, "transactions": ["delivery", "pickup"], "price": "$$", "location": {"address1": "720 Camino Ramon", "address2": "Ste 130", "address3": "", "city": "Danville", "zip_code": "94526", "country": "US", "state": "CA", "display_address": ["720 Camino Ramon", "Ste 130", "Danville, CA 94526"]}, "phone": "+19258379800", "display_phone": "(925) 837-9800", "distance": 2102.464801858252}, {"id": "TNH3AhkDxvDkktUgWsa0Ug", "alias": "luna-loca-mexican-restaurant-danville", "name": "Luna Loca Mexican Restaurant", "image_url": "https://s3-media2.fl.yelpcdn.com/bphoto/DNBPRu2uj1A36r13HtYlHw/o.jpg", "is_closed": false, "url": "https://www.yelp.com/biz/luna-loca-mexican-restaurant-danville?adjust_creative=-1a8ZLzJ76_AvFzvJVcndQ&utm_campaign=yelp_api_v3&utm_medium=api_v3_business_search&utm_source=-1a8ZLzJ76_AvFzvJVcndQ", "review_count": 371, "categories": [{"alias": "mexican", "title": "Mexican"}], "rating": 3.0, "coordinates": {"latitude": 37.8118033, "longitude": -121.9968705}, "transactions": ["pickup"], "price": "$$", "location": {"address1": "500 Sycamore Valley Rd W", "address2": "", "address3": "", "city": "Danville", "zip_code": "94526", "country": "US", "state": "CA", "display_address": ["500 Sycamore Valley Rd W", "Danville, CA 94526"]}, "phone": "+19258313644", "display_phone": "(925) 831-3644", "distance": 2633.8553844207404}, {"id": "f-Sj9KbTzvDKpcRGLEpI6w", "alias": "rockys-place-danville", "name": "Rockys Place", "image_url": "https://s3-media2.fl.yelpcdn.com/bphoto/y1poNhkec4lozcrWHqa61g/o.jpg", "is_closed": false, "url": "https://www.yelp.com/biz/rockys-place-danville?adjust_creative=-1a8ZLzJ76_AvFzvJVcndQ&utm_campaign=yelp_api_v3&utm_medium=api_v3_business_search&utm_source=-1a8ZLzJ76_AvFzvJVcndQ", "review_count": 5, "categories": [{"alias": "tradamerican", "title": "American (Traditional)"}, {"alias": "diners", "title": "Diners"}], "rating": 4.0, "coordinates": {"latitude": 37.8143616, "longitude": -121.9944229}, "transactions": [], "location": {"address1": "200 Boone Ct", "address2": "", "address3": "Daville Bowl", "city": "Danville", "zip_code": "94526", "country": "US", "state": "CA", "display_address": ["200 Boone Ct", "Daville Bowl", "Danville, CA 94526"]}, "phone": "", "display_phone": "", "distance": 2454.2529717649268}, {"id": "SDuk5x0_-A_Cm7nXtWCo3w", "alias": "akira-bistro-danville", "name": "Akira Bistro", "image_url": "https://s3-media3.fl.yelpcdn.com/bphoto/o8zVB3p6GSyEj19C6ddCLg/o.jpg", "is_closed": false, "url": "https://www.yelp.com/biz/akira-bistro-danville?adjust_creative=-1a8ZLzJ76_AvFzvJVcndQ&utm_campaign=yelp_api_v3&utm_medium=api_v3_business_search&utm_source=-1a8ZLzJ76_AvFzvJVcndQ", "review_count": 198, "categories": [{"alias": "sushi", "title": "Sushi Bars"}, {"alias": "bars", "title": "Bars"}], "rating": 3.5, "coordinates": {"latitude": 37.81778, "longitude": -121.99696}, "transactions": [], "price": "$$", "location": {"address1": "499 San Ramon Valley Blvd", "address2": "", "address3": "", "city": "Danville", "zip_code": "94526", "country": "US", "state": "CA", "display_address": ["499 San Ramon Valley Blvd", "Danville, CA 94526"]}, "phone": "+19255525888", "display_phone": "(925) 552-5888", "distance": 2671.4603000173292}, {"id": "hQ18_lFUDDKNG5m2k65kSw", "alias": "leos-chinese-restaurant-danville", "name": "Leo's Chinese Restaurant", "image_url": "https://s3-media3.fl.yelpcdn.com/bphoto/-4cQ3dhb_Sx4FSDYeyFXIQ/o.jpg", "is_closed": false, "url": "https://www.yelp.com/biz/leos-chinese-restaurant-danville?adjust_creative=-1a8ZLzJ76_AvFzvJVcndQ&utm_campaign=yelp_api_v3&utm_medium=api_v3_business_search&utm_source=-1a8ZLzJ76_AvFzvJVcndQ", "review_count": 127, "categories": [{"alias": "chinese", "title": "Chinese"}], "rating": 3.5, "coordinates": {"latitude": 37.814643, "longitude": -121.998149}, "transactions": ["delivery", "pickup"], "price": "$$", "location": {"address1": "105C Town Country Dr", "address2": "", "address3": "", "city": "Danville", "zip_code": "94526", "country": "US", "state": "CA", "display_address": ["105C Town Country Dr", "Danville, CA 94526"]}, "phone": "+19258208887", "display_phone": "(925) 820-8887", "distance": 2756.068645463867}, {"id": "MsNmFyRk7mU88Ett1_938Q", "alias": "china-gourmet-danville", "name": "China Gourmet", "image_url": "https://s3-media4.fl.yelpcdn.com/bphoto/F9XhtMdDPeyl-vYOHNl3qg/o.jpg", "is_closed": false, "url": "https://www.yelp.com/biz/china-gourmet-danville?adjust_creative=-1a8ZLzJ76_AvFzvJVcndQ&utm_campaign=yelp_api_v3&utm_medium=api_v3_business_search&utm_source=-1a8ZLzJ76_AvFzvJVcndQ", "review_count": 71, "categories": [{"alias": "chinese", "title": "Chinese"}], "rating": 3.5, "coordinates": {"latitude": 37.8230549, "longitude": -121.9923385}, "transactions": ["delivery", "pickup"], "price": "$$", "location": {"address1": "426 Diablo Rd", "address2": null, "address3": "", "city": "Danville", "zip_code": "94526", "country": "US", "state": "CA", "display_address": ["426 Diablo Rd", "Danville, CA 94526"]}, "phone": "+19258202736", "display_phone": "(925) 820-2736", "distance": 2535.954447380396}, {"id": "I_U7-WuQqRBhoimmweWqPA", "alias": "la-manquina-taco-truck-danville", "name": "La Manquina - Taco Truck", "image_url": "https://s3-media2.fl.yelpcdn.com/bphoto/udc8rT7anh6kP6BN1n4Lyg/o.jpg", "is_closed": false, "url": "https://www.yelp.com/biz/la-manquina-taco-truck-danville?adjust_creative=-1a8ZLzJ76_AvFzvJVcndQ&utm_campaign=yelp_api_v3&utm_medium=api_v3_business_search&utm_source=-1a8ZLzJ76_AvFzvJVcndQ", "review_count": 7, "categories": [{"alias": "foodtrucks", "title": "Food Trucks"}, {"alias": "mexican", "title": "Mexican"}], "rating": 4.5, "coordinates": {"latitude": 37.845089, "longitude": -121.9811096}, "transactions": [], "price": "$$$", "location": {"address1": "Between Mvhs & Oak Hill Park-on Stone Valley Rd", "address2": "", "address3": "", "city": "Danville", "zip_code": "94526", "country": "US", "state": "CA", "display_address": ["Between Mvhs & Oak Hill Park-on Stone Valley Rd", "Danville, CA 94526"]}, "phone": "+15103725128", "display_phone": "(510) 372-5128", "distance": 3749.5027116063548}, {"id": "4R6z8mn5t6hO8DDoTHTfIw", "alias": "primos-pizzeria-and-pub-danville-3", "name": "Primo's Pizzeria & Pub", "image_url": "https://s3-media1.fl.yelpcdn.com/bphoto/3q2WNyEamrnQWentBzJkKQ/o.jpg", "is_closed": false, "url": "https://www.yelp.com/biz/primos-pizzeria-and-pub-danville-3?adjust_creative=-1a8ZLzJ76_AvFzvJVcndQ&utm_campaign=yelp_api_v3&utm_medium=api_v3_business_search&utm_source=-1a8ZLzJ76_AvFzvJVcndQ", "review_count": 223, "categories": [{"alias": "pizza", "title": "Pizza"}, {"alias": "sportsbars", "title": "Sports Bars"}], "rating": 3.5, "coordinates": {"latitude": 37.82287, "longitude": -122.00074}, "transactions": ["delivery", "pickup"], "price": "$$", "location": {"address1": "298 Hartz Ave", "address2": "", "address3": "", "city": "Danville", "zip_code": "94526", "country": "US", "state": "CA", "display_address": ["298 Hartz Ave", "Danville, CA 94526"]}, "phone": "+19258388214", "display_phone": "(925) 838-8214", "distance": 3133.0669716397406}, {"id": "FVmdtTR4E4Mwn8y66vR-pA", "alias": "on-fire-pizza-san-ramon", "name": "On Fire Pizza", "image_url": "https://s3-media1.fl.yelpcdn.com/bphoto/XtCEltL_QP7HCIuAFp_x6Q/o.jpg", "is_closed": false, "url": "https://www.yelp.com/biz/on-fire-pizza-san-ramon?adjust_creative=-1a8ZLzJ76_AvFzvJVcndQ&utm_campaign=yelp_api_v3&utm_medium=api_v3_business_search&utm_source=-1a8ZLzJ76_AvFzvJVcndQ", "review_count": 439, "categories": [{"alias": "pizza", "title": "Pizza"}], "rating": 4.0, "coordinates": {"latitude": 37.7799, "longitude": -121.9723}, "transactions": ["pickup", "delivery"], "price": "$$", "location": {"address1": "2005 Crow Canyon Pl", "address2": "", "address3": "", "city": "San Ramon", "zip_code": "94583", "country": "US", "state": "CA", "display_address": ["2005 Crow Canyon Pl", "San Ramon, CA 94583"]}, "phone": "+19258046318", "display_phone": "(925) 804-6318", "distance": 3829.5786236654967}, {"id": "jCU3z1DZ48uC3YauPRbpyg", "alias": "tals-patisserie-danville-2", "name": "Tal's Patisserie", "image_url": "https://s3-media2.fl.yelpcdn.com/bphoto/VCu9DTzevHNtC-SyADJkcQ/o.jpg", "is_closed": false, "url": "https://www.yelp.com/biz/tals-patisserie-danville-2?adjust_creative=-1a8ZLzJ76_AvFzvJVcndQ&utm_campaign=yelp_api_v3&utm_medium=api_v3_business_search&utm_source=-1a8ZLzJ76_AvFzvJVcndQ", "review_count": 100, "categories": [{"alias": "bakeries", "title": "Bakeries"}, {"alias": "breakfast_brunch", "title": "Breakfast & Brunch"}, {"alias": "cookingclasses", "title": "Cooking Classes"}], "rating": 4.0, "coordinates": {"latitude": 37.812928, "longitude": -121.996469}, "transactions": ["pickup"], "price": "$$", "location": {"address1": "304 Sycamore Valley Rd W", "address2": "", "address3": "", "city": "Danville", "zip_code": "94526", "country": "US", "state": "CA", "display_address": ["304 Sycamore Valley Rd W", "Danville, CA 94526"]}, "phone": "+19258208100", "display_phone": "(925) 820-8100", "distance": 2611.2134226357307}, {"id": "g5w2XRQAbGTWbBbimFe_ng", "alias": "costco-food-court-danville", "name": "Costco Food Court", "image_url": "https://s3-media2.fl.yelpcdn.com/bphoto/sNT6naSEB575Jo2pkasvfg/o.jpg", "is_closed": false, "url": "https://www.yelp.com/biz/costco-food-court-danville?adjust_creative=-1a8ZLzJ76_AvFzvJVcndQ&utm_campaign=yelp_api_v3&utm_medium=api_v3_business_search&utm_source=-1a8ZLzJ76_AvFzvJVcndQ", "review_count": 36, "categories": [{"alias": "icecream", "title": "Ice Cream & Frozen Yogurt"}, {"alias": "food_court", "title": "Food Court"}], "rating": 3.5, "coordinates": {"latitude": 37.78259, "longitude": -121.97285}, "transactions": [], "price": "$", "location": {"address1": "3150 Fostoria Way", "address2": "", "address3": "", "city": "Danville", "zip_code": "94526", "country": "US", "state": "CA", "display_address": ["3150 Fostoria Way", "Danville, CA 94526"]}, "phone": "+19252770407", "display_phone": "(925) 277-0407", "distance": 3546.417007412021}, {"id": "Qx9GgEmVy9jKLAPwd6s3nA", "alias": "cafe-attila-san-ramon", "name": "Cafe Attila", "image_url": "https://s3-media4.fl.yelpcdn.com/bphoto/YioIV8_y4J5lMyn6VD6EUA/o.jpg", "is_closed": false, "url": "https://www.yelp.com/biz/cafe-attila-san-ramon?adjust_creative=-1a8ZLzJ76_AvFzvJVcndQ&utm_campaign=yelp_api_v3&utm_medium=api_v3_business_search&utm_source=-1a8ZLzJ76_AvFzvJVcndQ", "review_count": 469, "categories": [{"alias": "bakeries", "title": "Bakeries"}, {"alias": "cafes", "title": "Cafes"}, {"alias": "breakfast_brunch", "title": "Breakfast & Brunch"}], "rating": 4.5, "coordinates": {"latitude": 37.7817571, "longitude": -121.9790308}, "transactions": [], "price": "$$", "location": {"address1": "2211 San Ramon Valley Blvd", "address2": "Ste B", "address3": "", "city": "San Ramon", "zip_code": "94583", "country": "US", "state": "CA", "display_address": ["2211 San Ramon Valley Blvd", "Ste B", "San Ramon, CA 94583"]}, "phone": "+19258372886", "display_phone": "(925) 837-2886", "distance": 3802.7266259876474}, {"id": "chzazVcRC99IAG22jX-vYg", "alias": "brass-door-san-ramon", "name": "Brass Door", "image_url": "https://s3-media3.fl.yelpcdn.com/bphoto/EmS5Q-rZzqfBZjLspn2NHA/o.jpg", "is_closed": false, "url": "https://www.yelp.com/biz/brass-door-san-ramon?adjust_creative=-1a8ZLzJ76_AvFzvJVcndQ&utm_campaign=yelp_api_v3&utm_medium=api_v3_business_search&utm_source=-1a8ZLzJ76_AvFzvJVcndQ", "review_count": 463, "categories": [{"alias": "tradamerican", "title": "American (Traditional)"}, {"alias": "venues", "title": "Venues & Event Spaces"}, {"alias": "steak", "title": "Steakhouses"}], "rating": 3.5, "coordinates": {"latitude": 37.7822599, "longitude": -121.978686}, "transactions": [], "price": "$$", "location": {"address1": "2154 San Ramon Vly Blvd", "address2": "", "address3": "", "city": "San Ramon", "zip_code": "94583", "country": "US", "state": "CA", "display_address": ["2154 San Ramon Vly Blvd", "San Ramon, CA 94583"]}, "phone": "+19258372501", "display_phone": "(925) 837-2501", "distance": 3693.058123084473}, {"id": "mYOEIi9LsZfU1a-ovaGcgg", "alias": "round-table-pizza-danville-3", "name": "Round Table Pizza", "image_url": "https://s3-media1.fl.yelpcdn.com/bphoto/z6t2FcE2aEU_59ip_l7W6A/o.jpg", "is_closed": false, "url": "https://www.yelp.com/biz/round-table-pizza-danville-3?adjust_creative=-1a8ZLzJ76_AvFzvJVcndQ&utm_campaign=yelp_api_v3&utm_medium=api_v3_business_search&utm_source=-1a8ZLzJ76_AvFzvJVcndQ", "review_count": 44, "categories": [{"alias": "pizza", "title": "Pizza"}, {"alias": "chicken_wings", "title": "Chicken Wings"}], "rating": 3.0, "coordinates": {"latitude": 37.813681, "longitude": -121.9961263}, "transactions": ["delivery", "pickup"], "price": "$$", "location": {"address1": "629 San Ramon Valley Blvd", "address2": "", "address3": null, "city": "Danville", "zip_code": "94526", "country": "US", "state": "CA", "display_address": ["629 San Ramon Valley Blvd", "Danville, CA 94526"]}, "phone": "+19258204000", "display_phone": "(925) 820-4000", "distance": 2635.159472215054}, {"id": "umdgBkv1Klhm5jV5Uz_NHA", "alias": "sakiya-sushi-san-ramon", "name": "Sakiya Sushi", "image_url": "https://s3-media1.fl.yelpcdn.com/bphoto/nlXFHOP7vMu-oQiY0iilpQ/o.jpg", "is_closed": false, "url": "https://www.yelp.com/biz/sakiya-sushi-san-ramon?adjust_creative=-1a8ZLzJ76_AvFzvJVcndQ&utm_campaign=yelp_api_v3&utm_medium=api_v3_business_search&utm_source=-1a8ZLzJ76_AvFzvJVcndQ", "review_count": 96, "categories": [{"alias": "sushi", "title": "Sushi Bars"}, {"alias": "japanese", "title": "Japanese"}], "rating": 4.0, "coordinates": {"latitude": 37.7799, "longitude": -121.9723}, "transactions": ["delivery"], "price": "$$", "location": {"address1": "2005 Crow Canyon Pl", "address2": "Ste 138", "address3": "", "city": "San Ramon", "zip_code": "94583", "country": "US", "state": "CA", "display_address": ["2005 Crow Canyon Pl", "Ste 138", "San Ramon, CA 94583"]}, "phone": "+19253596835", "display_phone": "(925) 359-6835", "distance": 3829.5786236654967}, {"id": "hVIVE8LAvxMmns0IgJReXQ", "alias": "jersey-mikes-subs-danville-2", "name": "Jersey Mike's Subs", "image_url": "https://s3-media2.fl.yelpcdn.com/bphoto/eq_cRNJKE_wZyaMLgbb8QA/o.jpg", "is_closed": false, "url": "https://www.yelp.com/biz/jersey-mikes-subs-danville-2?adjust_creative=-1a8ZLzJ76_AvFzvJVcndQ&utm_campaign=yelp_api_v3&utm_medium=api_v3_business_search&utm_source=-1a8ZLzJ76_AvFzvJVcndQ", "review_count": 120, "categories": [{"alias": "sandwiches", "title": "Sandwiches"}, {"alias": "hotdogs", "title": "Fast Food"}, {"alias": "delis", "title": "Delis"}], "rating": 4.0, "coordinates": {"latitude": 37.822416, "longitude": -122.000942}, "transactions": ["delivery", "pickup"], "price": "$", "location": {"address1": "301 Hartz Ave", "address2": "Ste 100", "address3": "", "city": "Danville", "zip_code": "94526", "country": "US", "state": "CA", "display_address": ["301 Hartz Ave", "Ste 100", "Danville, CA 94526"]}, "phone": "+19254064978", "display_phone": "(925) 406-4978", "distance": 3139.4684347196435}, {"id": "WtSrjUHPa7rqCK5vKWnyEw", "alias": "sushi-foodie-san-ramon", "name": "Sushi Foodie", "image_url": "https://s3-media1.fl.yelpcdn.com/bphoto/eDJnPVJwsLzZeOYBbg-mnQ/o.jpg", "is_closed": false, "url": "https://www.yelp.com/biz/sushi-foodie-san-ramon?adjust_creative=-1a8ZLzJ76_AvFzvJVcndQ&utm_campaign=yelp_api_v3&utm_medium=api_v3_business_search&utm_source=-1a8ZLzJ76_AvFzvJVcndQ", "review_count": 108, "categories": [{"alias": "japanese", "title": "Japanese"}, {"alias": "sushi", "title": "Sushi Bars"}], "rating": 3.5, "coordinates": {"latitude": 37.78141, "longitude": -121.9795}, "transactions": ["delivery", "pickup"], "price": "$", "location": {"address1": "2217 San Ramon Valley Blvd", "address2": "Ste L", "address3": "", "city": "San Ramon", "zip_code": "94583", "country": "US", "state": "CA", "display_address": ["2217 San Ramon Valley Blvd", "Ste L", "San Ramon, CA 94583"]}, "phone": "+19252081844", "display_phone": "(925) 208-1844", "distance": 3836.5266838933408}, {"id": "u-XOFPvvIW6iE7VZeBPyfw", "alias": "bagel-street-cafe-danville", "name": "Bagel Street Cafe", "image_url": "https://s3-media3.fl.yelpcdn.com/bphoto/HmHAxtsSPmx-tnk8PLcDZA/o.jpg", "is_closed": false, "url": "https://www.yelp.com/biz/bagel-street-cafe-danville?adjust_creative=-1a8ZLzJ76_AvFzvJVcndQ&utm_campaign=yelp_api_v3&utm_medium=api_v3_business_search&utm_source=-1a8ZLzJ76_AvFzvJVcndQ", "review_count": 92, "categories": [{"alias": "bagels", "title": "Bagels"}, {"alias": "cafes", "title": "Cafes"}], "rating": 3.0, "coordinates": {"latitude": 37.8115924, "longitude": -121.9965846}, "transactions": [], "price": "$", "location": {"address1": "316 Sycamore Valley Rd W", "address2": "", "address3": "", "city": "Danville", "zip_code": "94526", "country": "US", "state": "CA", "display_address": ["316 Sycamore Valley Rd W", "Danville, CA 94526"]}, "phone": "+19258319318", "display_phone": "(925) 831-9318", "distance": 2627.4654743062197}, {"id": "V_IAC2RY_bJE_fXAKEVOYg", "alias": "brittany-crepes-farmers-market-danville-4", "name": "Brittany Crepes Farmer's Market", "image_url": "https://s3-media3.fl.yelpcdn.com/bphoto/GPOxUBcXNF8FjWOsvz-aHw/o.jpg", "is_closed": false, "url": "https://www.yelp.com/biz/brittany-crepes-farmers-market-danville-4?adjust_creative=-1a8ZLzJ76_AvFzvJVcndQ&utm_campaign=yelp_api_v3&utm_medium=api_v3_business_search&utm_source=-1a8ZLzJ76_AvFzvJVcndQ", "review_count": 7, "categories": [{"alias": "french", "title": "French"}, {"alias": "creperies", "title": "Creperies"}], "rating": 3.5, "coordinates": {"latitude": 37.82068, "longitude": -122.00035}, "transactions": [], "price": "$", "location": {"address1": "205 Railroad Ave", "address2": null, "address3": "", "city": "Danville", "zip_code": "94526", "country": "US", "state": "CA", "display_address": ["205 Railroad Ave", "Danville, CA 94526"]}, "phone": "+15109840730", "display_phone": "(510) 984-0730", "distance": 3050.6233974753764}, {"id": "-_9ziGO1q2146omyVN30Ww", "alias": "three-brothers-from-china-san-ramon-4", "name": "Three Brothers From China", "image_url": "https://s3-media4.fl.yelpcdn.com/bphoto/xPvae_EDeAV3sWI_YLuehw/o.jpg", "is_closed": false, "url": "https://www.yelp.com/biz/three-brothers-from-china-san-ramon-4?adjust_creative=-1a8ZLzJ76_AvFzvJVcndQ&utm_campaign=yelp_api_v3&utm_medium=api_v3_business_search&utm_source=-1a8ZLzJ76_AvFzvJVcndQ", "review_count": 392, "categories": [{"alias": "chinese", "title": "Chinese"}, {"alias": "seafood", "title": "Seafood"}], "rating": 3.5, "coordinates": {"latitude": 37.781745, "longitude": -121.980063}, "transactions": [], "price": "$$", "location": {"address1": "2211 San Ramon Valley Blvd", "address2": "Ste H", "address3": "", "city": "San Ramon", "zip_code": "94583", "country": "US", "state": "CA", "display_address": ["2211 San Ramon Valley Blvd", "Ste H", "San Ramon, CA 94583"]}, "phone": "+19258389600", "display_phone": "(925) 838-9600", "distance": 3783.5526821322437}, {"id": "Phnel-il0Czzo9qHgwFGAg", "alias": "taco-bell-danville-4", "name": "Taco Bell", "image_url": "https://s3-media1.fl.yelpcdn.com/bphoto/bH0zxoeXJyIlSVJLQL8a9A/o.jpg", "is_closed": false, "url": "https://www.yelp.com/biz/taco-bell-danville-4?adjust_creative=-1a8ZLzJ76_AvFzvJVcndQ&utm_campaign=yelp_api_v3&utm_medium=api_v3_business_search&utm_source=-1a8ZLzJ76_AvFzvJVcndQ", "review_count": 69, "categories": [{"alias": "hotdogs", "title": "Fast Food"}, {"alias": "tacos", "title": "Tacos"}], "rating": 2.5, "coordinates": {"latitude": 37.822943, "longitude": -121.992844}, "transactions": ["delivery"], "price": "$", "location": {"address1": "420 Diablo Road", "address2": "Ste 420", "address3": "", "city": "Danville", "zip_code": "94526", "country": "US", "state": "CA", "display_address": ["420 Diablo Road", "Ste 420", "Danville, CA 94526"]}, "phone": "+19254060184", "display_phone": "(925) 406-0184", "distance": 2490.987124949633}, {"id": "xomxVUXe8Sy5R2nt7qBxxg", "alias": "fired-mobile-pizza-oven-stockton", "name": "FIRED Mobile Pizza Oven", "image_url": "https://s3-media4.fl.yelpcdn.com/bphoto/JV4MGBFFrJGZQbmtdoOLFQ/o.jpg", "is_closed": false, "url": "https://www.yelp.com/biz/fired-mobile-pizza-oven-stockton?adjust_creative=-1a8ZLzJ76_AvFzvJVcndQ&utm_campaign=yelp_api_v3&utm_medium=api_v3_business_search&utm_source=-1a8ZLzJ76_AvFzvJVcndQ", "review_count": 8, "categories": [{"alias": "pizza", "title": "Pizza"}, {"alias": "catering", "title": "Caterers"}, {"alias": "foodtrucks", "title": "Food Trucks"}], "rating": 5.0, "coordinates": {"latitude": 38.0521138, "longitude": -121.3484448}, "transactions": [], "location": {"address1": null, "address2": null, "address3": "", "city": "Stockton", "zip_code": "95209", "country": "US", "state": "CA", "display_address": ["Stockton, CA 95209"]}, "phone": "+12092424105", "display_phone": "(209) 242-4105", "distance": 60342.44070192195}, {"id": "EgSft_9BVj-hUqkLzs7r3g", "alias": "valley-medlyns-fountain-and-coffee-shop-danville", "name": "Valley Medlyn's Fountain & Coffee Shop", "image_url": "https://s3-media1.fl.yelpcdn.com/bphoto/G2c_wTbsxuso4ZLFo1bz-A/o.jpg", "is_closed": false, "url": "https://www.yelp.com/biz/valley-medlyns-fountain-and-coffee-shop-danville?adjust_creative=-1a8ZLzJ76_AvFzvJVcndQ&utm_campaign=yelp_api_v3&utm_medium=api_v3_business_search&utm_source=-1a8ZLzJ76_AvFzvJVcndQ", "review_count": 215, "categories": [{"alias": "diners", "title": "Diners"}, {"alias": "coffee", "title": "Coffee & Tea"}, {"alias": "breakfast_brunch", "title": "Breakfast & Brunch"}], "rating": 3.5, "coordinates": {"latitude": 37.8222636, "longitude": -122.0003169}, "transactions": [], "price": "$$", "location": {"address1": "330 Hartz Ave", "address2": "", "address3": "", "city": "Danville", "zip_code": "94526", "country": "US", "state": "CA", "display_address": ["330 Hartz Ave", "Danville, CA 94526"]}, "phone": "+19255526449", "display_phone": "(925) 552-6449", "distance": 3093.1811802260027}, {"id": "erAsvUfahzZ-y4tF6BPC_w", "alias": "hyderabad-biryani-house-san-ramon", "name": "Hyderabad Biryani House", "image_url": "https://s3-media4.fl.yelpcdn.com/bphoto/omcnb2yf2ro9WSWDTJvqxQ/o.jpg", "is_closed": false, "url": "https://www.yelp.com/biz/hyderabad-biryani-house-san-ramon?adjust_creative=-1a8ZLzJ76_AvFzvJVcndQ&utm_campaign=yelp_api_v3&utm_medium=api_v3_business_search&utm_source=-1a8ZLzJ76_AvFzvJVcndQ", "review_count": 343, "categories": [{"alias": "indpak", "title": "Indian"}], "rating": 3.5, "coordinates": {"latitude": 37.781163, "longitude": -121.979323}, "transactions": ["pickup"], "price": "$", "location": {"address1": "2217-D San Ramon Valley Blvd", "address2": "", "address3": "", "city": "San Ramon", "zip_code": "94583", "country": "US", "state": "CA", "display_address": ["2217-D San Ramon Valley Blvd", "San Ramon, CA 94583"]}, "phone": "+19258389090", "display_phone": "(925) 838-9090", "distance": 3825.9354207744964}, {"id": "40DtuR_HxNuBVf_uSoy66Q", "alias": "keeku-da-dhaba-fremont-2", "name": "Keeku da Dhaba", "image_url": "https://s3-media2.fl.yelpcdn.com/bphoto/8x2WS8oGXINIKI6pNnQYBw/o.jpg", "is_closed": false, "url": "https://www.yelp.com/biz/keeku-da-dhaba-fremont-2?adjust_creative=-1a8ZLzJ76_AvFzvJVcndQ&utm_campaign=yelp_api_v3&utm_medium=api_v3_business_search&utm_source=-1a8ZLzJ76_AvFzvJVcndQ", "review_count": 115, "categories": [{"alias": "indpak", "title": "Indian"}, {"alias": "foodtrucks", "title": "Food Trucks"}, {"alias": "kebab", "title": "Kebab"}], "rating": 4.5, "coordinates": {"latitude": 37.551938, "longitude": -121.985058}, "transactions": [], "location": {"address1": "3400 Mowry Ave", "address2": "", "address3": "Bharat Bazaar Parking Space", "city": "Fremont", "zip_code": "94538", "country": "US", "state": "CA", "display_address": ["3400 Mowry Ave", "Bharat Bazaar Parking Space", "Fremont, CA 94538"]}, "phone": "+15107893437", "display_phone": "(510) 789-3437", "distance": 29188.920769428798}, {"id": "CUwBAy6lrFi4x6Neu9eRVw", "alias": "mini-street-burger-alameda-3", "name": "Mini Street Burger", "image_url": "https://s3-media2.fl.yelpcdn.com/bphoto/Kh-OQKBIclWY1dCeIuu57w/o.jpg", "is_closed": false, "url": "https://www.yelp.com/biz/mini-street-burger-alameda-3?adjust_creative=-1a8ZLzJ76_AvFzvJVcndQ&utm_campaign=yelp_api_v3&utm_medium=api_v3_business_search&utm_source=-1a8ZLzJ76_AvFzvJVcndQ", "review_count": 28, "categories": [{"alias": "foodtrucks", "title": "Food Trucks"}, {"alias": "burgers", "title": "Burgers"}], "rating": 4.0, "coordinates": {"latitude": 37.82628, "longitude": -122.25101}, "transactions": [], "location": {"address1": null, "address2": null, "address3": null, "city": "Alameda", "zip_code": "94611", "country": "US", "state": "CA", "display_address": ["Alameda, CA 94611"]}, "phone": "+15108278982", "display_phone": "(510) 827-8982", "distance": 20859.407175304095}, {"id": "dijxqggp99ObWFANKPZmIg", "alias": "pearl-garden-san-ramon", "name": "Pearl Garden", "image_url": "https://s3-media2.fl.yelpcdn.com/bphoto/O6zi04ygAg28Wv8r8vihsA/o.jpg", "is_closed": false, "url": "https://www.yelp.com/biz/pearl-garden-san-ramon?adjust_creative=-1a8ZLzJ76_AvFzvJVcndQ&utm_campaign=yelp_api_v3&utm_medium=api_v3_business_search&utm_source=-1a8ZLzJ76_AvFzvJVcndQ", "review_count": 315, "categories": [{"alias": "chinese", "title": "Chinese"}], "rating": 3.5, "coordinates": {"latitude": 37.780704498291, "longitude": -121.969223022461}, "transactions": ["delivery", "pickup"], "price": "$$", "location": {"address1": "2101 Camino Ramon", "address2": "Ste 100", "address3": "", "city": "San Ramon", "zip_code": "94583", "country": "US", "state": "CA", "display_address": ["2101 Camino Ramon", "Ste 100", "San Ramon, CA 94583"]}, "phone": "+19253559888", "display_phone": "(925) 355-9888", "distance": 3723.2161098906176}, {"id": "rQZ4ea3rUgLjpcbAK9BJ3A", "alias": "mitaku-japanese-restaurant-danville", "name": "Mitaku Japanese Restaurant", "image_url": "", "is_closed": false, "url": "https://www.yelp.com/biz/mitaku-japanese-restaurant-danville?adjust_creative=-1a8ZLzJ76_AvFzvJVcndQ&utm_campaign=yelp_api_v3&utm_medium=api_v3_business_search&utm_source=-1a8ZLzJ76_AvFzvJVcndQ", "review_count": 2, "categories": [{"alias": "sushi", "title": "Sushi Bars"}, {"alias": "asianfusion", "title": "Asian Fusion"}, {"alias": "japanese", "title": "Japanese"}], "rating": 4.0, "coordinates": {"latitude": 37.8102893341752, "longitude": -121.993562176662}, "transactions": [], "location": {"address1": "", "address2": "", "address3": "Crow Canyon Rd", "city": "Danville", "zip_code": "", "country": "US", "state": "CA", "display_address": ["Crow Canyon Rd", "Danville, CA"]}, "phone": "", "display_phone": "", "distance": 2390.6825880819756}, {"id": "DC42MrpWtqEeWRmMsn6Z8w", "alias": "the-everest-momo-fremont-2", "name": "The Everest Momo", "image_url": "https://s3-media2.fl.yelpcdn.com/bphoto/T2f7tUQ1c104otx9oSdqYw/o.jpg", "is_closed": false, "url": "https://www.yelp.com/biz/the-everest-momo-fremont-2?adjust_creative=-1a8ZLzJ76_AvFzvJVcndQ&utm_campaign=yelp_api_v3&utm_medium=api_v3_business_search&utm_source=-1a8ZLzJ76_AvFzvJVcndQ", "review_count": 23, "categories": [{"alias": "foodtrucks", "title": "Food Trucks"}, {"alias": "indpak", "title": "Indian"}, {"alias": "himalayan", "title": "Himalayan/Nepalese"}], "rating": 4.5, "coordinates": {"latitude": 37.54643, "longitude": -121.98512}, "transactions": [], "price": "$", "location": {"address1": "39233 Fremont Blvd", "address2": null, "address3": null, "city": "Fremont", "zip_code": "94538", "country": "US", "state": "CA", "display_address": ["39233 Fremont Blvd", "Fremont, CA 94538"]}, "phone": "+14088406369", "display_phone": "(408) 840-6369", "distance": 29798.495322291514}, {"id": "gq9MBuOAa7jpiJ6kw0kNgg", "alias": "best-donuts-san-ramon-2", "name": "Best Donuts", "image_url": "https://s3-media1.fl.yelpcdn.com/bphoto/MNlMUjvegVhMzCygvRoXBw/o.jpg", "is_closed": false, "url": "https://www.yelp.com/biz/best-donuts-san-ramon-2?adjust_creative=-1a8ZLzJ76_AvFzvJVcndQ&utm_campaign=yelp_api_v3&utm_medium=api_v3_business_search&utm_source=-1a8ZLzJ76_AvFzvJVcndQ", "review_count": 91, "categories": [{"alias": "donuts", "title": "Donuts"}, {"alias": "sandwiches", "title": "Sandwiches"}, {"alias": "breakfast_brunch", "title": "Breakfast & Brunch"}], "rating": 4.5, "coordinates": {"latitude": 37.7811172957128, "longitude": -121.979463847228}, "transactions": ["delivery", "pickup"], "price": "$", "location": {"address1": "2217 San Ramon Valley Blvd", "address2": "Ste K", "address3": "", "city": "San Ramon", "zip_code": "94583", "country": "US", "state": "CA", "display_address": ["2217 San Ramon Valley Blvd", "Ste K", "San Ramon, CA 94583"]}, "phone": "+19258388388", "display_phone": "(925) 838-8388", "distance": 3834.3806438993547}, {"id": "7O48CyGgeKzqYD_SsOeVYQ", "alias": "togo-s-sandwiches-danville-2", "name": "Togo\u2019s Sandwiches", "image_url": "https://s3-media3.fl.yelpcdn.com/bphoto/8eienM67sB8g8EDrTThQEg/o.jpg", "is_closed": false, "url": "https://www.yelp.com/biz/togo-s-sandwiches-danville-2?adjust_creative=-1a8ZLzJ76_AvFzvJVcndQ&utm_campaign=yelp_api_v3&utm_medium=api_v3_business_search&utm_source=-1a8ZLzJ76_AvFzvJVcndQ", "review_count": 95, "categories": [{"alias": "sandwiches", "title": "Sandwiches"}, {"alias": "delis", "title": "Delis"}, {"alias": "hotdogs", "title": "Fast Food"}], "rating": 3.0, "coordinates": {"latitude": 37.8137255, "longitude": -121.9961396}, "transactions": ["delivery", "pickup"], "price": "$", "location": {"address1": "625 San Ramon Valley Blvd", "address2": null, "address3": "", "city": "Danville", "zip_code": "94526", "country": "US", "state": "CA", "display_address": ["625 San Ramon Valley Blvd", "Danville, CA 94526"]}, "phone": "+19258312560", "display_phone": "(925) 831-2560", "distance": 2608.2094247134673}, {"id": "LIMiFwn684D_hFK_kp49SA", "alias": "panda-express-danville", "name": "Panda Express", "image_url": "https://s3-media2.fl.yelpcdn.com/bphoto/dVOHqhTOz3ZFxhHcaepzAA/o.jpg", "is_closed": false, "url": "https://www.yelp.com/biz/panda-express-danville?adjust_creative=-1a8ZLzJ76_AvFzvJVcndQ&utm_campaign=yelp_api_v3&utm_medium=api_v3_business_search&utm_source=-1a8ZLzJ76_AvFzvJVcndQ", "review_count": 59, "categories": [{"alias": "chinese", "title": "Chinese"}, {"alias": "hotdogs", "title": "Fast Food"}], "rating": 2.0, "coordinates": {"latitude": 37.818186, "longitude": -121.996932}, "transactions": [], "price": "$", "location": {"address1": "495 San Ramon Valley Blvd", "address2": "", "address3": "", "city": "Danville", "zip_code": "94526", "country": "US", "state": "CA", "display_address": ["495 San Ramon Valley Blvd", "Danville, CA 94526"]}, "phone": "+19253141389", "display_phone": "(925) 314-1389", "distance": 2686.921415561204}, {"id": "84Irk5lNFXfWCvLmz2llLg", "alias": "rodericks-restaurant-and-mobile-catering-oakland", "name": "Roderick's Restaurant & Mobile Catering", "image_url": "https://s3-media3.fl.yelpcdn.com/bphoto/OiqF8ctxchXEXUqOl_jbSg/o.jpg", "is_closed": false, "url": "https://www.yelp.com/biz/rodericks-restaurant-and-mobile-catering-oakland?adjust_creative=-1a8ZLzJ76_AvFzvJVcndQ&utm_campaign=yelp_api_v3&utm_medium=api_v3_business_search&utm_source=-1a8ZLzJ76_AvFzvJVcndQ", "review_count": 128, "categories": [{"alias": "foodtrucks", "title": "Food Trucks"}, {"alias": "southern", "title": "Southern"}], "rating": 4.5, "coordinates": {"latitude": 37.751577, "longitude": -122.153708}, "transactions": [], "price": "$", "location": {"address1": "2708 98th Ave", "address2": "", "address3": "", "city": "Oakland", "zip_code": "94605", "country": "US", "state": "CA", "display_address": ["2708 98th Ave", "Oakland, CA 94605"]}, "phone": "+15105644648", "display_phone": "(510) 564-4648", "distance": 17838.481182126267}, {"id": "ON1y6LnQosDiri8aA_DoNw", "alias": "dominos-pizza-danville-5", "name": "Domino's Pizza", "image_url": "https://s3-media3.fl.yelpcdn.com/bphoto/CFojOWFpz_WrKcqPzILsYA/o.jpg", "is_closed": false, "url": "https://www.yelp.com/biz/dominos-pizza-danville-5?adjust_creative=-1a8ZLzJ76_AvFzvJVcndQ&utm_campaign=yelp_api_v3&utm_medium=api_v3_business_search&utm_source=-1a8ZLzJ76_AvFzvJVcndQ", "review_count": 34, "categories": [{"alias": "pizza", "title": "Pizza"}, {"alias": "chicken_wings", "title": "Chicken Wings"}, {"alias": "sandwiches", "title": "Sandwiches"}], "rating": 2.5, "coordinates": {"latitude": 37.8180678, "longitude": -121.9964651}, "transactions": [], "price": "$", "location": {"address1": "504 San Ramon Valley Blvd", "address2": "", "address3": "", "city": "Danville", "zip_code": "94526", "country": "US", "state": "CA", "display_address": ["504 San Ramon Valley Blvd", "Danville, CA 94526"]}, "phone": "+19258559400", "display_phone": "(925) 855-9400", "distance": 2584.7482854832547}, {"id": "7hoR85ZbJVRQ98Q14OlQZQ", "alias": "cosa-nostra-pasta-truck-berkeley", "name": "Cosa Nostra Pasta Truck", "image_url": "https://s3-media1.fl.yelpcdn.com/bphoto/kJNRKi9NzgsPf3KmTr_fAg/o.jpg", "is_closed": false, "url": "https://www.yelp.com/biz/cosa-nostra-pasta-truck-berkeley?adjust_creative=-1a8ZLzJ76_AvFzvJVcndQ&utm_campaign=yelp_api_v3&utm_medium=api_v3_business_search&utm_source=-1a8ZLzJ76_AvFzvJVcndQ", "review_count": 31, "categories": [{"alias": "foodtrucks", "title": "Food Trucks"}, {"alias": "italian", "title": "Italian"}], "rating": 5.0, "coordinates": {"latitude": 37.8760173212886, "longitude": -122.303487025201}, "transactions": [], "price": "$$", "location": {"address1": "701 Page St", "address2": null, "address3": null, "city": "Berkeley", "zip_code": "94710", "country": "US", "state": "CA", "display_address": ["701 Page St", "Berkeley, CA 94710"]}, "phone": "+15102448782", "display_phone": "(510) 244-8782", "distance": 30355.986868046522}, {"id": "r4Ipgd-MJ0isMbhpznSYEw", "alias": "sunrise-bagels-cafe-san-ramon", "name": "Sunrise Bagels Cafe", "image_url": "https://s3-media4.fl.yelpcdn.com/bphoto/X5Q5RtuUaRPJ5P_uxA70ew/o.jpg", "is_closed": false, "url": "https://www.yelp.com/biz/sunrise-bagels-cafe-san-ramon?adjust_creative=-1a8ZLzJ76_AvFzvJVcndQ&utm_campaign=yelp_api_v3&utm_medium=api_v3_business_search&utm_source=-1a8ZLzJ76_AvFzvJVcndQ", "review_count": 185, "categories": [{"alias": "bagels", "title": "Bagels"}, {"alias": "breakfast_brunch", "title": "Breakfast & Brunch"}, {"alias": "bubbletea", "title": "Bubble Tea"}], "rating": 4.0, "coordinates": {"latitude": 37.7799, "longitude": -121.9723}, "transactions": ["delivery", "pickup"], "price": "$", "location": {"address1": "2005 Crow Canyon Pl", "address2": "Ste 132", "address3": "", "city": "San Ramon", "zip_code": "94583", "country": "US", "state": "CA", "display_address": ["2005 Crow Canyon Pl", "Ste 132", "San Ramon, CA 94583"]}, "phone": "+19252421188", "display_phone": "(925) 242-1188", "distance": 3829.5786236654967}, {"id": "sR0Wy3LYGdYV9HLszRlMmw", "alias": "tacos-la-palmita-stockton", "name": "Tacos La Palmita", "image_url": "https://s3-media2.fl.yelpcdn.com/bphoto/pzYoRmZjUQqxZ7qOyU7hUQ/o.jpg", "is_closed": false, "url": "https://www.yelp.com/biz/tacos-la-palmita-stockton?adjust_creative=-1a8ZLzJ76_AvFzvJVcndQ&utm_campaign=yelp_api_v3&utm_medium=api_v3_business_search&utm_source=-1a8ZLzJ76_AvFzvJVcndQ", "review_count": 90, "categories": [{"alias": "tacos", "title": "Tacos"}, {"alias": "foodtrucks", "title": "Food Trucks"}], "rating": 4.5, "coordinates": {"latitude": 38.008129, "longitude": -121.320219}, "transactions": ["delivery", "pickup"], "price": "$", "location": {"address1": "6393 Pacific Ave", "address2": null, "address3": null, "city": "Stockton", "zip_code": "95207", "country": "US", "state": "CA", "display_address": ["6393 Pacific Ave", "Stockton, CA 95207"]}, "phone": "+12093026825", "display_phone": "(209) 302-6825", "distance": 60686.100937369796}, {"id": "rM6pPB_qmQ3de5yGpfLT1g", "alias": "lomo-libre-san-francisco-2", "name": "Lomo Libre", "image_url": "https://s3-media1.fl.yelpcdn.com/bphoto/vjnO-EUjFHKoLMy2_JQYvg/o.jpg", "is_closed": false, "url": "https://www.yelp.com/biz/lomo-libre-san-francisco-2?adjust_creative=-1a8ZLzJ76_AvFzvJVcndQ&utm_campaign=yelp_api_v3&utm_medium=api_v3_business_search&utm_source=-1a8ZLzJ76_AvFzvJVcndQ", "review_count": 8, "categories": [{"alias": "foodtrucks", "title": "Food Trucks"}, {"alias": "peruvian", "title": "Peruvian"}], "rating": 5.0, "coordinates": {"latitude": 37.799634, "longitude": -122.436301}, "transactions": [], "location": {"address1": "2101 Lombard St", "address2": "", "address3": null, "city": "San Francisco", "zip_code": "94123", "country": "US", "state": "CA", "display_address": ["2101 Lombard St", "San Francisco, CA 94123"]}, "phone": "+14156198149", "display_phone": "(415) 619-8149", "distance": 41280.48491466623}, {"id": "XCC2GEmWwwsb6LoeZLaqXA", "alias": "momolicious-san-francisco-2", "name": "MOMOlicious", "image_url": "https://s3-media1.fl.yelpcdn.com/bphoto/3yNgEihH74gOY8BSlXWZtg/o.jpg", "is_closed": false, "url": "https://www.yelp.com/biz/momolicious-san-francisco-2?adjust_creative=-1a8ZLzJ76_AvFzvJVcndQ&utm_campaign=yelp_api_v3&utm_medium=api_v3_business_search&utm_source=-1a8ZLzJ76_AvFzvJVcndQ", "review_count": 100, "categories": [{"alias": "foodtrucks", "title": "Food Trucks"}, {"alias": "himalayan", "title": "Himalayan/Nepalese"}, {"alias": "noodles", "title": "Noodles"}], "rating": 4.5, "coordinates": {"latitude": 37.7945413, "longitude": -122.3949711}, "transactions": [], "price": "$$", "location": {"address1": "10 Market St", "address2": null, "address3": "", "city": "San Francisco", "zip_code": "94105", "country": "US", "state": "CA", "display_address": ["10 Market St", "San Francisco, CA 94105"]}, "phone": "+15102876606", "display_phone": "(510) 287-6606", "distance": 37616.00361215061}, {"id": "cdmsJafomRCcbQwtQWqYFQ", "alias": "le-petit-corner-danville", "name": "Le Petit Corner", "image_url": "", "is_closed": false, "url": "https://www.yelp.com/biz/le-petit-corner-danville?adjust_creative=-1a8ZLzJ76_AvFzvJVcndQ&utm_campaign=yelp_api_v3&utm_medium=api_v3_business_search&utm_source=-1a8ZLzJ76_AvFzvJVcndQ", "review_count": 1, "categories": [{"alias": "cafes", "title": "Cafes"}], "rating": 5.0, "coordinates": {"latitude": 37.8196115, "longitude": -121.9983738}, "transactions": [], "location": {"address1": "345 Railroad Ave", "address2": "", "address3": "", "city": "Danville", "zip_code": "94526", "country": "US", "state": "CA", "display_address": ["345 Railroad Ave", "Danville, CA 94526"]}, "phone": "+19258383934", "display_phone": "(925) 838-3934", "distance": 2870.0624552715435}, {"id": "lgheXsHqe66AEZwoPDIEpw", "alias": "taco-coma-newark", "name": "Taco Coma", "image_url": "https://s3-media3.fl.yelpcdn.com/bphoto/DDz5lZDL5lDiRR_Ph0L4Sg/o.jpg", "is_closed": false, "url": "https://www.yelp.com/biz/taco-coma-newark?adjust_creative=-1a8ZLzJ76_AvFzvJVcndQ&utm_campaign=yelp_api_v3&utm_medium=api_v3_business_search&utm_source=-1a8ZLzJ76_AvFzvJVcndQ", "review_count": 3, "categories": [{"alias": "foodstands", "title": "Food Stands"}, {"alias": "tacos", "title": "Tacos"}], "rating": 5.0, "coordinates": {"latitude": 37.53453, "longitude": -122.03284}, "transactions": [], "location": {"address1": "", "address2": null, "address3": "", "city": "Newark", "zip_code": "94560", "country": "US", "state": "CA", "display_address": ["Newark, CA 94560"]}, "phone": "+15106971448", "display_phone": "(510) 697-1448", "distance": 32217.037867304753}, {"id": "RsgxKM4y5V_po23Iy3lTww", "alias": "fiya-spice-caribbean-pittsburg", "name": "Fiya Spice Caribbean", "image_url": "https://s3-media1.fl.yelpcdn.com/bphoto/7NBUdJXMLVWdJqIumy-GBg/o.jpg", "is_closed": false, "url": "https://www.yelp.com/biz/fiya-spice-caribbean-pittsburg?adjust_creative=-1a8ZLzJ76_AvFzvJVcndQ&utm_campaign=yelp_api_v3&utm_medium=api_v3_business_search&utm_source=-1a8ZLzJ76_AvFzvJVcndQ", "review_count": 1, "categories": [{"alias": "foodtrucks", "title": "Food Trucks"}, {"alias": "caribbean", "title": "Caribbean"}, {"alias": "catering", "title": "Caterers"}], "rating": 5.0, "coordinates": {"latitude": 38.011279, "longitude": -121.876098}, "transactions": [], "location": {"address1": "", "address2": null, "address3": "", "city": "Pittsburg", "zip_code": "94565", "country": "US", "state": "CA", "display_address": ["Pittsburg, CA 94565"]}, "phone": "+15106863325", "display_phone": "(510) 686-3325", "distance": 23322.630804468536}, {"id": "tJ3_yKZNMIjkJHH2Rb7VXQ", "alias": "burger-king-danville-6", "name": "Burger King", "image_url": "https://s3-media3.fl.yelpcdn.com/bphoto/b-CrQc1ok4wRCwkb0AUdqg/o.jpg", "is_closed": false, "url": "https://www.yelp.com/biz/burger-king-danville-6?adjust_creative=-1a8ZLzJ76_AvFzvJVcndQ&utm_campaign=yelp_api_v3&utm_medium=api_v3_business_search&utm_source=-1a8ZLzJ76_AvFzvJVcndQ", "review_count": 54, "categories": [{"alias": "hotdogs", "title": "Fast Food"}, {"alias": "burgers", "title": "Burgers"}], "rating": 2.0, "coordinates": {"latitude": 37.819629, "longitude": -121.995949}, "transactions": [], "price": "$", "location": {"address1": "444 Front Street", "address2": "", "address3": "", "city": "Danville", "zip_code": "94526", "country": "US", "state": "CA", "display_address": ["444 Front Street", "Danville, CA 94526"]}, "phone": "+19258205077", "display_phone": "(925) 820-5077", "distance": 2635.4588447016117}, {"id": "7TYFWn3BYuwmFvpkx32vtw", "alias": "subway-restaurants-danville-3", "name": "Subway Restaurants", "image_url": "https://s3-media4.fl.yelpcdn.com/bphoto/xYi6AnSbIB8QAfH7gfjtww/o.jpg", "is_closed": false, "url": "https://www.yelp.com/biz/subway-restaurants-danville-3?adjust_creative=-1a8ZLzJ76_AvFzvJVcndQ&utm_campaign=yelp_api_v3&utm_medium=api_v3_business_search&utm_source=-1a8ZLzJ76_AvFzvJVcndQ", "review_count": 29, "categories": [{"alias": "sandwiches", "title": "Sandwiches"}], "rating": 2.0, "coordinates": {"latitude": 37.809934, "longitude": -121.989876}, "transactions": [], "price": "$", "location": {"address1": "730 Camino Ramon", "address2": "Suite 196", "address3": "", "city": "Danville", "zip_code": "94526", "country": "US", "state": "CA", "display_address": ["730 Camino Ramon", "Suite 196", "Danville, CA 94526"]}, "phone": "+19258202489", "display_phone": "(925) 820-2489", "distance": 2104.4923873053754}, {"id": "ojUAPwlCiu_4vm_Z0ZqiYQ", "alias": "bayareatacocatering-belmont", "name": "BayAreaTacoCatering", "image_url": "https://s3-media2.fl.yelpcdn.com/bphoto/GMhjsoS5maG6UsosVN8Yhw/o.jpg", "is_closed": false, "url": "https://www.yelp.com/biz/bayareatacocatering-belmont?adjust_creative=-1a8ZLzJ76_AvFzvJVcndQ&utm_campaign=yelp_api_v3&utm_medium=api_v3_business_search&utm_source=-1a8ZLzJ76_AvFzvJVcndQ", "review_count": 24, "categories": [{"alias": "tacos", "title": "Tacos"}, {"alias": "catering", "title": "Caterers"}, {"alias": "foodtrucks", "title": "Food Trucks"}], "rating": 5.0, "coordinates": {"latitude": 37.5117858227472, "longitude": -122.292540979695}, "transactions": [], "price": "$", "location": {"address1": null, "address2": null, "address3": "", "city": "Belmont", "zip_code": "94002", "country": "US", "state": "CA", "display_address": ["Belmont, CA 94002"]}, "phone": "+15108666832", "display_phone": "(510) 866-6832", "distance": 44185.29331844185}, {"id": "uDiET4svV2YANPkSPDB9wQ", "alias": "o-my-cr\u00eapes-dublin-2", "name": "O My Cr\u00eapes!", "image_url": "https://s3-media2.fl.yelpcdn.com/bphoto/fhO5f-An4GYyPjPv57A66Q/o.jpg", "is_closed": false, "url": "https://www.yelp.com/biz/o-my-cr%C3%AApes-dublin-2?adjust_creative=-1a8ZLzJ76_AvFzvJVcndQ&utm_campaign=yelp_api_v3&utm_medium=api_v3_business_search&utm_source=-1a8ZLzJ76_AvFzvJVcndQ", "review_count": 52, "categories": [{"alias": "foodtrucks", "title": "Food Trucks"}, {"alias": "creperies", "title": "Creperies"}, {"alias": "catering", "title": "Caterers"}], "rating": 5.0, "coordinates": {"latitude": 37.71604, "longitude": -121.91311}, "transactions": [], "price": "$$", "location": {"address1": "", "address2": null, "address3": null, "city": "Dublin", "zip_code": "94568", "country": "US", "state": "CA", "display_address": ["Dublin, CA 94568"]}, "phone": "+19259848338", "display_phone": "(925) 984-8338", "distance": 11998.814806753508}, {"id": "8SNGFcMWZkvS4GWDUL8w1Q", "alias": "noon-o-kabob-san-jose-4", "name": "Noon O Kabob", "image_url": "https://s3-media2.fl.yelpcdn.com/bphoto/5GmY5FRw0m0XEWC5XXbVlA/o.jpg", "is_closed": false, "url": "https://www.yelp.com/biz/noon-o-kabob-san-jose-4?adjust_creative=-1a8ZLzJ76_AvFzvJVcndQ&utm_campaign=yelp_api_v3&utm_medium=api_v3_business_search&utm_source=-1a8ZLzJ76_AvFzvJVcndQ", "review_count": 29, "categories": [{"alias": "foodtrucks", "title": "Food Trucks"}, {"alias": "kebab", "title": "Kebab"}, {"alias": "persian", "title": "Persian/Iranian"}], "rating": 4.5, "coordinates": {"latitude": 37.3940232, "longitude": -122.0288052}, "transactions": [], "price": "$$", "location": {"address1": null, "address2": null, "address3": null, "city": "San Jose", "zip_code": "95101", "country": "US", "state": "CA", "display_address": ["San Jose, CA 95101"]}, "phone": "+14083346777", "display_phone": "(408) 334-6777", "distance": 47030.21264917149}, {"id": "s5cVAyAbq4fQzNFmdsEFHw", "alias": "mountain-mikes-pizza-san-ramon", "name": "Mountain Mike's Pizza", "image_url": "https://s3-media4.fl.yelpcdn.com/bphoto/UVo98bEEGOEMRCIbo1yMGg/o.jpg", "is_closed": false, "url": "https://www.yelp.com/biz/mountain-mikes-pizza-san-ramon?adjust_creative=-1a8ZLzJ76_AvFzvJVcndQ&utm_campaign=yelp_api_v3&utm_medium=api_v3_business_search&utm_source=-1a8ZLzJ76_AvFzvJVcndQ", "review_count": 61, "categories": [{"alias": "pizza", "title": "Pizza"}], "rating": 3.5, "coordinates": {"latitude": 37.7817404, "longitude": -121.9792933}, "transactions": ["delivery", "pickup"], "price": "$$", "location": {"address1": "2205 San Ramon Valley Rd", "address2": "", "address3": null, "city": "San Ramon", "zip_code": "94583", "country": "US", "state": "CA", "display_address": ["2205 San Ramon Valley Rd", "San Ramon, CA 94583"]}, "phone": "+19253149600", "display_phone": "(925) 314-9600", "distance": 3763.7332924587913}, {"id": "ssiXZdW_fHsJ4V7PQb-KzQ", "alias": "wendys-san-ramon", "name": "Wendy's", "image_url": "https://s3-media2.fl.yelpcdn.com/bphoto/ZhqFQ-aShKWi0Z8uTuLXsw/o.jpg", "is_closed": false, "url": "https://www.yelp.com/biz/wendys-san-ramon?adjust_creative=-1a8ZLzJ76_AvFzvJVcndQ&utm_campaign=yelp_api_v3&utm_medium=api_v3_business_search&utm_source=-1a8ZLzJ76_AvFzvJVcndQ", "review_count": 50, "categories": [{"alias": "hotdogs", "title": "Fast Food"}, {"alias": "burgers", "title": "Burgers"}], "rating": 3.0, "coordinates": {"latitude": 37.78125, "longitude": -121.97805}, "transactions": ["delivery", "pickup"], "price": "$", "location": {"address1": "2222 San Ramon Valley Blvd", "address2": "", "address3": null, "city": "San Ramon", "zip_code": "94583", "country": "US", "state": "CA", "display_address": ["2222 San Ramon Valley Blvd", "San Ramon, CA 94583"]}, "phone": "+19253806592", "display_phone": "(925) 380-6592", "distance": 3790.2745750667223}, {"id": "uuouQQIFQ1B9mkmcxaAKFA", "alias": "tacos-el-rey-oakland", "name": "Tacos El Rey", "image_url": "https://s3-media2.fl.yelpcdn.com/bphoto/DblyFrtT9uyPCQAUfPbYbQ/o.jpg", "is_closed": false, "url": "https://www.yelp.com/biz/tacos-el-rey-oakland?adjust_creative=-1a8ZLzJ76_AvFzvJVcndQ&utm_campaign=yelp_api_v3&utm_medium=api_v3_business_search&utm_source=-1a8ZLzJ76_AvFzvJVcndQ", "review_count": 9, "categories": [{"alias": "foodtrucks", "title": "Food Trucks"}, {"alias": "mexican", "title": "Mexican"}], "rating": 4.0, "coordinates": {"latitude": 37.8294034, "longitude": -122.2875758}, "transactions": [], "price": "$", "location": {"address1": "40th & Horton", "address2": "", "address3": null, "city": "Oakland", "zip_code": "94608", "country": "US", "state": "CA", "display_address": ["40th & Horton", "Oakland, CA 94608"]}, "phone": "+15108130232", "display_phone": "(510) 813-0232", "distance": 28228.27398702765}, {"id": "Xrh60IV1AvrE_zVjhKA3BA", "alias": "european-deli-san-ramon", "name": "European Deli", "image_url": "https://s3-media4.fl.yelpcdn.com/bphoto/fDk1pjACha099DwML_6FfA/o.jpg", "is_closed": false, "url": "https://www.yelp.com/biz/european-deli-san-ramon?adjust_creative=-1a8ZLzJ76_AvFzvJVcndQ&utm_campaign=yelp_api_v3&utm_medium=api_v3_business_search&utm_source=-1a8ZLzJ76_AvFzvJVcndQ", "review_count": 29, "categories": [{"alias": "delis", "title": "Delis"}], "rating": 3.0, "coordinates": {"latitude": 37.7817998, "longitude": -121.9790511}, "transactions": [], "price": "$$", "location": {"address1": "2211 San Ramon Valley Blvd", "address2": "Ste F", "address3": null, "city": "San Ramon", "zip_code": "94583", "country": "US", "state": "CA", "display_address": ["2211 San Ramon Valley Blvd", "Ste F", "San Ramon, CA 94583"]}, "phone": "+19258202053", "display_phone": "(925) 820-2053", "distance": 3803.287950236966}, {"id": "STivkK3UrBW9VB2LDDMqLA", "alias": "buon-appetito-cafe-san-ramon", "name": "Buon Appetito Cafe", "image_url": "https://s3-media2.fl.yelpcdn.com/bphoto/h-OzqmhcRa03K_3zGdmHOg/o.jpg", "is_closed": false, "url": "https://www.yelp.com/biz/buon-appetito-cafe-san-ramon?adjust_creative=-1a8ZLzJ76_AvFzvJVcndQ&utm_campaign=yelp_api_v3&utm_medium=api_v3_business_search&utm_source=-1a8ZLzJ76_AvFzvJVcndQ", "review_count": 2, "categories": [{"alias": "delis", "title": "Delis"}], "rating": 5.0, "coordinates": {"latitude": 37.7804617, "longitude": -121.9641586}, "transactions": [], "price": "$", "location": {"address1": "12949 Alcosta Blvd", "address2": "Ste 100", "address3": "", "city": "San Ramon", "zip_code": "94583", "country": "US", "state": "CA", "display_address": ["12949 Alcosta Blvd", "Ste 100", "San Ramon, CA 94583"]}, "phone": "+19258301021", "display_phone": "(925) 830-1021", "distance": 3814.7631774539996}, {"id": "G_AveuAL65huOja0spM3pA", "alias": "emilios-delicatessen-and-catering-danville", "name": "Emilio's Delicatessen & Catering", "image_url": "", "is_closed": false, "url": "https://www.yelp.com/biz/emilios-delicatessen-and-catering-danville?adjust_creative=-1a8ZLzJ76_AvFzvJVcndQ&utm_campaign=yelp_api_v3&utm_medium=api_v3_business_search&utm_source=-1a8ZLzJ76_AvFzvJVcndQ", "review_count": 5, "categories": [{"alias": "catering", "title": "Caterers"}, {"alias": "delis", "title": "Delis"}], "rating": 3.0, "coordinates": {"latitude": 37.813681, "longitude": -121.9961263}, "transactions": [], "price": "$$", "location": {"address1": "629 San Ramon Valley Blvd", "address2": "", "address3": "", "city": "Danville", "zip_code": "94526", "country": "US", "state": "CA", "display_address": ["629 San Ramon Valley Blvd", "Danville, CA 94526"]}, "phone": "+19258370565", "display_phone": "(925) 837-0565", "distance": 2634.9047320546183}, {"id": "XTJJ_PUQoJKIh31ZIzsFzw", "alias": "cochinita-food-truck-san-francisco-6", "name": "Cochinita Food Truck", "image_url": "https://s3-media2.fl.yelpcdn.com/bphoto/w77SOd2jVJjOh1lwuYQ42w/o.jpg", "is_closed": false, "url": "https://www.yelp.com/biz/cochinita-food-truck-san-francisco-6?adjust_creative=-1a8ZLzJ76_AvFzvJVcndQ&utm_campaign=yelp_api_v3&utm_medium=api_v3_business_search&utm_source=-1a8ZLzJ76_AvFzvJVcndQ", "review_count": 49, "categories": [{"alias": "foodtrucks", "title": "Food Trucks"}, {"alias": "mexican", "title": "Mexican"}], "rating": 4.5, "coordinates": {"latitude": 37.770753, "longitude": -122.3916722}, "transactions": [], "price": "$", "location": {"address1": "601 Mission Blvd N", "address2": null, "address3": "", "city": "San Francisco", "zip_code": "94103", "country": "US", "state": "CA", "display_address": ["601 Mission Blvd N", "San Francisco, CA 94103"]}, "phone": "+14159883663", "display_phone": "(415) 988-3663", "distance": 37645.177041175244}, {"id": "1-h0IwRxYtAdkz7qUFAFGA", "alias": "sweetish-pancakes-danville", "name": "Sweet'ish Pancakes", "image_url": "", "is_closed": false, "url": "https://www.yelp.com/biz/sweetish-pancakes-danville?adjust_creative=-1a8ZLzJ76_AvFzvJVcndQ&utm_campaign=yelp_api_v3&utm_medium=api_v3_business_search&utm_source=-1a8ZLzJ76_AvFzvJVcndQ", "review_count": 1, "categories": [{"alias": "pancakes", "title": "Pancakes"}], "rating": 3.0, "coordinates": {"latitude": 37.8316192626953, "longitude": -122.004768371582}, "transactions": [], "location": {"address1": "", "address2": "", "address3": "", "city": "Danville", "zip_code": "", "country": "US", "state": "CA", "display_address": ["Danville, CA"]}, "phone": "", "display_phone": "", "distance": 3030.8105930631646}, {"id": "QrNedmmK2U675XhAnXlqrA", "alias": "kfc-san-ramon", "name": "KFC", "image_url": "https://s3-media2.fl.yelpcdn.com/bphoto/J-eV4F4TZ8QU221wjX1lGQ/o.jpg", "is_closed": false, "url": "https://www.yelp.com/biz/kfc-san-ramon?adjust_creative=-1a8ZLzJ76_AvFzvJVcndQ&utm_campaign=yelp_api_v3&utm_medium=api_v3_business_search&utm_source=-1a8ZLzJ76_AvFzvJVcndQ", "review_count": 98, "categories": [{"alias": "hotdogs", "title": "Fast Food"}, {"alias": "chicken_wings", "title": "Chicken Wings"}, {"alias": "chickenshop", "title": "Chicken Shop"}], "rating": 2.0, "coordinates": {"latitude": 37.7840762211862, "longitude": -121.979601020255}, "transactions": ["delivery", "pickup"], "price": "$", "location": {"address1": "2020 San Ramon Valley Blvd", "address2": "", "address3": "", "city": "San Ramon", "zip_code": "94583", "country": "US", "state": "CA", "display_address": ["2020 San Ramon Valley Blvd", "San Ramon, CA 94583"]}, "phone": "+19258202124", "display_phone": "(925) 820-2124", "distance": 3524.68779599018}, {"id": "jCcAuXhCpeJP2n-8ol7mxg", "alias": "kolobok-russian-soul-food-truck-oakland", "name": "Kolobok Russian Soul Food Truck", "image_url": "https://s3-media1.fl.yelpcdn.com/bphoto/k8s1Bfc05Iw7SJXE6VJ74Q/o.jpg", "is_closed": false, "url": "https://www.yelp.com/biz/kolobok-russian-soul-food-truck-oakland?adjust_creative=-1a8ZLzJ76_AvFzvJVcndQ&utm_campaign=yelp_api_v3&utm_medium=api_v3_business_search&utm_source=-1a8ZLzJ76_AvFzvJVcndQ", "review_count": 47, "categories": [{"alias": "foodtrucks", "title": "Food Trucks"}, {"alias": "russian", "title": "Russian"}], "rating": 4.5, "coordinates": {"latitude": 37.7883087690458, "longitude": -122.309032460882}, "transactions": [], "price": "$$", "location": {"address1": null, "address2": null, "address3": "", "city": "Oakland", "zip_code": "94577", "country": "US", "state": "CA", "display_address": ["Oakland, CA 94577"]}, "phone": "+15105996542", "display_phone": "(510) 599-6542", "distance": 30206.615213490404}, {"id": "C9uewBH5505NV0EWYBIJAA", "alias": "lady-and-l-aperitivo-san-jose", "name": "Lady & L'Aperitivo", "image_url": "https://s3-media4.fl.yelpcdn.com/bphoto/3nz0sRE9MlOq_4xVRQRt9w/o.jpg", "is_closed": false, "url": "https://www.yelp.com/biz/lady-and-l-aperitivo-san-jose?adjust_creative=-1a8ZLzJ76_AvFzvJVcndQ&utm_campaign=yelp_api_v3&utm_medium=api_v3_business_search&utm_source=-1a8ZLzJ76_AvFzvJVcndQ", "review_count": 1, "categories": [{"alias": "bakeries", "title": "Bakeries"}, {"alias": "desserts", "title": "Desserts"}, {"alias": "cheesesteaks", "title": "Cheesesteaks"}], "rating": 5.0, "coordinates": {"latitude": 37.2208938598633, "longitude": -121.861633300781}, "transactions": [], "location": {"address1": null, "address2": null, "address3": "", "city": "San Jose", "zip_code": "95120", "country": "US", "state": "CA", "display_address": ["San Jose, CA 95120"]}, "phone": "", "display_phone": "", "distance": 72458.0025621428}, {"id": "S9MYGapWK7T7oKUEYLz6Iw", "alias": "the-boneyard-san-bruno-3", "name": "The Boneyard", "image_url": "https://s3-media3.fl.yelpcdn.com/bphoto/uG6EEbOomy5tsXTsHGodxg/o.jpg", "is_closed": false, "url": "https://www.yelp.com/biz/the-boneyard-san-bruno-3?adjust_creative=-1a8ZLzJ76_AvFzvJVcndQ&utm_campaign=yelp_api_v3&utm_medium=api_v3_business_search&utm_source=-1a8ZLzJ76_AvFzvJVcndQ", "review_count": 87, "categories": [{"alias": "foodtrucks", "title": "Food Trucks"}, {"alias": "bbq", "title": "Barbeque"}, {"alias": "catering", "title": "Caterers"}], "rating": 3.5, "coordinates": {"latitude": 37.7939188282826, "longitude": -122.400518522289}, "transactions": ["pickup", "delivery"], "price": "$$", "location": {"address1": "1225 San Mateo Ave", "address2": null, "address3": "", "city": "San Bruno", "zip_code": "94066", "country": "US", "state": "CA", "display_address": ["1225 San Mateo Ave", "San Bruno, CA 94066"]}, "phone": "+14159350696", "display_phone": "(415) 935-0696", "distance": 38172.60740993507}, {"id": "45j3e0TA-DDvwk2bvM19Rw", "alias": "burger-king-san-ramon", "name": "Burger King", "image_url": "https://s3-media3.fl.yelpcdn.com/bphoto/Hl6Wzd5dTwVq2YxcEYhdHg/o.jpg", "is_closed": false, "url": "https://www.yelp.com/biz/burger-king-san-ramon?adjust_creative=-1a8ZLzJ76_AvFzvJVcndQ&utm_campaign=yelp_api_v3&utm_medium=api_v3_business_search&utm_source=-1a8ZLzJ76_AvFzvJVcndQ", "review_count": 62, "categories": [{"alias": "hotdogs", "title": "Fast Food"}, {"alias": "burgers", "title": "Burgers"}], "rating": 1.5, "coordinates": {"latitude": 37.7813218, "longitude": -121.9655543}, "transactions": [], "price": "$", "location": {"address1": "3440 Crow Canyon Rd", "address2": "", "address3": "", "city": "San Ramon", "zip_code": "94583", "country": "US", "state": "CA", "display_address": ["3440 Crow Canyon Rd", "San Ramon, CA 94583"]}, "phone": "+19258661102", "display_phone": "(925) 866-1102", "distance": 3628.572416970576}, {"id": "PGRmK_CAqM54V-LJ8rZWJg", "alias": "green-burrito-san-ramon", "name": "Green Burrito", "image_url": "https://s3-media2.fl.yelpcdn.com/bphoto/Ow5n7LTy-RW6YnuSGv94Bw/o.jpg", "is_closed": false, "url": "https://www.yelp.com/biz/green-burrito-san-ramon?adjust_creative=-1a8ZLzJ76_AvFzvJVcndQ&utm_campaign=yelp_api_v3&utm_medium=api_v3_business_search&utm_source=-1a8ZLzJ76_AvFzvJVcndQ", "review_count": 3, "categories": [{"alias": "mexican", "title": "Mexican"}], "rating": 2.5, "coordinates": {"latitude": 37.779264, "longitude": -121.969167}, "transactions": [], "location": {"address1": "3131 Crow Canyon Rd", "address2": "", "address3": "", "city": "San Ramon", "zip_code": "94583", "country": "US", "state": "CA", "display_address": ["3131 Crow Canyon Rd", "San Ramon, CA 94583"]}, "phone": "+19258661156", "display_phone": "(925) 866-1156", "distance": 3880.635325535945}, {"id": "Mij1ZvLLpqvNmJFWNz9IsQ", "alias": "paquitas-mexican-grill-sacramento-2", "name": "Paquitas Mexican Grill", "image_url": "https://s3-media2.fl.yelpcdn.com/bphoto/Onav96dKMe8cWeFXMNFcyQ/o.jpg", "is_closed": false, "url": "https://www.yelp.com/biz/paquitas-mexican-grill-sacramento-2?adjust_creative=-1a8ZLzJ76_AvFzvJVcndQ&utm_campaign=yelp_api_v3&utm_medium=api_v3_business_search&utm_source=-1a8ZLzJ76_AvFzvJVcndQ", "review_count": 73, "categories": [{"alias": "foodtrucks", "title": "Food Trucks"}, {"alias": "mexican", "title": "Mexican"}], "rating": 4.0, "coordinates": {"latitude": 38.549732, "longitude": -121.406281}, "transactions": [], "price": "$", "location": {"address1": "49 Bicentennial Cir", "address2": null, "address3": "", "city": "Sacramento", "zip_code": "95826", "country": "US", "state": "CA", "display_address": ["49 Bicentennial Cir", "Sacramento, CA 95826"]}, "phone": "+15308484666", "display_phone": "(530) 848-4666", "distance": 95345.30641371685}, {"id": "SbjAjfh2riT7rWxo2OITJA", "alias": "candies-kitchen-sacramento", "name": "Candies Kitchen", "image_url": "https://s3-media1.fl.yelpcdn.com/bphoto/wZehoZn9-gQLuWPX4QIOLA/o.jpg", "is_closed": false, "url": "https://www.yelp.com/biz/candies-kitchen-sacramento?adjust_creative=-1a8ZLzJ76_AvFzvJVcndQ&utm_campaign=yelp_api_v3&utm_medium=api_v3_business_search&utm_source=-1a8ZLzJ76_AvFzvJVcndQ", "review_count": 2, "categories": [{"alias": "cajun", "title": "Cajun/Creole"}, {"alias": "soulfood", "title": "Soul Food"}, {"alias": "foodtrucks", "title": "Food Trucks"}], "rating": 3.5, "coordinates": {"latitude": 38.59429, "longitude": -121.48536}, "transactions": [], "location": {"address1": "1100 Richards Blvd", "address2": null, "address3": "", "city": "Sacramento", "zip_code": "95811", "country": "US", "state": "CA", "display_address": ["1100 Richards Blvd", "Sacramento, CA 95811"]}, "phone": "+19164399922", "display_phone": "(916) 439-9922", "distance": 96424.2333276029}]}