{"location": "Dixon, CA", "term": "restaurant", "radius": 2400, "businesses": [{"id": "iXzBreeg6oztmQa5LE6Rqg", "alias": "rosemarys-farm-to-fork-cafe-dixon-2", "name": "Rosemary's Farm To Fork Cafe", "image_url": "https://s3-media3.fl.yelpcdn.com/bphoto/kalAIQ4ttIBSJoGG_RkiKg/o.jpg", "is_closed": false, "url": "https://www.yelp.com/biz/rosemarys-farm-to-fork-cafe-dixon-2?adjust_creative=-1a8ZLzJ76_AvFzvJVcndQ&utm_campaign=yelp_api_v3&utm_medium=api_v3_business_search&utm_source=-1a8ZLzJ76_AvFzvJVcndQ", "review_count": 110, "categories": [{"alias": "cafes", "title": "Cafes"}, {"alias": "gluten_free", "title": "Gluten-Free"}], "rating": 4.5, "coordinates": {"latitude": 38.44588, "longitude": -121.82284}, "transactions": [], "price": "$$", "location": {"address1": "127 N 1st St", "address2": "", "address3": null, "city": "Dixon", "zip_code": "95620", "country": "US", "state": "CA", "display_address": ["127 N 1st St", "Dixon, CA 95620"]}, "phone": "+17076933200", "display_phone": "(707) 693-3200", "distance": 1306.3835500994323}, {"id": "QB-8uYYiJN2JDkgLZOkoQQ", "alias": "hong-kong-garden-dixon-2", "name": "Hong Kong garden", "image_url": "https://s3-media2.fl.yelpcdn.com/bphoto/5-BUs7xe0jOaTCjygLoHYg/o.jpg", "is_closed": false, "url": "https://www.yelp.com/biz/hong-kong-garden-dixon-2?adjust_creative=-1a8ZLzJ76_AvFzvJVcndQ&utm_campaign=yelp_api_v3&utm_medium=api_v3_business_search&utm_source=-1a8ZLzJ76_AvFzvJVcndQ", "review_count": 15, "categories": [{"alias": "chinese", "title": "Chinese"}], "rating": 4.0, "coordinates": {"latitude": 38.456361, "longitude": -121.841499}, "transactions": [], "location": {"address1": "1145 Pitt School Rd", "address2": null, "address3": "", "city": "Dixon", "zip_code": "95620", "country": "US", "state": "CA", "display_address": ["1145 Pitt School Rd", "Dixon, CA 95620"]}, "phone": "+17076783638", "display_phone": "(707) 678-3638", "distance": 2702.727312100602}, {"id": "iXyUjafZkC-igjldN5ioew", "alias": "the-frying-pan-dixon", "name": "The Frying Pan", "image_url": "https://s3-media1.fl.yelpcdn.com/bphoto/Y1eeYecZAnEAvYzqu36O0Q/o.jpg", "is_closed": false, "url": "https://www.yelp.com/biz/the-frying-pan-dixon?adjust_creative=-1a8ZLzJ76_AvFzvJVcndQ&utm_campaign=yelp_api_v3&utm_medium=api_v3_business_search&utm_source=-1a8ZLzJ76_AvFzvJVcndQ", "review_count": 98, "categories": [{"alias": "sushi", "title": "Sushi Bars"}, {"alias": "japanese", "title": "Japanese"}], "rating": 4.5, "coordinates": {"latitude": 38.4460859634465, "longitude": -121.822242736816}, "transactions": [], "price": "$$", "location": {"address1": "158 N 1st St", "address2": "", "address3": null, "city": "Dixon", "zip_code": "95620", "country": "US", "state": "CA", "display_address": ["158 N 1st St", "Dixon, CA 95620"]}, "phone": "+17076784228", "display_phone": "(707) 678-4228", "distance": 1340.9628680956594}, {"id": "cvTpbEFPXAv5blZW3lG2dQ", "alias": "pedros-cocina-dixon", "name": "Pedro's Cocina", "image_url": "https://s3-media3.fl.yelpcdn.com/bphoto/xz8a2L7tWY1m3W4t-zoggQ/o.jpg", "is_closed": false, "url": "https://www.yelp.com/biz/pedros-cocina-dixon?adjust_creative=-1a8ZLzJ76_AvFzvJVcndQ&utm_campaign=yelp_api_v3&utm_medium=api_v3_business_search&utm_source=-1a8ZLzJ76_AvFzvJVcndQ", "review_count": 93, "categories": [{"alias": "mexican", "title": "Mexican"}], "rating": 4.5, "coordinates": {"latitude": 38.4492302, "longitude": -121.8265762}, "transactions": [], "price": "$", "location": {"address1": "483 N Adams St", "address2": "", "address3": "", "city": "Dixon", "zip_code": "95620", "country": "US", "state": "CA", "display_address": ["483 N Adams St", "Dixon, CA 95620"]}, "phone": "+17076784633", "display_phone": "(707) 678-4633", "distance": 1625.0862339708358}, {"id": "ECWsj3sWWXjQR3_y47Wjzg", "alias": "buckhorn-bar-and-grill-dixon", "name": "Buckhorn Bar & Grill", "image_url": "https://s3-media2.fl.yelpcdn.com/bphoto/TAoR3cBgN7-VU-qCeqN_vQ/o.jpg", "is_closed": false, "url": "https://www.yelp.com/biz/buckhorn-bar-and-grill-dixon?adjust_creative=-1a8ZLzJ76_AvFzvJVcndQ&utm_campaign=yelp_api_v3&utm_medium=api_v3_business_search&utm_source=-1a8ZLzJ76_AvFzvJVcndQ", "review_count": 39, "categories": [{"alias": "steak", "title": "Steakhouses"}, {"alias": "bars", "title": "Bars"}], "rating": 4.0, "coordinates": {"latitude": 38.4539, "longitude": -121.82277}, "transactions": [], "price": "$", "location": {"address1": "830 N Adams St", "address2": "", "address3": "", "city": "Dixon", "zip_code": "95620", "country": "US", "state": "CA", "display_address": ["830 N Adams St", "Dixon, CA 95620"]}, "phone": "+17076785687", "display_phone": "(707) 678-5687", "distance": 2165.2738136666203}, {"id": "x6oq9FB4M0uAeaD-VHlhjA", "alias": "dawsons-bar-and-grill-dixon", "name": "Dawson's Bar & Grill", "image_url": "https://s3-media3.fl.yelpcdn.com/bphoto/XFINr1NEyFKbkQl8sbvIbA/o.jpg", "is_closed": false, "url": "https://www.yelp.com/biz/dawsons-bar-and-grill-dixon?adjust_creative=-1a8ZLzJ76_AvFzvJVcndQ&utm_campaign=yelp_api_v3&utm_medium=api_v3_business_search&utm_source=-1a8ZLzJ76_AvFzvJVcndQ", "review_count": 95, "categories": [{"alias": "bars", "title": "Bars"}, {"alias": "newamerican", "title": "American (New)"}, {"alias": "breakfast_brunch", "title": "Breakfast & Brunch"}], "rating": 4.0, "coordinates": {"latitude": 38.44566, "longitude": -121.82284}, "transactions": [], "price": "$$", "location": {"address1": "105 N 1st St", "address2": "", "address3": null, "city": "Dixon", "zip_code": "95620", "country": "US", "state": "CA", "display_address": ["105 N 1st St", "Dixon, CA 95620"]}, "phone": "+17076782067", "display_phone": "(707) 678-2067", "distance": 1283.5568853592656}, {"id": "IvIhh7IzbCfnB50jN_y97Q", "alias": "bangkok-garden-thai-cuisine-and-sushi-bar-dixon", "name": "Bangkok Garden Thai Cuisine & Sushi Bar", "image_url": "https://s3-media3.fl.yelpcdn.com/bphoto/2NFvB_R7Wu9VJLoU1YVcKA/o.jpg", "is_closed": false, "url": "https://www.yelp.com/biz/bangkok-garden-thai-cuisine-and-sushi-bar-dixon?adjust_creative=-1a8ZLzJ76_AvFzvJVcndQ&utm_campaign=yelp_api_v3&utm_medium=api_v3_business_search&utm_source=-1a8ZLzJ76_AvFzvJVcndQ", "review_count": 78, "categories": [{"alias": "sushi", "title": "Sushi Bars"}, {"alias": "thai", "title": "Thai"}], "rating": 4.0, "coordinates": {"latitude": 38.4458055209352, "longitude": -121.822627969086}, "transactions": ["pickup", "delivery"], "price": "$$", "location": {"address1": "119 N 1st St", "address2": "", "address3": null, "city": "Dixon", "zip_code": "95620", "country": "US", "state": "CA", "display_address": ["119 N 1st St", "Dixon, CA 95620"]}, "phone": "+17076933331", "display_phone": "(707) 693-3331", "distance": 1300.525914076046}, {"id": "n4VCj83NLP-hBnrKaYu2DQ", "alias": "buds-pub-and-grill-dixon", "name": "Bud's Pub & Grill", "image_url": "https://s3-media1.fl.yelpcdn.com/bphoto/3QULc1oFIDAowuApfJa6iA/o.jpg", "is_closed": false, "url": "https://www.yelp.com/biz/buds-pub-and-grill-dixon?adjust_creative=-1a8ZLzJ76_AvFzvJVcndQ&utm_campaign=yelp_api_v3&utm_medium=api_v3_business_search&utm_source=-1a8ZLzJ76_AvFzvJVcndQ", "review_count": 271, "categories": [{"alias": "pubs", "title": "Pubs"}, {"alias": "tradamerican", "title": "American (Traditional)"}, {"alias": "breakfast_brunch", "title": "Breakfast & Brunch"}], "rating": 3.5, "coordinates": {"latitude": 38.445425, "longitude": -121.822656}, "transactions": [], "price": "$$", "location": {"address1": "100 S 1st St", "address2": "", "address3": "", "city": "Dixon", "zip_code": "95620", "country": "US", "state": "CA", "display_address": ["100 S 1st St", "Dixon, CA 95620"]}, "phone": "+17076784745", "display_phone": "(707) 678-4745", "distance": 1259.6967333993134}, {"id": "08f1aCb5EqFyyY6nAR7HHg", "alias": "taqueria-panchita-dixon", "name": "Taqueria Panchita", "image_url": "https://s3-media2.fl.yelpcdn.com/bphoto/L_bjTZEUUQn0jE5pj3p8NA/o.jpg", "is_closed": false, "url": "https://www.yelp.com/biz/taqueria-panchita-dixon?adjust_creative=-1a8ZLzJ76_AvFzvJVcndQ&utm_campaign=yelp_api_v3&utm_medium=api_v3_business_search&utm_source=-1a8ZLzJ76_AvFzvJVcndQ", "review_count": 31, "categories": [{"alias": "tacos", "title": "Tacos"}], "rating": 4.5, "coordinates": {"latitude": 38.4456547957644, "longitude": -121.823463477194}, "transactions": [], "price": "$", "location": {"address1": "162 W A St", "address2": null, "address3": null, "city": "Dixon", "zip_code": "95620", "country": "US", "state": "CA", "display_address": ["162 W A St", "Dixon, CA 95620"]}, "phone": "+17076935058", "display_phone": "(707) 693-5058", "distance": 1263.0267496688002}, {"id": "jn3yWgu4G19BcDS5CdrClg", "alias": "taqueria-adelina-dixon", "name": "Taqueria Adelina", "image_url": "https://s3-media4.fl.yelpcdn.com/bphoto/VpCA4RonrWH924nlstRE6w/o.jpg", "is_closed": false, "url": "https://www.yelp.com/biz/taqueria-adelina-dixon?adjust_creative=-1a8ZLzJ76_AvFzvJVcndQ&utm_campaign=yelp_api_v3&utm_medium=api_v3_business_search&utm_source=-1a8ZLzJ76_AvFzvJVcndQ", "review_count": 53, "categories": [{"alias": "mexican", "title": "Mexican"}], "rating": 4.0, "coordinates": {"latitude": 38.44629, "longitude": -121.82284}, "transactions": [], "price": "$", "location": {"address1": "183 N 1st St", "address2": null, "address3": null, "city": "Dixon", "zip_code": "95620", "country": "US", "state": "CA", "display_address": ["183 N 1st St", "Dixon, CA 95620"]}, "phone": "+17076938989", "display_phone": "(707) 693-8989", "distance": 1347.9217878185698}, {"id": "m2yYMbzIJXF2vajETkiOTg", "alias": "lupitas-kitchen-dixon", "name": "Lupita's Kitchen", "image_url": "https://s3-media4.fl.yelpcdn.com/bphoto/nRF-QFXUUi9TH-tvsiSNuw/o.jpg", "is_closed": false, "url": "https://www.yelp.com/biz/lupitas-kitchen-dixon?adjust_creative=-1a8ZLzJ76_AvFzvJVcndQ&utm_campaign=yelp_api_v3&utm_medium=api_v3_business_search&utm_source=-1a8ZLzJ76_AvFzvJVcndQ", "review_count": 27, "categories": [{"alias": "mexican", "title": "Mexican"}], "rating": 4.0, "coordinates": {"latitude": 38.4491746, "longitude": -121.8260951}, "transactions": [], "price": "$", "location": {"address1": "470 N Adams St", "address2": "", "address3": "", "city": "Dixon", "zip_code": "95620", "country": "US", "state": "CA", "display_address": ["470 N Adams St", "Dixon, CA 95620"]}, "phone": "+17076788820", "display_phone": "(707) 678-8820", "distance": 1633.955994883683}, {"id": "IvpU8rAntJILWqCmYLAGvg", "alias": "a-street-cafe-dixon", "name": "A Street Cafe", "image_url": "https://s3-media1.fl.yelpcdn.com/bphoto/8JZjqgYeXGzfwl5Rd4SWHQ/o.jpg", "is_closed": false, "url": "https://www.yelp.com/biz/a-street-cafe-dixon?adjust_creative=-1a8ZLzJ76_AvFzvJVcndQ&utm_campaign=yelp_api_v3&utm_medium=api_v3_business_search&utm_source=-1a8ZLzJ76_AvFzvJVcndQ", "review_count": 96, "categories": [{"alias": "breakfast_brunch", "title": "Breakfast & Brunch"}, {"alias": "sandwiches", "title": "Sandwiches"}, {"alias": "cafes", "title": "Cafes"}], "rating": 4.0, "coordinates": {"latitude": 38.44529, "longitude": -121.82354}, "transactions": ["pickup"], "price": "$", "location": {"address1": "151 W A St", "address2": "", "address3": "", "city": "Dixon", "zip_code": "95620", "country": "US", "state": "CA", "display_address": ["151 W A St", "Dixon, CA 95620"]}, "phone": "+17076781521", "display_phone": "(707) 678-1521", "distance": 1235.0067308000368}, {"id": "ly-gIkK8SO6xvT6aOn143g", "alias": "frostys-dixon", "name": "Frosty's", "image_url": "https://s3-media2.fl.yelpcdn.com/bphoto/_UPNcCmxz4RFeEQVD3D9Ww/o.jpg", "is_closed": false, "url": "https://www.yelp.com/biz/frostys-dixon?adjust_creative=-1a8ZLzJ76_AvFzvJVcndQ&utm_campaign=yelp_api_v3&utm_medium=api_v3_business_search&utm_source=-1a8ZLzJ76_AvFzvJVcndQ", "review_count": 33, "categories": [{"alias": "burgers", "title": "Burgers"}, {"alias": "sandwiches", "title": "Sandwiches"}, {"alias": "hotdog", "title": "Hot Dogs"}], "rating": 3.0, "coordinates": {"latitude": 38.4454103262206, "longitude": -121.82344570756}, "transactions": [], "price": "$", "location": {"address1": "171 W A St", "address2": "", "address3": null, "city": "Dixon", "zip_code": "95620", "country": "US", "state": "CA", "display_address": ["171 W A St", "Dixon, CA 95620"]}, "phone": "", "display_phone": "", "distance": 1237.3109240660424}, {"id": "OC0p9ZN5w6NB453RSmiVxw", "alias": "el-verduzco-dixon", "name": "El Verduzco", "image_url": "https://s3-media2.fl.yelpcdn.com/bphoto/JZT2rhBkl0wbkvHOhnAH1Q/o.jpg", "is_closed": false, "url": "https://www.yelp.com/biz/el-verduzco-dixon?adjust_creative=-1a8ZLzJ76_AvFzvJVcndQ&utm_campaign=yelp_api_v3&utm_medium=api_v3_business_search&utm_source=-1a8ZLzJ76_AvFzvJVcndQ", "review_count": 98, "categories": [{"alias": "mexican", "title": "Mexican"}, {"alias": "seafood", "title": "Seafood"}, {"alias": "breakfast_brunch", "title": "Breakfast & Brunch"}], "rating": 3.5, "coordinates": {"latitude": 38.4549499, "longitude": -121.82334}, "transactions": [], "price": "$", "location": {"address1": "1005 N Adams St", "address2": "", "address3": "", "city": "Dixon", "zip_code": "95620", "country": "US", "state": "CA", "display_address": ["1005 N Adams St", "Dixon, CA 95620"]}, "phone": "+17076785888", "display_phone": "(707) 678-5888", "distance": 2264.8166318659096}, {"id": "qbArvqymN1y6vouD2qxURg", "alias": "panaderia-lupita-dixon", "name": "Panaderia Lupita", "image_url": "https://s3-media4.fl.yelpcdn.com/bphoto/8Bonlq15VSgOYM40wc20uw/o.jpg", "is_closed": false, "url": "https://www.yelp.com/biz/panaderia-lupita-dixon?adjust_creative=-1a8ZLzJ76_AvFzvJVcndQ&utm_campaign=yelp_api_v3&utm_medium=api_v3_business_search&utm_source=-1a8ZLzJ76_AvFzvJVcndQ", "review_count": 8, "categories": [{"alias": "mexican", "title": "Mexican"}], "rating": 4.5, "coordinates": {"latitude": 38.4492993, "longitude": -121.8260474}, "transactions": [], "location": {"address1": "490 N Adams St", "address2": null, "address3": null, "city": "Dixon", "zip_code": "95620", "country": "US", "state": "CA", "display_address": ["490 N Adams St", "Dixon, CA 95620"]}, "phone": "+17076780406", "display_phone": "(707) 678-0406", "distance": 1628.4546658310699}, {"id": "wpFEGcYuvgOLNCT18tfm5Q", "alias": "carniceria-lupita-dixon", "name": "Carniceria Lupita", "image_url": "https://s3-media1.fl.yelpcdn.com/bphoto/awfe0DqbX_vzkeNDF6IdaA/o.jpg", "is_closed": false, "url": "https://www.yelp.com/biz/carniceria-lupita-dixon?adjust_creative=-1a8ZLzJ76_AvFzvJVcndQ&utm_campaign=yelp_api_v3&utm_medium=api_v3_business_search&utm_source=-1a8ZLzJ76_AvFzvJVcndQ", "review_count": 32, "categories": [{"alias": "grocery", "title": "Grocery"}, {"alias": "delis", "title": "Delis"}, {"alias": "meats", "title": "Meat Shops"}], "rating": 4.0, "coordinates": {"latitude": 38.45635, "longitude": -121.84145}, "transactions": [], "price": "$", "location": {"address1": "1145 Pitt School Rd", "address2": "", "address3": "", "city": "Dixon", "zip_code": "95620", "country": "US", "state": "CA", "display_address": ["1145 Pitt School Rd", "Dixon, CA 95620"]}, "phone": "+17076787494", "display_phone": "(707) 678-7494", "distance": 2702.3344369904344}, {"id": "t9K7FB-RcIE3zCglqnUArw", "alias": "pizza-from-the-hearth-dixon", "name": "Pizza From the Hearth", "image_url": "", "is_closed": false, "url": "https://www.yelp.com/biz/pizza-from-the-hearth-dixon?adjust_creative=-1a8ZLzJ76_AvFzvJVcndQ&utm_campaign=yelp_api_v3&utm_medium=api_v3_business_search&utm_source=-1a8ZLzJ76_AvFzvJVcndQ", "review_count": 3, "categories": [{"alias": "pizza", "title": "Pizza"}], "rating": 5.0, "coordinates": {"latitude": 38.44552, "longitude": -121.81707}, "transactions": [], "location": {"address1": "", "address2": "", "address3": "", "city": "Dixon", "zip_code": "95620", "country": "US", "state": "CA", "display_address": ["Dixon, CA 95620"]}, "phone": "+17079754024", "display_phone": "(707) 975-4024", "distance": 1246.7295925883132}, {"id": "yEhRO1dyWP5pUpQwhn_7pA", "alias": "round-table-pizza-dixon", "name": "Round Table Pizza", "image_url": "https://s3-media4.fl.yelpcdn.com/bphoto/x5FdHmbvF1KuO6ohG3cK9g/o.jpg", "is_closed": false, "url": "https://www.yelp.com/biz/round-table-pizza-dixon?adjust_creative=-1a8ZLzJ76_AvFzvJVcndQ&utm_campaign=yelp_api_v3&utm_medium=api_v3_business_search&utm_source=-1a8ZLzJ76_AvFzvJVcndQ", "review_count": 40, "categories": [{"alias": "pizza", "title": "Pizza"}], "rating": 3.5, "coordinates": {"latitude": 38.4532413, "longitude": -121.8238699}, "transactions": ["pickup", "delivery"], "price": "$$", "location": {"address1": "825 N Adams St", "address2": "", "address3": "", "city": "Dixon", "zip_code": "95620", "country": "US", "state": "CA", "display_address": ["825 N Adams St", "Dixon, CA 95620"]}, "phone": "+17076784466", "display_phone": "(707) 678-4466", "distance": 2147.6608207117165}, {"id": "YWoCrVb7ZhyQBA0JUwulrA", "alias": "little-caesars-dixon", "name": "Little Caesars", "image_url": "https://s3-media4.fl.yelpcdn.com/bphoto/Blmu_OdsvnyYyWNcfhQ9pQ/o.jpg", "is_closed": false, "url": "https://www.yelp.com/biz/little-caesars-dixon?adjust_creative=-1a8ZLzJ76_AvFzvJVcndQ&utm_campaign=yelp_api_v3&utm_medium=api_v3_business_search&utm_source=-1a8ZLzJ76_AvFzvJVcndQ", "review_count": 11, "categories": [{"alias": "pizza", "title": "Pizza"}], "rating": 2.0, "coordinates": {"latitude": 38.45635, "longitude": -121.84145}, "transactions": [], "price": "$", "location": {"address1": "1145 Pitt School Rd", "address2": null, "address3": null, "city": "Dixon", "zip_code": "95620", "country": "US", "state": "CA", "display_address": ["1145 Pitt School Rd", "Dixon, CA 95620"]}, "phone": "+17076931800", "display_phone": "(707) 693-1800", "distance": 2702.3344369904344}, {"id": "8IR51q8XrgxQ7Ha2skCZCw", "alias": "hong-kong-garden-dixon", "name": "Hong Kong Garden", "image_url": "https://s3-media2.fl.yelpcdn.com/bphoto/VDyZH-VfACcpCGdgwVSJlg/o.jpg", "is_closed": false, "url": "https://www.yelp.com/biz/hong-kong-garden-dixon?adjust_creative=-1a8ZLzJ76_AvFzvJVcndQ&utm_campaign=yelp_api_v3&utm_medium=api_v3_business_search&utm_source=-1a8ZLzJ76_AvFzvJVcndQ", "review_count": 0, "categories": [], "rating": 0.0, "coordinates": {"latitude": 38.456361, "longitude": -121.841499}, "transactions": [], "location": {"address1": "1145 Pitt School Rd", "address2": "A", "address3": null, "city": "Dixon", "zip_code": "95620", "country": "US", "state": "CA", "display_address": ["1145 Pitt School Rd", "A", "Dixon, CA 95620"]}, "phone": "", "display_phone": "", "distance": 2702.727312100602}, {"id": "UvfYUY_PoMmg9iVn7nCajQ", "alias": "fil-gud-vacaville", "name": "Fil-Gud", "image_url": "https://s3-media2.fl.yelpcdn.com/bphoto/nvv-N7P0u8Rq22dINJJm7g/o.jpg", "is_closed": false, "url": "https://www.yelp.com/biz/fil-gud-vacaville?adjust_creative=-1a8ZLzJ76_AvFzvJVcndQ&utm_campaign=yelp_api_v3&utm_medium=api_v3_business_search&utm_source=-1a8ZLzJ76_AvFzvJVcndQ", "review_count": 13, "categories": [{"alias": "foodtrucks", "title": "Food Trucks"}, {"alias": "filipino", "title": "Filipino"}], "rating": 3.0, "coordinates": {"latitude": 38.3668875, "longitude": -121.9549051}, "transactions": [], "location": {"address1": "268 Nut Tree Rd", "address2": "", "address3": null, "city": "Vacaville", "zip_code": "95687", "country": "US", "state": "CA", "display_address": ["268 Nut Tree Rd", "Vacaville, CA 95687"]}, "phone": "+17073895021", "display_phone": "(707) 389-5021", "distance": 13206.436452763159}, {"id": "f1qZQRX6bT5n0fs-mLcKzA", "alias": "zintzuni-cocina-mexicana-sacramento", "name": "Zintzuni Cocina Mexicana", "image_url": "https://s3-media4.fl.yelpcdn.com/bphoto/HiJVXrQd_e8ThATgLZKoXw/o.jpg", "is_closed": false, "url": "https://www.yelp.com/biz/zintzuni-cocina-mexicana-sacramento?adjust_creative=-1a8ZLzJ76_AvFzvJVcndQ&utm_campaign=yelp_api_v3&utm_medium=api_v3_business_search&utm_source=-1a8ZLzJ76_AvFzvJVcndQ", "review_count": 45, "categories": [{"alias": "mexican", "title": "Mexican"}, {"alias": "foodtrucks", "title": "Food Trucks"}], "rating": 4.5, "coordinates": {"latitude": 38.5815719, "longitude": -121.4943996}, "transactions": [], "location": {"address1": "", "address2": "", "address3": null, "city": "Sacramento", "zip_code": "95828", "country": "US", "state": "CA", "display_address": ["Sacramento, CA 95828"]}, "phone": "+19166061641", "display_phone": "(916) 606-1641", "distance": 33258.882155801766}, {"id": "m4r2Cms0xbz5II8W6CS1gA", "alias": "cousins-maine-lobster-sacramento-sacramento", "name": "Cousins Maine Lobster - Sacramento", "image_url": "https://s3-media2.fl.yelpcdn.com/bphoto/ALpuz9tzHI94sOTUYiDMjQ/o.jpg", "is_closed": false, "url": "https://www.yelp.com/biz/cousins-maine-lobster-sacramento-sacramento?adjust_creative=-1a8ZLzJ76_AvFzvJVcndQ&utm_campaign=yelp_api_v3&utm_medium=api_v3_business_search&utm_source=-1a8ZLzJ76_AvFzvJVcndQ", "review_count": 220, "categories": [{"alias": "seafood", "title": "Seafood"}, {"alias": "foodtrucks", "title": "Food Trucks"}], "rating": 3.5, "coordinates": {"latitude": 38.57621, "longitude": -121.48323}, "transactions": [], "price": "$$", "location": {"address1": null, "address2": null, "address3": null, "city": "Sacramento", "zip_code": "95811", "country": "US", "state": "CA", "display_address": ["Sacramento, CA 95811"]}, "phone": "+19162702674", "display_phone": "(916) 270-2674", "distance": 34131.106827149866}, {"id": "SbjAjfh2riT7rWxo2OITJA", "alias": "candies-kitchen-sacramento", "name": "Candies Kitchen", "image_url": "https://s3-media1.fl.yelpcdn.com/bphoto/wZehoZn9-gQLuWPX4QIOLA/o.jpg", "is_closed": false, "url": "https://www.yelp.com/biz/candies-kitchen-sacramento?adjust_creative=-1a8ZLzJ76_AvFzvJVcndQ&utm_campaign=yelp_api_v3&utm_medium=api_v3_business_search&utm_source=-1a8ZLzJ76_AvFzvJVcndQ", "review_count": 2, "categories": [{"alias": "cajun", "title": "Cajun/Creole"}, {"alias": "soulfood", "title": "Soul Food"}, {"alias": "foodtrucks", "title": "Food Trucks"}], "rating": 3.5, "coordinates": {"latitude": 38.59429, "longitude": -121.48536}, "transactions": [], "location": {"address1": "1100 Richards Blvd", "address2": null, "address3": "", "city": "Sacramento", "zip_code": "95811", "country": "US", "state": "CA", "display_address": ["1100 Richards Blvd", "Sacramento, CA 95811"]}, "phone": "+19164399922", "display_phone": "(916) 439-9922", "distance": 34649.76028413699}, {"id": "RsgxKM4y5V_po23Iy3lTww", "alias": "fiya-spice-caribbean-pittsburg", "name": "Fiya Spice Caribbean", "image_url": "https://s3-media1.fl.yelpcdn.com/bphoto/7NBUdJXMLVWdJqIumy-GBg/o.jpg", "is_closed": false, "url": "https://www.yelp.com/biz/fiya-spice-caribbean-pittsburg?adjust_creative=-1a8ZLzJ76_AvFzvJVcndQ&utm_campaign=yelp_api_v3&utm_medium=api_v3_business_search&utm_source=-1a8ZLzJ76_AvFzvJVcndQ", "review_count": 1, "categories": [{"alias": "foodtrucks", "title": "Food Trucks"}, {"alias": "caribbean", "title": "Caribbean"}, {"alias": "catering", "title": "Caterers"}], "rating": 5.0, "coordinates": {"latitude": 38.011279, "longitude": -121.876098}, "transactions": [], "location": {"address1": "", "address2": null, "address3": "", "city": "Pittsburg", "zip_code": "94565", "country": "US", "state": "CA", "display_address": ["Pittsburg, CA 94565"]}, "phone": "+15106863325", "display_phone": "(510) 686-3325", "distance": 47276.38518309775}, {"id": "Mij1ZvLLpqvNmJFWNz9IsQ", "alias": "paquitas-mexican-grill-sacramento-2", "name": "Paquitas Mexican Grill", "image_url": "https://s3-media2.fl.yelpcdn.com/bphoto/Onav96dKMe8cWeFXMNFcyQ/o.jpg", "is_closed": false, "url": "https://www.yelp.com/biz/paquitas-mexican-grill-sacramento-2?adjust_creative=-1a8ZLzJ76_AvFzvJVcndQ&utm_campaign=yelp_api_v3&utm_medium=api_v3_business_search&utm_source=-1a8ZLzJ76_AvFzvJVcndQ", "review_count": 73, "categories": [{"alias": "foodtrucks", "title": "Food Trucks"}, {"alias": "mexican", "title": "Mexican"}], "rating": 4.0, "coordinates": {"latitude": 38.549732, "longitude": -121.406281}, "transactions": [], "price": "$", "location": {"address1": "49 Bicentennial Cir", "address2": null, "address3": "", "city": "Sacramento", "zip_code": "95826", "country": "US", "state": "CA", "display_address": ["49 Bicentennial Cir", "Sacramento, CA 95826"]}, "phone": "+15308484666", "display_phone": "(530) 848-4666", "distance": 38817.022857727876}, {"id": "kN2Q5z0kFXSyyVht1_jETA", "alias": "che-buono-sacramento-4", "name": "Che Buono", "image_url": "https://s3-media1.fl.yelpcdn.com/bphoto/LnHfAM-V8S9jM6s_rOFkQA/o.jpg", "is_closed": false, "url": "https://www.yelp.com/biz/che-buono-sacramento-4?adjust_creative=-1a8ZLzJ76_AvFzvJVcndQ&utm_campaign=yelp_api_v3&utm_medium=api_v3_business_search&utm_source=-1a8ZLzJ76_AvFzvJVcndQ", "review_count": 46, "categories": [{"alias": "foodtrucks", "title": "Food Trucks"}, {"alias": "italian", "title": "Italian"}, {"alias": "pizza", "title": "Pizza"}], "rating": 4.5, "coordinates": {"latitude": 38.5815719, "longitude": -121.4943996}, "transactions": [], "price": "$$", "location": {"address1": "", "address2": null, "address3": "", "city": "Sacramento", "zip_code": "95811", "country": "US", "state": "CA", "display_address": ["Sacramento, CA 95811"]}, "phone": "+19164306663", "display_phone": "(916) 430-6663", "distance": 33258.882155801766}, {"id": "i6ZwMjYIbmFZ8EGYz6x5Bw", "alias": "phat-salads-and-wraps-napa", "name": "Phat Salads and Wraps", "image_url": "https://s3-media2.fl.yelpcdn.com/bphoto/FbrUwtrVIx2cLXiPdBhHkw/o.jpg", "is_closed": false, "url": "https://www.yelp.com/biz/phat-salads-and-wraps-napa?adjust_creative=-1a8ZLzJ76_AvFzvJVcndQ&utm_campaign=yelp_api_v3&utm_medium=api_v3_business_search&utm_source=-1a8ZLzJ76_AvFzvJVcndQ", "review_count": 48, "categories": [{"alias": "foodtrucks", "title": "Food Trucks"}, {"alias": "wraps", "title": "Wraps"}], "rating": 4.0, "coordinates": {"latitude": 38.3234491, "longitude": -122.3023962}, "transactions": [], "price": "$", "location": {"address1": "", "address2": "", "address3": "", "city": "Napa", "zip_code": "94558", "country": "US", "state": "CA", "display_address": ["Napa, CA 94558"]}, "phone": "+17073639658", "display_phone": "(707) 363-9658", "distance": 43214.11475502647}, {"id": "cgOmMSHwp5NIxjOzl08IrQ", "alias": "mee-mahs-mediterranean-grill-elk-grove-2", "name": "Mee Mahs Mediterranean Grill", "image_url": "https://s3-media2.fl.yelpcdn.com/bphoto/v73eEJrJzZ-a55CNk3Jv7w/o.jpg", "is_closed": false, "url": "https://www.yelp.com/biz/mee-mahs-mediterranean-grill-elk-grove-2?adjust_creative=-1a8ZLzJ76_AvFzvJVcndQ&utm_campaign=yelp_api_v3&utm_medium=api_v3_business_search&utm_source=-1a8ZLzJ76_AvFzvJVcndQ", "review_count": 23, "categories": [{"alias": "mediterranean", "title": "Mediterranean"}, {"alias": "foodtrucks", "title": "Food Trucks"}], "rating": 4.5, "coordinates": {"latitude": 38.419274, "longitude": -121.373202}, "transactions": [], "price": "$$", "location": {"address1": "", "address2": null, "address3": "", "city": "Elk Grove", "zip_code": "95758", "country": "US", "state": "CA", "display_address": ["Elk Grove, CA 95758"]}, "phone": "+19167780018", "display_phone": "(916) 778-0018", "distance": 39601.80587772641}, {"id": "7ETh5878KSnGQnLxLE_yaQ", "alias": "gyrostop-sacramento", "name": "GyroStop", "image_url": "https://s3-media1.fl.yelpcdn.com/bphoto/xQsct4YKnW0qSJOmK_gsxw/o.jpg", "is_closed": false, "url": "https://www.yelp.com/biz/gyrostop-sacramento?adjust_creative=-1a8ZLzJ76_AvFzvJVcndQ&utm_campaign=yelp_api_v3&utm_medium=api_v3_business_search&utm_source=-1a8ZLzJ76_AvFzvJVcndQ", "review_count": 74, "categories": [{"alias": "mediterranean", "title": "Mediterranean"}, {"alias": "foodtrucks", "title": "Food Trucks"}], "rating": 4.0, "coordinates": {"latitude": 38.6621589660645, "longitude": -121.336738586426}, "transactions": [], "price": "$$", "location": {"address1": "", "address2": "", "address3": "", "city": "Sacramento", "zip_code": "95841", "country": "US", "state": "CA", "display_address": ["Sacramento, CA 95841"]}, "phone": "+19163044976", "display_phone": "(916) 304-4976", "distance": 48687.26002184112}, {"id": "sR0Wy3LYGdYV9HLszRlMmw", "alias": "tacos-la-palmita-stockton", "name": "Tacos La Palmita", "image_url": "https://s3-media2.fl.yelpcdn.com/bphoto/pzYoRmZjUQqxZ7qOyU7hUQ/o.jpg", "is_closed": false, "url": "https://www.yelp.com/biz/tacos-la-palmita-stockton?adjust_creative=-1a8ZLzJ76_AvFzvJVcndQ&utm_campaign=yelp_api_v3&utm_medium=api_v3_business_search&utm_source=-1a8ZLzJ76_AvFzvJVcndQ", "review_count": 90, "categories": [{"alias": "tacos", "title": "Tacos"}, {"alias": "foodtrucks", "title": "Food Trucks"}], "rating": 4.5, "coordinates": {"latitude": 38.008129, "longitude": -121.320219}, "transactions": ["pickup", "delivery"], "price": "$", "location": {"address1": "6393 Pacific Ave", "address2": null, "address3": null, "city": "Stockton", "zip_code": "95207", "country": "US", "state": "CA", "display_address": ["6393 Pacific Ave", "Stockton, CA 95207"]}, "phone": "+12093026825", "display_phone": "(209) 302-6825", "distance": 64907.6220852868}, {"id": "4HaUjRfwmHUOoFAeKi84dw", "alias": "mudville-mcs-stockton", "name": "Mudville Mc's", "image_url": "https://s3-media4.fl.yelpcdn.com/bphoto/yOlLV3w6yY7iPmRFJQbA5A/o.jpg", "is_closed": false, "url": "https://www.yelp.com/biz/mudville-mcs-stockton?adjust_creative=-1a8ZLzJ76_AvFzvJVcndQ&utm_campaign=yelp_api_v3&utm_medium=api_v3_business_search&utm_source=-1a8ZLzJ76_AvFzvJVcndQ", "review_count": 3, "categories": [{"alias": "foodtrucks", "title": "Food Trucks"}, {"alias": "soulfood", "title": "Soul Food"}, {"alias": "spanish", "title": "Spanish"}], "rating": 3.0, "coordinates": {"latitude": 37.9772033691406, "longitude": -121.298080444336}, "transactions": [], "location": {"address1": "", "address2": "", "address3": "", "city": "Stockton", "zip_code": "95204", "country": "US", "state": "CA", "display_address": ["Stockton, CA 95204"]}, "phone": "+16572294627", "display_phone": "(657) 229-4627", "distance": 67538.08582195654}]}