{"location": "Fairfax, CA", "term": "restaurant", "radius": 1347, "businesses": [{"id": "KhHXlG1YYCFEgXzpDFU0Bg", "alias": "barefoot-cafe-fairfax-2", "name": "Barefoot Cafe", "image_url": "https://s3-media3.fl.yelpcdn.com/bphoto/O6VCA13p0xS88qIzoH43eQ/o.jpg", "is_closed": false, "url": "https://www.yelp.com/biz/barefoot-cafe-fairfax-2?adjust_creative=-1a8ZLzJ76_AvFzvJVcndQ&utm_campaign=yelp_api_v3&utm_medium=api_v3_business_search&utm_source=-1a8ZLzJ76_AvFzvJVcndQ", "review_count": 640, "categories": [{"alias": "newamerican", "title": "American (New)"}], "rating": 4.5, "coordinates": {"latitude": 37.9874277110139, "longitude": -122.588276604099}, "transactions": ["pickup", "delivery"], "price": "$$", "location": {"address1": "1900 Sir Francis Drake Blvd", "address2": null, "address3": "", "city": "Fairfax", "zip_code": "94930", "country": "US", "state": "CA", "display_address": ["1900 Sir Francis Drake Blvd", "Fairfax, CA 94930"]}, "phone": "+14154602160", "display_phone": "(415) 460-2160", "distance": 300.08383315146074}, {"id": "NKOFW7cisRjJwXE9hS4HyA", "alias": "sorella-caffe-fairfax", "name": "Sorella Caffe", "image_url": "https://s3-media2.fl.yelpcdn.com/bphoto/UT1i4GEbc-2U_dWtbAoVHA/o.jpg", "is_closed": false, "url": "https://www.yelp.com/biz/sorella-caffe-fairfax?adjust_creative=-1a8ZLzJ76_AvFzvJVcndQ&utm_campaign=yelp_api_v3&utm_medium=api_v3_business_search&utm_source=-1a8ZLzJ76_AvFzvJVcndQ", "review_count": 331, "categories": [{"alias": "italian", "title": "Italian"}], "rating": 4.5, "coordinates": {"latitude": 37.9851722717285, "longitude": -122.589874267578}, "transactions": [], "price": "$$", "location": {"address1": "107 Bolinas Rd", "address2": "", "address3": "", "city": "Fairfax", "zip_code": "94930", "country": "US", "state": "CA", "display_address": ["107 Bolinas Rd", "Fairfax, CA 94930"]}, "phone": "+14152584520", "display_phone": "(415) 258-4520", "distance": 341.5183545930251}, {"id": "9sr4CCcdHva8LbN1kvlr5Q", "alias": "way-station-fairfax", "name": "Way Station", "image_url": "https://s3-media3.fl.yelpcdn.com/bphoto/BTnitg0mnUhCR7-qSUf67Q/o.jpg", "is_closed": false, "url": "https://www.yelp.com/biz/way-station-fairfax?adjust_creative=-1a8ZLzJ76_AvFzvJVcndQ&utm_campaign=yelp_api_v3&utm_medium=api_v3_business_search&utm_source=-1a8ZLzJ76_AvFzvJVcndQ", "review_count": 118, "categories": [{"alias": "beergardens", "title": "Beer Gardens"}, {"alias": "bbq", "title": "Barbeque"}], "rating": 4.0, "coordinates": {"latitude": 37.98743, "longitude": -122.59021}, "transactions": ["pickup", "delivery"], "price": "$$", "location": {"address1": "2001 Sir Francis Drake Blvd", "address2": "", "address3": null, "city": "Fairfax", "zip_code": "94930", "country": "US", "state": "CA", "display_address": ["2001 Sir Francis Drake Blvd", "Fairfax, CA 94930"]}, "phone": "+14153003099", "display_phone": "(415) 300-3099", "distance": 126.11330057677556}, {"id": "GQUK4LSHFJy_VKMOxwVPpg", "alias": "village-sake-fairfax", "name": "Village Sake", "image_url": "https://s3-media4.fl.yelpcdn.com/bphoto/rOlp-G2wUzz-JlGjNbnS5Q/o.jpg", "is_closed": false, "url": "https://www.yelp.com/biz/village-sake-fairfax?adjust_creative=-1a8ZLzJ76_AvFzvJVcndQ&utm_campaign=yelp_api_v3&utm_medium=api_v3_business_search&utm_source=-1a8ZLzJ76_AvFzvJVcndQ", "review_count": 181, "categories": [{"alias": "japanese", "title": "Japanese"}, {"alias": "pubs", "title": "Pubs"}, {"alias": "sushi", "title": "Sushi Bars"}], "rating": 4.0, "coordinates": {"latitude": 37.98671, "longitude": -122.58884}, "transactions": ["delivery"], "price": "$$$", "location": {"address1": "19 Bolinas Rd", "address2": null, "address3": "", "city": "Fairfax", "zip_code": "94930", "country": "US", "state": "CA", "display_address": ["19 Bolinas Rd", "Fairfax, CA 94930"]}, "phone": "+14155215790", "display_phone": "(415) 521-5790", "distance": 277.0335623905938}, {"id": "3XDHHxfd6ST345rzOlFSNA", "alias": "cafe-lotus-fairfax-2", "name": "Cafe Lotus", "image_url": "https://s3-media1.fl.yelpcdn.com/bphoto/0lmeIxB6QMdqEMPm6ZIhjQ/o.jpg", "is_closed": false, "url": "https://www.yelp.com/biz/cafe-lotus-fairfax-2?adjust_creative=-1a8ZLzJ76_AvFzvJVcndQ&utm_campaign=yelp_api_v3&utm_medium=api_v3_business_search&utm_source=-1a8ZLzJ76_AvFzvJVcndQ", "review_count": 163, "categories": [{"alias": "indpak", "title": "Indian"}], "rating": 4.5, "coordinates": {"latitude": 37.9873978, "longitude": -122.5884865}, "transactions": ["delivery"], "price": "$$", "location": {"address1": "1912 Sir Francis Drake Blvd", "address2": null, "address3": "", "city": "Fairfax", "zip_code": "94930", "country": "US", "state": "CA", "display_address": ["1912 Sir Francis Drake Blvd", "Fairfax, CA 94930"]}, "phone": "+14154577836", "display_phone": "(415) 457-7836", "distance": 282.8383599056974}, {"id": "9lc3AcIuWbZI_Ju459k6JQ", "alias": "fradelizios-in-fairfax-fairfax", "name": "Fradelizio's in Fairfax", "image_url": "https://s3-media3.fl.yelpcdn.com/bphoto/xj77-4tpwuPHtl9dGEwdZw/o.jpg", "is_closed": false, "url": "https://www.yelp.com/biz/fradelizios-in-fairfax-fairfax?adjust_creative=-1a8ZLzJ76_AvFzvJVcndQ&utm_campaign=yelp_api_v3&utm_medium=api_v3_business_search&utm_source=-1a8ZLzJ76_AvFzvJVcndQ", "review_count": 213, "categories": [{"alias": "italian", "title": "Italian"}], "rating": 4.0, "coordinates": {"latitude": 37.9869385, "longitude": -122.5887439}, "transactions": [], "price": "$$", "location": {"address1": "35 Broadway Blvd", "address2": "", "address3": "", "city": "Fairfax", "zip_code": "94930", "country": "US", "state": "CA", "display_address": ["35 Broadway Blvd", "Fairfax, CA 94930"]}, "phone": "+14154591618", "display_phone": "(415) 459-1618", "distance": 277.97626495661746}, {"id": "1uZtrXfa-WPUQpTFbOuylQ", "alias": "the-hummingbird-fairfax-2", "name": "The Hummingbird", "image_url": "https://s3-media3.fl.yelpcdn.com/bphoto/2JNJ7GYKlXS6c4V4UOWDag/o.jpg", "is_closed": false, "url": "https://www.yelp.com/biz/the-hummingbird-fairfax-2?adjust_creative=-1a8ZLzJ76_AvFzvJVcndQ&utm_campaign=yelp_api_v3&utm_medium=api_v3_business_search&utm_source=-1a8ZLzJ76_AvFzvJVcndQ", "review_count": 483, "categories": [{"alias": "breakfast_brunch", "title": "Breakfast & Brunch"}, {"alias": "cajun", "title": "Cajun/Creole"}, {"alias": "southern", "title": "Southern"}], "rating": 4.0, "coordinates": {"latitude": 37.98692, "longitude": -122.58946}, "transactions": ["pickup", "delivery"], "price": "$$", "location": {"address1": "57 Broadway Blvd", "address2": null, "address3": "", "city": "Fairfax", "zip_code": "94930", "country": "US", "state": "CA", "display_address": ["57 Broadway Blvd", "Fairfax, CA 94930"]}, "phone": "+14154579866", "display_phone": "(415) 457-9866", "distance": 221.79377824704952}, {"id": "Ad-tZjrBEvTHTvYpD3EpeA", "alias": "iron-springs-pub-and-brewery-fairfax", "name": "Iron Springs Pub & Brewery", "image_url": "https://s3-media2.fl.yelpcdn.com/bphoto/o_op8T5sxS_qB8UzlgfxIQ/o.jpg", "is_closed": false, "url": "https://www.yelp.com/biz/iron-springs-pub-and-brewery-fairfax?adjust_creative=-1a8ZLzJ76_AvFzvJVcndQ&utm_campaign=yelp_api_v3&utm_medium=api_v3_business_search&utm_source=-1a8ZLzJ76_AvFzvJVcndQ", "review_count": 334, "categories": [{"alias": "breweries", "title": "Breweries"}, {"alias": "pubs", "title": "Pubs"}, {"alias": "tradamerican", "title": "American (Traditional)"}], "rating": 4.0, "coordinates": {"latitude": 37.985995, "longitude": -122.5839888}, "transactions": [], "price": "$$", "location": {"address1": "765 Center Blvd", "address2": "", "address3": "", "city": "Fairfax", "zip_code": "94930", "country": "US", "state": "CA", "display_address": ["765 Center Blvd", "Fairfax, CA 94930"]}, "phone": "+14154851005", "display_phone": "(415) 485-1005", "distance": 704.9204854100477}, {"id": "HaA9Wio2uJY-MUEtftYN7Q", "alias": "mas-masa-fairfax", "name": "Mas Masa", "image_url": "https://s3-media3.fl.yelpcdn.com/bphoto/WzcpNeG_TsjG-dB4Xuuq7g/o.jpg", "is_closed": false, "url": "https://www.yelp.com/biz/mas-masa-fairfax?adjust_creative=-1a8ZLzJ76_AvFzvJVcndQ&utm_campaign=yelp_api_v3&utm_medium=api_v3_business_search&utm_source=-1a8ZLzJ76_AvFzvJVcndQ", "review_count": 190, "categories": [{"alias": "mexican", "title": "Mexican"}, {"alias": "beerbar", "title": "Beer Bar"}, {"alias": "wine_bars", "title": "Wine Bars"}], "rating": 4.0, "coordinates": {"latitude": 37.986368, "longitude": -122.588945}, "transactions": ["delivery"], "price": "$$", "location": {"address1": "31 Bolinas Rd", "address2": null, "address3": "", "city": "Fairfax", "zip_code": "94930", "country": "US", "state": "CA", "display_address": ["31 Bolinas Rd", "Fairfax, CA 94930"]}, "phone": "+14155295444", "display_phone": "(415) 529-5444", "distance": 295.54582270914784}, {"id": "-A8TKg-9eAeufAqqVcFn2A", "alias": "split-rock-tap-and-wheel-fairfax", "name": "Split Rock Tap & Wheel", "image_url": "https://s3-media4.fl.yelpcdn.com/bphoto/F1dzzsHl_UGjXniFg-SkCQ/o.jpg", "is_closed": false, "url": "https://www.yelp.com/biz/split-rock-tap-and-wheel-fairfax?adjust_creative=-1a8ZLzJ76_AvFzvJVcndQ&utm_campaign=yelp_api_v3&utm_medium=api_v3_business_search&utm_source=-1a8ZLzJ76_AvFzvJVcndQ", "review_count": 38, "categories": [{"alias": "pubs", "title": "Pubs"}, {"alias": "cafes", "title": "Cafes"}, {"alias": "bike_repair_maintenance", "title": "Bike Repair/Maintenance"}], "rating": 4.5, "coordinates": {"latitude": 37.98845, "longitude": -122.59053}, "transactions": [], "location": {"address1": "2020 Sir Francis Drake Blvd", "address2": "", "address3": null, "city": "Fairfax", "zip_code": "94930", "country": "US", "state": "CA", "display_address": ["2020 Sir Francis Drake Blvd", "Fairfax, CA 94930"]}, "phone": "+14157217644", "display_phone": "(415) 721-7644", "distance": 110.52451237023183}, {"id": "iTlQBeJBQD86eIolbT4YQg", "alias": "the-lodge-fairfax-2", "name": "The Lodge", "image_url": "https://s3-media2.fl.yelpcdn.com/bphoto/rOkiTx9cr00eLEIy_aKYog/o.jpg", "is_closed": false, "url": "https://www.yelp.com/biz/the-lodge-fairfax-2?adjust_creative=-1a8ZLzJ76_AvFzvJVcndQ&utm_campaign=yelp_api_v3&utm_medium=api_v3_business_search&utm_source=-1a8ZLzJ76_AvFzvJVcndQ", "review_count": 30, "categories": [{"alias": "newamerican", "title": "American (New)"}, {"alias": "salad", "title": "Salad"}, {"alias": "sandwiches", "title": "Sandwiches"}], "rating": 4.5, "coordinates": {"latitude": 37.986481, "longitude": -122.579678}, "transactions": [], "location": {"address1": "1573 Sir Francis Drake Blvd", "address2": "", "address3": null, "city": "Fairfax", "zip_code": "94930", "country": "US", "state": "CA", "display_address": ["1573 Sir Francis Drake Blvd", "Fairfax, CA 94930"]}, "phone": "+14159915625", "display_phone": "(415) 991-5625", "distance": 1060.4949321495164}, {"id": "fAhW6rCdNT0Awggrku94Rw", "alias": "123-bolinas-fairfax", "name": "123 Bolinas", "image_url": "https://s3-media3.fl.yelpcdn.com/bphoto/z09oaeRwD6-ZzQI81v3-Ew/o.jpg", "is_closed": false, "url": "https://www.yelp.com/biz/123-bolinas-fairfax?adjust_creative=-1a8ZLzJ76_AvFzvJVcndQ&utm_campaign=yelp_api_v3&utm_medium=api_v3_business_search&utm_source=-1a8ZLzJ76_AvFzvJVcndQ", "review_count": 180, "categories": [{"alias": "newamerican", "title": "American (New)"}, {"alias": "bars", "title": "Bars"}, {"alias": "breakfast_brunch", "title": "Breakfast & Brunch"}], "rating": 4.0, "coordinates": {"latitude": 37.9851202, "longitude": -122.5901183}, "transactions": [], "price": "$$", "location": {"address1": "123 Bolinas Rd", "address2": "", "address3": "", "city": "Fairfax", "zip_code": "94930", "country": "US", "state": "CA", "display_address": ["123 Bolinas Rd", "Fairfax, CA 94930"]}, "phone": "+14154885123", "display_phone": "(415) 488-5123", "distance": 344.16850552463313}, {"id": "wLeMNMcor0jszH57PVmShQ", "alias": "m-and-g-burgers-and-beverages-fairfax", "name": "M & G Burgers & Beverages", "image_url": "https://s3-media4.fl.yelpcdn.com/bphoto/7318CETTl52LW1qvbn1M1Q/o.jpg", "is_closed": false, "url": "https://www.yelp.com/biz/m-and-g-burgers-and-beverages-fairfax?adjust_creative=-1a8ZLzJ76_AvFzvJVcndQ&utm_campaign=yelp_api_v3&utm_medium=api_v3_business_search&utm_source=-1a8ZLzJ76_AvFzvJVcndQ", "review_count": 200, "categories": [{"alias": "burgers", "title": "Burgers"}], "rating": 2.5, "coordinates": {"latitude": 37.98791, "longitude": -122.59087}, "transactions": [], "price": "$$", "location": {"address1": "2017 Sir Francis Drake Blvd", "address2": "", "address3": "", "city": "Fairfax", "zip_code": "94930", "country": "US", "state": "CA", "display_address": ["2017 Sir Francis Drake Blvd", "Fairfax, CA 94930"]}, "phone": "+14154540655", "display_phone": "(415) 454-0655", "distance": 67.51343685695329}, {"id": "r7YU_b22nt2tsPHBR1Z22A", "alias": "tamal-fairfax", "name": "Tamal", "image_url": "https://s3-media2.fl.yelpcdn.com/bphoto/RYblEai3ANs3o7sn8o9NOw/o.jpg", "is_closed": false, "url": "https://www.yelp.com/biz/tamal-fairfax?adjust_creative=-1a8ZLzJ76_AvFzvJVcndQ&utm_campaign=yelp_api_v3&utm_medium=api_v3_business_search&utm_source=-1a8ZLzJ76_AvFzvJVcndQ", "review_count": 73, "categories": [{"alias": "cocktailbars", "title": "Cocktail Bars"}, {"alias": "mexican", "title": "Mexican"}], "rating": 3.5, "coordinates": {"latitude": 37.98672, "longitude": -122.58822}, "transactions": [], "price": "$$$", "location": {"address1": "23 Broadway Blvd", "address2": "", "address3": null, "city": "Fairfax", "zip_code": "94930", "country": "US", "state": "CA", "display_address": ["23 Broadway Blvd", "Fairfax, CA 94930"]}, "phone": "+14155248478", "display_phone": "(415) 524-8478", "distance": 321.5606910499742}, {"id": "SJf2_A-UWvFKGh5290dynw", "alias": "siam-lotus-fairfax", "name": "Siam Lotus", "image_url": "https://s3-media2.fl.yelpcdn.com/bphoto/QrP0vpwwIQOyu_V52PToVQ/o.jpg", "is_closed": false, "url": "https://www.yelp.com/biz/siam-lotus-fairfax?adjust_creative=-1a8ZLzJ76_AvFzvJVcndQ&utm_campaign=yelp_api_v3&utm_medium=api_v3_business_search&utm_source=-1a8ZLzJ76_AvFzvJVcndQ", "review_count": 86, "categories": [{"alias": "thai", "title": "Thai"}, {"alias": "salad", "title": "Salad"}, {"alias": "soup", "title": "Soup"}], "rating": 3.5, "coordinates": {"latitude": 37.98674, "longitude": -122.58832}, "transactions": [], "price": "$$", "location": {"address1": "25 Broadway Blvd", "address2": null, "address3": "", "city": "Fairfax", "zip_code": "94930", "country": "US", "state": "CA", "display_address": ["25 Broadway Blvd", "Fairfax, CA 94930"]}, "phone": "+14154535967", "display_phone": "(415) 453-5967", "distance": 318.63920433710814}, {"id": "AlRI0SHmXtiHAP5Faur7rg", "alias": "avatars-punjabi-burrito-fairfax", "name": "Avatars Punjabi Burrito", "image_url": "https://s3-media1.fl.yelpcdn.com/bphoto/w9NmoCBN3b2UO2djXoVCNw/o.jpg", "is_closed": false, "url": "https://www.yelp.com/biz/avatars-punjabi-burrito-fairfax?adjust_creative=-1a8ZLzJ76_AvFzvJVcndQ&utm_campaign=yelp_api_v3&utm_medium=api_v3_business_search&utm_source=-1a8ZLzJ76_AvFzvJVcndQ", "review_count": 150, "categories": [{"alias": "indpak", "title": "Indian"}, {"alias": "asianfusion", "title": "Asian Fusion"}], "rating": 4.0, "coordinates": {"latitude": 37.9858741310347, "longitude": -122.583595416637}, "transactions": ["delivery"], "price": "$$", "location": {"address1": "715 Center Blvd", "address2": "", "address3": "", "city": "Fairfax", "zip_code": "94930", "country": "US", "state": "CA", "display_address": ["715 Center Blvd", "Fairfax, CA 94930"]}, "phone": "+14154485361", "display_phone": "(415) 448-5361", "distance": 741.8728813759545}, {"id": "0R4jiONcuIpDvKCNCOM33g", "alias": "the-lodge-fairfax", "name": "The Lodge", "image_url": "https://s3-media1.fl.yelpcdn.com/bphoto/iAm0dkkI0kHh-_hOwtww6g/o.jpg", "is_closed": false, "url": "https://www.yelp.com/biz/the-lodge-fairfax?adjust_creative=-1a8ZLzJ76_AvFzvJVcndQ&utm_campaign=yelp_api_v3&utm_medium=api_v3_business_search&utm_source=-1a8ZLzJ76_AvFzvJVcndQ", "review_count": 8, "categories": [{"alias": "cocktailbars", "title": "Cocktail Bars"}, {"alias": "steak", "title": "Steakhouses"}], "rating": 3.5, "coordinates": {"latitude": 37.9799, "longitude": -122.5928}, "transactions": [], "location": {"address1": "367 1/2 Bolinas Rd", "address2": "Unit B", "address3": "Deer Park Villa", "city": "Fairfax", "zip_code": "94930", "country": "US", "state": "CA", "display_address": ["367 1/2 Bolinas Rd", "Unit B", "Deer Park Villa", "Fairfax, CA 94930"]}, "phone": "+14154507186", "display_phone": "(415) 450-7186", "distance": 862.9117310268726}, {"id": "JW-AguMPFjjE5Uhpd3mITg", "alias": "ghiringhellis-pizzeria-fairfax", "name": "Ghiringhelli's Pizzeria", "image_url": "https://s3-media2.fl.yelpcdn.com/bphoto/8UVxuMLJ6C7KK_DB0j6FAA/o.jpg", "is_closed": false, "url": "https://www.yelp.com/biz/ghiringhellis-pizzeria-fairfax?adjust_creative=-1a8ZLzJ76_AvFzvJVcndQ&utm_campaign=yelp_api_v3&utm_medium=api_v3_business_search&utm_source=-1a8ZLzJ76_AvFzvJVcndQ", "review_count": 127, "categories": [{"alias": "pizza", "title": "Pizza"}], "rating": 3.5, "coordinates": {"latitude": 37.9869510332558, "longitude": -122.589150201152}, "transactions": ["delivery"], "price": "$$", "location": {"address1": "45 Broadway Blvd", "address2": "", "address3": "", "city": "Fairfax", "zip_code": "94930", "country": "US", "state": "CA", "display_address": ["45 Broadway Blvd", "Fairfax, CA 94930"]}, "phone": "+14154537472", "display_phone": "(415) 453-7472", "distance": 245.38209835643227}, {"id": "hOPFkXxQNWOl0oaaalVa7A", "alias": "mana-bowls-fairfax", "name": "Mana Bowls", "image_url": "https://s3-media1.fl.yelpcdn.com/bphoto/_e-wIL6UplhUP1vkbSDvvQ/o.jpg", "is_closed": false, "url": "https://www.yelp.com/biz/mana-bowls-fairfax?adjust_creative=-1a8ZLzJ76_AvFzvJVcndQ&utm_campaign=yelp_api_v3&utm_medium=api_v3_business_search&utm_source=-1a8ZLzJ76_AvFzvJVcndQ", "review_count": 117, "categories": [{"alias": "juicebars", "title": "Juice Bars & Smoothies"}, {"alias": "acaibowls", "title": "Acai Bowls"}, {"alias": "cafes", "title": "Cafes"}], "rating": 3.5, "coordinates": {"latitude": 37.98758, "longitude": -122.5888}, "transactions": ["pickup"], "price": "$$", "location": {"address1": "1930 Sir Francis Drake Blvd", "address2": null, "address3": "", "city": "Fairfax", "zip_code": "94930", "country": "US", "state": "CA", "display_address": ["1930 Sir Francis Drake Blvd", "Fairfax, CA 94930"]}, "phone": "+14155215921", "display_phone": "(415) 521-5921", "distance": 249.5405654192055}, {"id": "ugcW5x4BDk26e2igSZQulw", "alias": "fairfix-cafe-fairfax", "name": "FairFix Cafe", "image_url": "https://s3-media1.fl.yelpcdn.com/bphoto/9vsALUusI3Bsp8goN3GM-Q/o.jpg", "is_closed": false, "url": "https://www.yelp.com/biz/fairfix-cafe-fairfax?adjust_creative=-1a8ZLzJ76_AvFzvJVcndQ&utm_campaign=yelp_api_v3&utm_medium=api_v3_business_search&utm_source=-1a8ZLzJ76_AvFzvJVcndQ", "review_count": 110, "categories": [{"alias": "sandwiches", "title": "Sandwiches"}, {"alias": "coffee", "title": "Coffee & Tea"}, {"alias": "wine_bars", "title": "Wine Bars"}], "rating": 3.5, "coordinates": {"latitude": 37.9869301, "longitude": -122.5886802}, "transactions": [], "price": "$", "location": {"address1": "33 Broadway Blvd", "address2": "", "address3": "", "city": "Fairfax", "zip_code": "94930", "country": "US", "state": "CA", "display_address": ["33 Broadway Blvd", "Fairfax, CA 94930"]}, "phone": "+14154596404", "display_phone": "(415) 459-6404", "distance": 283.4460127968726}, {"id": "T7UtXPCIk7fUiaIzq8arWA", "alias": "perrys-delicatessen-no-3-fairfax", "name": "Perry's Delicatessen No 3", "image_url": "https://s3-media2.fl.yelpcdn.com/bphoto/PIsS40Z9Qc5Hr0JGmmxBLw/o.jpg", "is_closed": false, "url": "https://www.yelp.com/biz/perrys-delicatessen-no-3-fairfax?adjust_creative=-1a8ZLzJ76_AvFzvJVcndQ&utm_campaign=yelp_api_v3&utm_medium=api_v3_business_search&utm_source=-1a8ZLzJ76_AvFzvJVcndQ", "review_count": 56, "categories": [{"alias": "delis", "title": "Delis"}], "rating": 3.5, "coordinates": {"latitude": 37.98754, "longitude": -122.58866}, "transactions": [], "price": "$", "location": {"address1": "1916 Sir Francis Drake Blvd", "address2": "", "address3": "", "city": "Fairfax", "zip_code": "94930", "country": "US", "state": "CA", "display_address": ["1916 Sir Francis Drake Blvd", "Fairfax, CA 94930"]}, "phone": "+14154563580", "display_phone": "(415) 456-3580", "distance": 263.6061865243947}, {"id": "wDvTdmuJrJmfpaxWGPez-w", "alias": "roli-roti-gourmet-rotisserie-fairfax", "name": "Roli Roti Gourmet Rotisserie", "image_url": "https://s3-media1.fl.yelpcdn.com/bphoto/3GnQWc1rNrWZ6xLgIMjsaQ/o.jpg", "is_closed": false, "url": "https://www.yelp.com/biz/roli-roti-gourmet-rotisserie-fairfax?adjust_creative=-1a8ZLzJ76_AvFzvJVcndQ&utm_campaign=yelp_api_v3&utm_medium=api_v3_business_search&utm_source=-1a8ZLzJ76_AvFzvJVcndQ", "review_count": 4, "categories": [{"alias": "chickenshop", "title": "Chicken Shop"}, {"alias": "foodtrucks", "title": "Food Trucks"}, {"alias": "sandwiches", "title": "Sandwiches"}], "rating": 4.5, "coordinates": {"latitude": 37.9852183, "longitude": -122.5904093}, "transactions": [], "price": "$", "location": {"address1": "124 Bolinas Rd", "address2": "", "address3": "", "city": "Fairfax", "zip_code": "94930", "country": "US", "state": "CA", "display_address": ["124 Bolinas Rd", "Fairfax, CA 94930"]}, "phone": "+15107800300", "display_phone": "(510) 780-0300", "distance": 324.8654183112622}, {"id": "S1tuBPXPUbrspQhTeTzbSA", "alias": "mauros-pizza-and-pasta-fairfax", "name": "Mauro's Pizza & Pasta", "image_url": "https://s3-media4.fl.yelpcdn.com/bphoto/g4ekuc0Wtt_fzTz_u9yfSA/o.jpg", "is_closed": false, "url": "https://www.yelp.com/biz/mauros-pizza-and-pasta-fairfax?adjust_creative=-1a8ZLzJ76_AvFzvJVcndQ&utm_campaign=yelp_api_v3&utm_medium=api_v3_business_search&utm_source=-1a8ZLzJ76_AvFzvJVcndQ", "review_count": 83, "categories": [{"alias": "pizza", "title": "Pizza"}, {"alias": "italian", "title": "Italian"}, {"alias": "tradamerican", "title": "American (Traditional)"}], "rating": 4.0, "coordinates": {"latitude": 37.9864, "longitude": -122.5814}, "transactions": ["delivery"], "price": "$$", "location": {"address1": "1601 Sir Francis Drake Blvd", "address2": "", "address3": "", "city": "Fairfax", "zip_code": "94930", "country": "US", "state": "CA", "display_address": ["1601 Sir Francis Drake Blvd", "Fairfax, CA 94930"]}, "phone": "+14154539353", "display_phone": "(415) 453-9353", "distance": 904.0150867771716}, {"id": "yqns60U_IHkDFuYOzeD_xw", "alias": "irlando-s-taste-cafe-fairfax", "name": "Irlando\u2019s Taste Cafe", "image_url": "https://s3-media4.fl.yelpcdn.com/bphoto/h9GYjmXZ0o9dO0n5d-gWKA/o.jpg", "is_closed": false, "url": "https://www.yelp.com/biz/irlando-s-taste-cafe-fairfax?adjust_creative=-1a8ZLzJ76_AvFzvJVcndQ&utm_campaign=yelp_api_v3&utm_medium=api_v3_business_search&utm_source=-1a8ZLzJ76_AvFzvJVcndQ", "review_count": 6, "categories": [{"alias": "cafes", "title": "Cafes"}], "rating": 4.0, "coordinates": {"latitude": 37.98701, "longitude": -122.58981}, "transactions": [], "location": {"address1": "71 Broadway", "address2": "", "address3": null, "city": "Fairfax", "zip_code": "94930", "country": "US", "state": "CA", "display_address": ["71 Broadway", "Fairfax, CA 94930"]}, "phone": "", "display_phone": "", "distance": 190.3734347187377}, {"id": "D4fqfA1KFfszuRZt8DFZRw", "alias": "red-boy-pizza-fairfax-fairfax", "name": "Red Boy Pizza - Fairfax", "image_url": "https://s3-media4.fl.yelpcdn.com/bphoto/LeP-mWX6db5erY6OHm4lYw/o.jpg", "is_closed": false, "url": "https://www.yelp.com/biz/red-boy-pizza-fairfax-fairfax?adjust_creative=-1a8ZLzJ76_AvFzvJVcndQ&utm_campaign=yelp_api_v3&utm_medium=api_v3_business_search&utm_source=-1a8ZLzJ76_AvFzvJVcndQ", "review_count": 49, "categories": [{"alias": "italian", "title": "Italian"}, {"alias": "pizza", "title": "Pizza"}, {"alias": "gluten_free", "title": "Gluten-Free"}], "rating": 3.5, "coordinates": {"latitude": 37.99613, "longitude": -122.59652}, "transactions": ["pickup", "delivery"], "price": "$$", "location": {"address1": "2404 Sir Francis Drake Blvd", "address2": "", "address3": "", "city": "Fairfax", "zip_code": "94930", "country": "US", "state": "CA", "display_address": ["2404 Sir Francis Drake Blvd", "Fairfax, CA 94930"]}, "phone": "+14154533138", "display_phone": "(415) 453-3138", "distance": 1012.9985238095445}, {"id": "f7EQMacRImBVrDghxxM5OQ", "alias": "la-siguanaba-company-fairfax", "name": "La Siguanaba Company", "image_url": "https://s3-media1.fl.yelpcdn.com/bphoto/TUud1B-COqgcgSLkpnyWhw/o.jpg", "is_closed": false, "url": "https://www.yelp.com/biz/la-siguanaba-company-fairfax?adjust_creative=-1a8ZLzJ76_AvFzvJVcndQ&utm_campaign=yelp_api_v3&utm_medium=api_v3_business_search&utm_source=-1a8ZLzJ76_AvFzvJVcndQ", "review_count": 3, "categories": [{"alias": "markets", "title": "Fruits & Veggies"}, {"alias": "foodstands", "title": "Food Stands"}, {"alias": "importedfood", "title": "Imported Food"}], "rating": 4.5, "coordinates": {"latitude": 37.9799614, "longitude": -122.5919189}, "transactions": [], "location": {"address1": "46 Porteous Ave", "address2": "", "address3": "", "city": "Fairfax", "zip_code": "94930", "country": "US", "state": "CA", "display_address": ["46 Porteous Ave", "Fairfax, CA 94930"]}, "phone": "+14154194811", "display_phone": "(415) 419-4811", "distance": 890.9873625732971}, {"id": "rM6pPB_qmQ3de5yGpfLT1g", "alias": "lomo-libre-san-francisco-2", "name": "Lomo Libre", "image_url": "https://s3-media1.fl.yelpcdn.com/bphoto/vjnO-EUjFHKoLMy2_JQYvg/o.jpg", "is_closed": false, "url": "https://www.yelp.com/biz/lomo-libre-san-francisco-2?adjust_creative=-1a8ZLzJ76_AvFzvJVcndQ&utm_campaign=yelp_api_v3&utm_medium=api_v3_business_search&utm_source=-1a8ZLzJ76_AvFzvJVcndQ", "review_count": 8, "categories": [{"alias": "foodtrucks", "title": "Food Trucks"}, {"alias": "peruvian", "title": "Peruvian"}], "rating": 5.0, "coordinates": {"latitude": 37.799634, "longitude": -122.436301}, "transactions": [], "location": {"address1": "2101 Lombard St", "address2": "", "address3": null, "city": "San Francisco", "zip_code": "94123", "country": "US", "state": "CA", "display_address": ["2101 Lombard St", "San Francisco, CA 94123"]}, "phone": "+14156198149", "display_phone": "(415) 619-8149", "distance": 24986.905950408483}, {"id": "CUwBAy6lrFi4x6Neu9eRVw", "alias": "mini-street-burger-alameda-3", "name": "Mini Street Burger", "image_url": "https://s3-media2.fl.yelpcdn.com/bphoto/Kh-OQKBIclWY1dCeIuu57w/o.jpg", "is_closed": false, "url": "https://www.yelp.com/biz/mini-street-burger-alameda-3?adjust_creative=-1a8ZLzJ76_AvFzvJVcndQ&utm_campaign=yelp_api_v3&utm_medium=api_v3_business_search&utm_source=-1a8ZLzJ76_AvFzvJVcndQ", "review_count": 28, "categories": [{"alias": "foodtrucks", "title": "Food Trucks"}, {"alias": "burgers", "title": "Burgers"}], "rating": 4.0, "coordinates": {"latitude": 37.82628, "longitude": -122.25101}, "transactions": [], "location": {"address1": null, "address2": null, "address3": null, "city": "Alameda", "zip_code": "94611", "country": "US", "state": "CA", "display_address": ["Alameda, CA 94611"]}, "phone": "+15108278982", "display_phone": "(510) 827-8982", "distance": 38171.54606067854}, {"id": "jCcAuXhCpeJP2n-8ol7mxg", "alias": "kolobok-russian-soul-food-truck-oakland", "name": "Kolobok Russian Soul Food Truck", "image_url": "https://s3-media1.fl.yelpcdn.com/bphoto/k8s1Bfc05Iw7SJXE6VJ74Q/o.jpg", "is_closed": false, "url": "https://www.yelp.com/biz/kolobok-russian-soul-food-truck-oakland?adjust_creative=-1a8ZLzJ76_AvFzvJVcndQ&utm_campaign=yelp_api_v3&utm_medium=api_v3_business_search&utm_source=-1a8ZLzJ76_AvFzvJVcndQ", "review_count": 47, "categories": [{"alias": "foodtrucks", "title": "Food Trucks"}, {"alias": "russian", "title": "Russian"}], "rating": 4.5, "coordinates": {"latitude": 37.7883087690458, "longitude": -122.309032460882}, "transactions": [], "price": "$$", "location": {"address1": null, "address2": null, "address3": "", "city": "Oakland", "zip_code": "94577", "country": "US", "state": "CA", "display_address": ["Oakland, CA 94577"]}, "phone": "+15105996542", "display_phone": "(510) 599-6542", "distance": 33285.892130321656}, {"id": "uuouQQIFQ1B9mkmcxaAKFA", "alias": "tacos-el-rey-oakland", "name": "Tacos El Rey", "image_url": "https://s3-media2.fl.yelpcdn.com/bphoto/DblyFrtT9uyPCQAUfPbYbQ/o.jpg", "is_closed": false, "url": "https://www.yelp.com/biz/tacos-el-rey-oakland?adjust_creative=-1a8ZLzJ76_AvFzvJVcndQ&utm_campaign=yelp_api_v3&utm_medium=api_v3_business_search&utm_source=-1a8ZLzJ76_AvFzvJVcndQ", "review_count": 9, "categories": [{"alias": "foodtrucks", "title": "Food Trucks"}, {"alias": "mexican", "title": "Mexican"}], "rating": 4.0, "coordinates": {"latitude": 37.8294034, "longitude": -122.2875758}, "transactions": [], "price": "$", "location": {"address1": "40th & Horton", "address2": "", "address3": null, "city": "Oakland", "zip_code": "94608", "country": "US", "state": "CA", "display_address": ["40th & Horton", "Oakland, CA 94608"]}, "phone": "+15108130232", "display_phone": "(510) 813-0232", "distance": 31976.0405379184}, {"id": "XTJJ_PUQoJKIh31ZIzsFzw", "alias": "cochinita-food-truck-san-francisco-6", "name": "Cochinita Food Truck", "image_url": "https://s3-media2.fl.yelpcdn.com/bphoto/w77SOd2jVJjOh1lwuYQ42w/o.jpg", "is_closed": false, "url": "https://www.yelp.com/biz/cochinita-food-truck-san-francisco-6?adjust_creative=-1a8ZLzJ76_AvFzvJVcndQ&utm_campaign=yelp_api_v3&utm_medium=api_v3_business_search&utm_source=-1a8ZLzJ76_AvFzvJVcndQ", "review_count": 49, "categories": [{"alias": "foodtrucks", "title": "Food Trucks"}, {"alias": "mexican", "title": "Mexican"}], "rating": 4.5, "coordinates": {"latitude": 37.770753, "longitude": -122.3916722}, "transactions": [], "price": "$", "location": {"address1": "601 Mission Blvd N", "address2": null, "address3": "", "city": "San Francisco", "zip_code": "94103", "country": "US", "state": "CA", "display_address": ["601 Mission Blvd N", "San Francisco, CA 94103"]}, "phone": "+14159883663", "display_phone": "(415) 988-3663", "distance": 29856.501076029806}, {"id": "i6ZwMjYIbmFZ8EGYz6x5Bw", "alias": "phat-salads-and-wraps-napa", "name": "Phat Salads and Wraps", "image_url": "https://s3-media2.fl.yelpcdn.com/bphoto/FbrUwtrVIx2cLXiPdBhHkw/o.jpg", "is_closed": false, "url": "https://www.yelp.com/biz/phat-salads-and-wraps-napa?adjust_creative=-1a8ZLzJ76_AvFzvJVcndQ&utm_campaign=yelp_api_v3&utm_medium=api_v3_business_search&utm_source=-1a8ZLzJ76_AvFzvJVcndQ", "review_count": 48, "categories": [{"alias": "foodtrucks", "title": "Food Trucks"}, {"alias": "wraps", "title": "Wraps"}], "rating": 4.0, "coordinates": {"latitude": 38.3234491, "longitude": -122.3023962}, "transactions": [], "price": "$", "location": {"address1": "", "address2": "", "address3": "", "city": "Napa", "zip_code": "94558", "country": "US", "state": "CA", "display_address": ["Napa, CA 94558"]}, "phone": "+17073639658", "display_phone": "(707) 363-9658", "distance": 45067.11337130284}, {"id": "DC42MrpWtqEeWRmMsn6Z8w", "alias": "the-everest-momo-fremont-2", "name": "The Everest Momo", "image_url": "https://s3-media2.fl.yelpcdn.com/bphoto/T2f7tUQ1c104otx9oSdqYw/o.jpg", "is_closed": false, "url": "https://www.yelp.com/biz/the-everest-momo-fremont-2?adjust_creative=-1a8ZLzJ76_AvFzvJVcndQ&utm_campaign=yelp_api_v3&utm_medium=api_v3_business_search&utm_source=-1a8ZLzJ76_AvFzvJVcndQ", "review_count": 23, "categories": [{"alias": "foodtrucks", "title": "Food Trucks"}, {"alias": "indpak", "title": "Indian"}, {"alias": "himalayan", "title": "Himalayan/Nepalese"}], "rating": 4.5, "coordinates": {"latitude": 37.54643, "longitude": -121.98512}, "transactions": [], "price": "$", "location": {"address1": "39233 Fremont Blvd", "address2": null, "address3": null, "city": "Fremont", "zip_code": "94538", "country": "US", "state": "CA", "display_address": ["39233 Fremont Blvd", "Fremont, CA 94538"]}, "phone": "+14088406369", "display_phone": "(408) 840-6369", "distance": 72474.70071720763}, {"id": "lgheXsHqe66AEZwoPDIEpw", "alias": "taco-coma-newark", "name": "Taco Coma", "image_url": "https://s3-media3.fl.yelpcdn.com/bphoto/DDz5lZDL5lDiRR_Ph0L4Sg/o.jpg", "is_closed": false, "url": "https://www.yelp.com/biz/taco-coma-newark?adjust_creative=-1a8ZLzJ76_AvFzvJVcndQ&utm_campaign=yelp_api_v3&utm_medium=api_v3_business_search&utm_source=-1a8ZLzJ76_AvFzvJVcndQ", "review_count": 3, "categories": [{"alias": "foodstands", "title": "Food Stands"}, {"alias": "tacos", "title": "Tacos"}], "rating": 5.0, "coordinates": {"latitude": 37.53453, "longitude": -122.03284}, "transactions": [], "location": {"address1": "", "address2": null, "address3": "", "city": "Newark", "zip_code": "94560", "country": "US", "state": "CA", "display_address": ["Newark, CA 94560"]}, "phone": "+15106971448", "display_phone": "(510) 697-1448", "distance": 70419.25206049992}, {"id": "8SNGFcMWZkvS4GWDUL8w1Q", "alias": "noon-o-kabob-san-jose-4", "name": "Noon O Kabob", "image_url": "https://s3-media2.fl.yelpcdn.com/bphoto/5GmY5FRw0m0XEWC5XXbVlA/o.jpg", "is_closed": false, "url": "https://www.yelp.com/biz/noon-o-kabob-san-jose-4?adjust_creative=-1a8ZLzJ76_AvFzvJVcndQ&utm_campaign=yelp_api_v3&utm_medium=api_v3_business_search&utm_source=-1a8ZLzJ76_AvFzvJVcndQ", "review_count": 29, "categories": [{"alias": "foodtrucks", "title": "Food Trucks"}, {"alias": "kebab", "title": "Kebab"}, {"alias": "persian", "title": "Persian/Iranian"}], "rating": 4.5, "coordinates": {"latitude": 37.3940232, "longitude": -122.0288052}, "transactions": [], "price": "$$", "location": {"address1": null, "address2": null, "address3": null, "city": "San Jose", "zip_code": "95101", "country": "US", "state": "CA", "display_address": ["San Jose, CA 95101"]}, "phone": "+14083346777", "display_phone": "(408) 334-6777", "distance": 82549.1950325416}, {"id": "C9uewBH5505NV0EWYBIJAA", "alias": "lady-and-l-aperitivo-san-jose", "name": "Lady & L'Aperitivo", "image_url": "https://s3-media4.fl.yelpcdn.com/bphoto/3nz0sRE9MlOq_4xVRQRt9w/o.jpg", "is_closed": false, "url": "https://www.yelp.com/biz/lady-and-l-aperitivo-san-jose?adjust_creative=-1a8ZLzJ76_AvFzvJVcndQ&utm_campaign=yelp_api_v3&utm_medium=api_v3_business_search&utm_source=-1a8ZLzJ76_AvFzvJVcndQ", "review_count": 1, "categories": [{"alias": "bakeries", "title": "Bakeries"}, {"alias": "desserts", "title": "Desserts"}, {"alias": "cheesesteaks", "title": "Cheesesteaks"}], "rating": 5.0, "coordinates": {"latitude": 37.2208938598633, "longitude": -121.861633300781}, "transactions": [], "location": {"address1": null, "address2": null, "address3": "", "city": "San Jose", "zip_code": "95120", "country": "US", "state": "CA", "display_address": ["San Jose, CA 95120"]}, "phone": "", "display_phone": "", "distance": 112290.41848723435}, {"id": "22KzWfCP7jt9tOl6Gl17LQ", "alias": "mai-thai-kitchen-las-vegas", "name": "Mai Thai Kitchen", "image_url": "https://s3-media1.fl.yelpcdn.com/bphoto/t1Zp5dvdlEzcNrgITCLZkw/o.jpg", "is_closed": false, "url": "https://www.yelp.com/biz/mai-thai-kitchen-las-vegas?adjust_creative=-1a8ZLzJ76_AvFzvJVcndQ&utm_campaign=yelp_api_v3&utm_medium=api_v3_business_search&utm_source=-1a8ZLzJ76_AvFzvJVcndQ", "review_count": 9, "categories": [{"alias": "foodtrucks", "title": "Food Trucks"}, {"alias": "thai", "title": "Thai"}, {"alias": "catering", "title": "Caterers"}], "rating": 3.5, "coordinates": {"latitude": 36.1067341598394, "longitude": -115.040667839348}, "transactions": [], "price": "$$$$", "location": {"address1": "", "address2": "", "address3": null, "city": "Las Vegas", "zip_code": "89122", "country": "US", "state": "NV", "display_address": ["Las Vegas, NV 89122"]}, "phone": "+14152591625", "display_phone": "(415) 259-1625", "distance": 701782.2906749424}]}