{"location": "Foster City, CA", "term": "restaurant", "radius": 1757, "businesses": [{"id": "VoK8zKi1Y1xnKpPomsRcBw", "alias": "mumu-hot-pot-foster-city-2", "name": "Mumu Hot Pot", "image_url": "https://s3-media2.fl.yelpcdn.com/bphoto/QY1Oz6tpz7f91L_syiUH-Q/o.jpg", "is_closed": false, "url": "https://www.yelp.com/biz/mumu-hot-pot-foster-city-2?adjust_creative=-1a8ZLzJ76_AvFzvJVcndQ&utm_campaign=yelp_api_v3&utm_medium=api_v3_business_search&utm_source=-1a8ZLzJ76_AvFzvJVcndQ", "review_count": 161, "categories": [{"alias": "hotpot", "title": "Hot Pot"}, {"alias": "chinese", "title": "Chinese"}, {"alias": "vegan", "title": "Vegan"}], "rating": 4.5, "coordinates": {"latitude": 37.558941, "longitude": -122.267767394783}, "transactions": [], "price": "$$", "location": {"address1": "1099 Foster Square Ln", "address2": "Ste 135", "address3": null, "city": "Foster City", "zip_code": "94404", "country": "US", "state": "CA", "display_address": ["1099 Foster Square Ln", "Ste 135", "Foster City, CA 94404"]}, "phone": "+16502421945", "display_phone": "(650) 242-1945", "distance": 139.24267478240225}, {"id": "dr54P4g3vPGSP9BZDs7T3Q", "alias": "gobi-bbq-foster-city", "name": "Gobi BBQ", "image_url": "https://s3-media2.fl.yelpcdn.com/bphoto/UQhXY8W68GffPV9KXpYAuQ/o.jpg", "is_closed": false, "url": "https://www.yelp.com/biz/gobi-bbq-foster-city?adjust_creative=-1a8ZLzJ76_AvFzvJVcndQ&utm_campaign=yelp_api_v3&utm_medium=api_v3_business_search&utm_source=-1a8ZLzJ76_AvFzvJVcndQ", "review_count": 44, "categories": [{"alias": "mongolian", "title": "Mongolian"}], "rating": 4.5, "coordinates": {"latitude": 37.558478, "longitude": -122.2683363}, "transactions": [], "price": "$$", "location": {"address1": "1099 Foster Sq Ln", "address2": "", "address3": null, "city": "Foster City", "zip_code": "94404", "country": "US", "state": "CA", "display_address": ["1099 Foster Sq Ln", "Foster City, CA 94404"]}, "phone": "+16503121888", "display_phone": "(650) 312-1888", "distance": 139.64675043665915}, {"id": "Z_5Ygn2LtcVimwtyBOUY5w", "alias": "kunuginoodle-foster-city", "name": "kunuginoodle", "image_url": "https://s3-media4.fl.yelpcdn.com/bphoto/wWK8QcA5fw7CFBDAkOJGaw/o.jpg", "is_closed": false, "url": "https://www.yelp.com/biz/kunuginoodle-foster-city?adjust_creative=-1a8ZLzJ76_AvFzvJVcndQ&utm_campaign=yelp_api_v3&utm_medium=api_v3_business_search&utm_source=-1a8ZLzJ76_AvFzvJVcndQ", "review_count": 12, "categories": [{"alias": "japanese", "title": "Japanese"}, {"alias": "noodles", "title": "Noodles"}], "rating": 4.5, "coordinates": {"latitude": 37.56153, "longitude": -122.27187}, "transactions": [], "location": {"address1": "1010 Metro Center Blvd", "address2": null, "address3": "", "city": "Foster City", "zip_code": "94404", "country": "US", "state": "CA", "display_address": ["1010 Metro Center Blvd", "Foster City, CA 94404"]}, "phone": "+14159138695", "display_phone": "(415) 913-8695", "distance": 561.2299572190663}, {"id": "1UYj7AAmmXpHu91AnFFuZg", "alias": "starbird-foster-city-3", "name": "Starbird", "image_url": "https://s3-media3.fl.yelpcdn.com/bphoto/-PqfOv3pkSVZ_QDvVIg8qQ/o.jpg", "is_closed": false, "url": "https://www.yelp.com/biz/starbird-foster-city-3?adjust_creative=-1a8ZLzJ76_AvFzvJVcndQ&utm_campaign=yelp_api_v3&utm_medium=api_v3_business_search&utm_source=-1a8ZLzJ76_AvFzvJVcndQ", "review_count": 289, "categories": [{"alias": "chickenshop", "title": "Chicken Shop"}, {"alias": "hotdogs", "title": "Fast Food"}, {"alias": "gluten_free", "title": "Gluten-Free"}], "rating": 3.5, "coordinates": {"latitude": 37.56392, "longitude": -122.27103}, "transactions": ["delivery", "pickup"], "price": "$", "location": {"address1": "1141 Triton Ave", "address2": null, "address3": "", "city": "Foster City", "zip_code": "94404", "country": "US", "state": "CA", "display_address": ["1141 Triton Ave", "Foster City, CA 94404"]}, "phone": "+16505700593", "display_phone": "(650) 570-0593", "distance": 761.3866304915897}, {"id": "e74DWPCFNl_N8wUOQYq7Cg", "alias": "falafel-tazah-foster-city-4", "name": "Falafel Tazah", "image_url": "https://s3-media4.fl.yelpcdn.com/bphoto/8WLCKDPagonjw-EW8GcGBw/o.jpg", "is_closed": false, "url": "https://www.yelp.com/biz/falafel-tazah-foster-city-4?adjust_creative=-1a8ZLzJ76_AvFzvJVcndQ&utm_campaign=yelp_api_v3&utm_medium=api_v3_business_search&utm_source=-1a8ZLzJ76_AvFzvJVcndQ", "review_count": 115, "categories": [{"alias": "falafel", "title": "Falafel"}, {"alias": "mideastern", "title": "Middle Eastern"}], "rating": 4.0, "coordinates": {"latitude": 37.5589867370047, "longitude": -122.267417246367}, "transactions": ["delivery", "pickup"], "price": "$$", "location": {"address1": "780 Alma Ln", "address2": "Ste 160", "address3": null, "city": "Foster City", "zip_code": "94404", "country": "US", "state": "CA", "display_address": ["780 Alma Ln", "Ste 160", "Foster City, CA 94404"]}, "phone": "+16506274169", "display_phone": "(650) 627-4169", "distance": 136.1538812254364}, {"id": "zs96a_fRTitUG__tz5Mm8w", "alias": "tokyo-village-grill-and-sushi-foster-city-3", "name": "Tokyo Village Grill & Sushi", "image_url": "https://s3-media1.fl.yelpcdn.com/bphoto/qzhEZAWGA6QsOKTmuiEM3w/o.jpg", "is_closed": false, "url": "https://www.yelp.com/biz/tokyo-village-grill-and-sushi-foster-city-3?adjust_creative=-1a8ZLzJ76_AvFzvJVcndQ&utm_campaign=yelp_api_v3&utm_medium=api_v3_business_search&utm_source=-1a8ZLzJ76_AvFzvJVcndQ", "review_count": 113, "categories": [{"alias": "japanese", "title": "Japanese"}, {"alias": "sushi", "title": "Sushi Bars"}], "rating": 4.0, "coordinates": {"latitude": 37.562268, "longitude": -122.27733}, "transactions": ["restaurant_reservation", "pickup"], "price": "$$", "location": {"address1": "1221 Chess Dr", "address2": null, "address3": "", "city": "Foster City", "zip_code": "94404", "country": "US", "state": "CA", "display_address": ["1221 Chess Dr", "Foster City, CA 94404"]}, "phone": "+16503416888", "display_phone": "(650) 341-6888", "distance": 1023.9865115016297}, {"id": "HLxyV72T2ubdJy8ZkRmEHg", "alias": "warehouse-buffet-foster-city-2", "name": "Warehouse Buffet", "image_url": "https://s3-media1.fl.yelpcdn.com/bphoto/FCl9cQaMN3LGFSVp3fDdmQ/o.jpg", "is_closed": false, "url": "https://www.yelp.com/biz/warehouse-buffet-foster-city-2?adjust_creative=-1a8ZLzJ76_AvFzvJVcndQ&utm_campaign=yelp_api_v3&utm_medium=api_v3_business_search&utm_source=-1a8ZLzJ76_AvFzvJVcndQ", "review_count": 452, "categories": [{"alias": "buffets", "title": "Buffets"}, {"alias": "hotpot", "title": "Hot Pot"}, {"alias": "korean", "title": "Korean"}], "rating": 3.5, "coordinates": {"latitude": 37.5436659229437, "longitude": -122.27040758984}, "transactions": ["restaurant_reservation"], "price": "$$", "location": {"address1": "979 Edgewater Blvd", "address2": null, "address3": "", "city": "Foster City", "zip_code": "94404", "country": "US", "state": "CA", "display_address": ["979 Edgewater Blvd", "Foster City, CA 94404"]}, "phone": "+16503892110", "display_phone": "(650) 389-2110", "distance": 1594.3856974127398}, {"id": "KsBQaQQtnlEEDqFQuomc4w", "alias": "poppies-bistro-foster-city", "name": "Poppies Bistro", "image_url": "https://s3-media2.fl.yelpcdn.com/bphoto/ifGnvO3XQ8iAqeiXJi8Q-Q/o.jpg", "is_closed": false, "url": "https://www.yelp.com/biz/poppies-bistro-foster-city?adjust_creative=-1a8ZLzJ76_AvFzvJVcndQ&utm_campaign=yelp_api_v3&utm_medium=api_v3_business_search&utm_source=-1a8ZLzJ76_AvFzvJVcndQ", "review_count": 18, "categories": [{"alias": "breakfast_brunch", "title": "Breakfast & Brunch"}, {"alias": "kombucha", "title": "Kombucha"}, {"alias": "coffee", "title": "Coffee & Tea"}], "rating": 4.5, "coordinates": {"latitude": 37.5611381530762, "longitude": -122.268882751465}, "transactions": [], "price": "$$", "location": {"address1": "711 Thayer Ln", "address2": null, "address3": "", "city": "Foster City", "zip_code": "94404", "country": "US", "state": "CA", "display_address": ["711 Thayer Ln", "Foster City, CA 94404"]}, "phone": "+16505322478", "display_phone": "(650) 532-2478", "distance": 217.2935211743141}, {"id": "33Vbit56MY2JAQUisR4Vww", "alias": "tai-wu-mr-fongs-restaurant-foster-city", "name": "Tai Wu Mr Fong's Restaurant", "image_url": "https://s3-media4.fl.yelpcdn.com/bphoto/xqvsOKthI-1wrIc_OnPlhg/o.jpg", "is_closed": false, "url": "https://www.yelp.com/biz/tai-wu-mr-fongs-restaurant-foster-city?adjust_creative=-1a8ZLzJ76_AvFzvJVcndQ&utm_campaign=yelp_api_v3&utm_medium=api_v3_business_search&utm_source=-1a8ZLzJ76_AvFzvJVcndQ", "review_count": 368, "categories": [{"alias": "seafood", "title": "Seafood"}, {"alias": "cantonese", "title": "Cantonese"}], "rating": 3.5, "coordinates": {"latitude": 37.5539974, "longitude": -122.2564693}, "transactions": [], "price": "$", "location": {"address1": "1080 Foster City Blvd", "address2": "", "address3": "", "city": "Foster City", "zip_code": "94404", "country": "US", "state": "CA", "display_address": ["1080 Foster City Blvd", "Foster City, CA 94404"]}, "phone": "+16506380168", "display_phone": "(650) 638-0168", "distance": 1016.4671412546277}, {"id": "boHRE_S28pUdTWFiLoqXZA", "alias": "dozo-izakaya-foster-city-6", "name": "Dozo Izakaya", "image_url": "https://s3-media4.fl.yelpcdn.com/bphoto/xeTtPnq9vyNQ8Qe0Mgd_Mg/o.jpg", "is_closed": false, "url": "https://www.yelp.com/biz/dozo-izakaya-foster-city-6?adjust_creative=-1a8ZLzJ76_AvFzvJVcndQ&utm_campaign=yelp_api_v3&utm_medium=api_v3_business_search&utm_source=-1a8ZLzJ76_AvFzvJVcndQ", "review_count": 206, "categories": [{"alias": "japanese", "title": "Japanese"}, {"alias": "sushi", "title": "Sushi Bars"}], "rating": 4.0, "coordinates": {"latitude": 37.5643420833264, "longitude": -122.270239032805}, "transactions": [], "price": "$$", "location": {"address1": "3 Plaza View Ln", "address2": "", "address3": null, "city": "Foster City", "zip_code": "94404", "country": "US", "state": "CA", "display_address": ["3 Plaza View Ln", "Foster City, CA 94404"]}, "phone": "+16503588889", "display_phone": "(650) 358-8889", "distance": 778.0676331738231}, {"id": "AXGAaNZr5Jfj6mWCsxMVpw", "alias": "pastries-n-chaat-foster-city-3", "name": "Pastries N Chaat", "image_url": "https://s3-media1.fl.yelpcdn.com/bphoto/R1isDd2_c0boGKKMdRd4hg/o.jpg", "is_closed": false, "url": "https://www.yelp.com/biz/pastries-n-chaat-foster-city-3?adjust_creative=-1a8ZLzJ76_AvFzvJVcndQ&utm_campaign=yelp_api_v3&utm_medium=api_v3_business_search&utm_source=-1a8ZLzJ76_AvFzvJVcndQ", "review_count": 154, "categories": [{"alias": "indpak", "title": "Indian"}, {"alias": "desserts", "title": "Desserts"}], "rating": 3.0, "coordinates": {"latitude": 37.55813, "longitude": -122.26846}, "transactions": ["delivery", "pickup"], "price": "$$", "location": {"address1": "1100 Foster Square Ln", "address2": "Ste 150", "address3": null, "city": "Foster City", "zip_code": "94404", "country": "US", "state": "CA", "display_address": ["1100 Foster Square Ln", "Ste 150", "Foster City, CA 94404"]}, "phone": "+16503990504", "display_phone": "(650) 399-0504", "distance": 137.90662688923305}, {"id": "QOF2BpE_7v6hVZPUdfEVhw", "alias": "shiki-bento-house-foster-city-2", "name": "Shiki Bento House", "image_url": "https://s3-media2.fl.yelpcdn.com/bphoto/0U77atWz7yClrqM8lmA1ZA/o.jpg", "is_closed": false, "url": "https://www.yelp.com/biz/shiki-bento-house-foster-city-2?adjust_creative=-1a8ZLzJ76_AvFzvJVcndQ&utm_campaign=yelp_api_v3&utm_medium=api_v3_business_search&utm_source=-1a8ZLzJ76_AvFzvJVcndQ", "review_count": 27, "categories": [{"alias": "ramen", "title": "Ramen"}, {"alias": "poke", "title": "Poke"}], "rating": 3.0, "coordinates": {"latitude": 37.5589565483056, "longitude": -122.267585501965}, "transactions": ["delivery", "pickup"], "price": "$$", "location": {"address1": "1100 Foster Square Ln", "address2": "Ste 145", "address3": null, "city": "Foster City", "zip_code": "94404", "country": "US", "state": "CA", "display_address": ["1100 Foster Square Ln", "Ste 145", "Foster City, CA 94404"]}, "phone": "+16504372095", "display_phone": "(650) 437-2095", "distance": 135.87416339853664}, {"id": "emwwsC4ZyLQywGG2FGQVPw", "alias": "fashion-wok-foster-city", "name": "Fashion Wok", "image_url": "https://s3-media2.fl.yelpcdn.com/bphoto/Eo34l6fzNn3gVNQp0na_Cg/o.jpg", "is_closed": false, "url": "https://www.yelp.com/biz/fashion-wok-foster-city?adjust_creative=-1a8ZLzJ76_AvFzvJVcndQ&utm_campaign=yelp_api_v3&utm_medium=api_v3_business_search&utm_source=-1a8ZLzJ76_AvFzvJVcndQ", "review_count": 458, "categories": [{"alias": "chinese", "title": "Chinese"}, {"alias": "hotpot", "title": "Hot Pot"}], "rating": 3.5, "coordinates": {"latitude": 37.5452836454887, "longitude": -122.27046500734}, "transactions": [], "price": "$$", "location": {"address1": "929 A Edgewater Blvd", "address2": null, "address3": "", "city": "Foster City", "zip_code": "94404", "country": "US", "state": "CA", "display_address": ["929 A Edgewater Blvd", "Foster City, CA 94404"]}, "phone": "+16503588820", "display_phone": "(650) 358-8820", "distance": 1418.7572363732818}, {"id": "_A1fyfrd5WQ8wxv4fjV-qg", "alias": "cafe-savini-foster-city-2", "name": "Cafe Savini", "image_url": "https://s3-media1.fl.yelpcdn.com/bphoto/FyayVlzruFC9yrjD3-rWuw/o.jpg", "is_closed": false, "url": "https://www.yelp.com/biz/cafe-savini-foster-city-2?adjust_creative=-1a8ZLzJ76_AvFzvJVcndQ&utm_campaign=yelp_api_v3&utm_medium=api_v3_business_search&utm_source=-1a8ZLzJ76_AvFzvJVcndQ", "review_count": 93, "categories": [{"alias": "italian", "title": "Italian"}], "rating": 4.0, "coordinates": {"latitude": 37.558493, "longitude": -122.276634}, "transactions": ["delivery", "pickup"], "price": "$$", "location": {"address1": "950 Tower Ln", "address2": "Ste 100", "address3": "", "city": "Foster City", "zip_code": "94404", "country": "US", "state": "CA", "display_address": ["950 Tower Ln", "Ste 100", "Foster City, CA 94404"]}, "phone": "+16505720330", "display_phone": "(650) 572-0330", "distance": 836.3676598250727}, {"id": "Ge1FlwywXEKMIY9fdZxV1w", "alias": "pho-new-saigon-foster-city", "name": "Pho New Saigon", "image_url": "https://s3-media2.fl.yelpcdn.com/bphoto/Kt7IcSk5FuHddLzgM12kEA/o.jpg", "is_closed": false, "url": "https://www.yelp.com/biz/pho-new-saigon-foster-city?adjust_creative=-1a8ZLzJ76_AvFzvJVcndQ&utm_campaign=yelp_api_v3&utm_medium=api_v3_business_search&utm_source=-1a8ZLzJ76_AvFzvJVcndQ", "review_count": 333, "categories": [{"alias": "vietnamese", "title": "Vietnamese"}], "rating": 3.5, "coordinates": {"latitude": 37.5532937, "longitude": -122.2565492}, "transactions": [], "price": "$", "location": {"address1": "1088 Foster City Blvd", "address2": "", "address3": "", "city": "Foster City", "zip_code": "94404", "country": "US", "state": "CA", "display_address": ["1088 Foster City Blvd", "Foster City, CA 94404"]}, "phone": "+16502121788", "display_phone": "(650) 212-1788", "distance": 1062.101305264474}, {"id": "DFHX3-eFPt1fEYbGUp__Yg", "alias": "soons-tofu-and-korean-bbq-foster-city-2", "name": "Soon's Tofu and Korean BBQ", "image_url": "https://s3-media2.fl.yelpcdn.com/bphoto/MNNguL8yCUTcjvWeRs5Xfg/o.jpg", "is_closed": false, "url": "https://www.yelp.com/biz/soons-tofu-and-korean-bbq-foster-city-2?adjust_creative=-1a8ZLzJ76_AvFzvJVcndQ&utm_campaign=yelp_api_v3&utm_medium=api_v3_business_search&utm_source=-1a8ZLzJ76_AvFzvJVcndQ", "review_count": 492, "categories": [{"alias": "korean", "title": "Korean"}, {"alias": "noodles", "title": "Noodles"}, {"alias": "vegetarian", "title": "Vegetarian"}], "rating": 3.5, "coordinates": {"latitude": 37.5538628685701, "longitude": -122.257294506079}, "transactions": ["delivery", "pickup"], "price": "$$", "location": {"address1": "1062 Foster City Blvd", "address2": null, "address3": "", "city": "Foster City", "zip_code": "94404", "country": "US", "state": "CA", "display_address": ["1062 Foster City Blvd", "Foster City, CA 94404"]}, "phone": "+16502860860", "display_phone": "(650) 286-0860", "distance": 974.7057287323418}, {"id": "XWBzR8G7O48-GTUqbuXQNA", "alias": "olives-foster-city", "name": "Olives", "image_url": "https://s3-media3.fl.yelpcdn.com/bphoto/npMgIDA01a9fCIunwoM22w/o.jpg", "is_closed": false, "url": "https://www.yelp.com/biz/olives-foster-city?adjust_creative=-1a8ZLzJ76_AvFzvJVcndQ&utm_campaign=yelp_api_v3&utm_medium=api_v3_business_search&utm_source=-1a8ZLzJ76_AvFzvJVcndQ", "review_count": 264, "categories": [{"alias": "greek", "title": "Greek"}, {"alias": "mediterranean", "title": "Mediterranean"}], "rating": 4.0, "coordinates": {"latitude": 37.5447599, "longitude": -122.27104}, "transactions": ["pickup"], "price": "$", "location": {"address1": "969-J Edgewater Blvd", "address2": "", "address3": "", "city": "Foster City", "zip_code": "94404", "country": "US", "state": "CA", "display_address": ["969-J Edgewater Blvd", "Foster City, CA 94404"]}, "phone": "+16503121515", "display_phone": "(650) 312-1515", "distance": 1548.4934133215713}, {"id": "MlwTCQogDTbvi7At1-YgQw", "alias": "sandwich-monkey-foster-city", "name": "Sandwich Monkey", "image_url": "https://s3-media2.fl.yelpcdn.com/bphoto/SsVU1vXiPTLp5v_EmN4haQ/o.jpg", "is_closed": false, "url": "https://www.yelp.com/biz/sandwich-monkey-foster-city?adjust_creative=-1a8ZLzJ76_AvFzvJVcndQ&utm_campaign=yelp_api_v3&utm_medium=api_v3_business_search&utm_source=-1a8ZLzJ76_AvFzvJVcndQ", "review_count": 263, "categories": [{"alias": "sandwiches", "title": "Sandwiches"}], "rating": 3.5, "coordinates": {"latitude": 37.5644347, "longitude": -122.2700407}, "transactions": ["pickup"], "price": "$", "location": {"address1": "3 Plaza View Ln", "address2": "", "address3": "", "city": "Foster City", "zip_code": "94404", "country": "US", "state": "CA", "display_address": ["3 Plaza View Ln", "Foster City, CA 94404"]}, "phone": "+16502740264", "display_phone": "(650) 274-0264", "distance": 802.9867691429313}, {"id": "bryFirf9YL6Qk-2lezvkbw", "alias": "rickshaw-corner-restaurant-foster-city", "name": "Rickshaw Corner Restaurant", "image_url": "https://s3-media4.fl.yelpcdn.com/bphoto/_Nnrhbm7cXLkdscKJPAYGg/o.jpg", "is_closed": false, "url": "https://www.yelp.com/biz/rickshaw-corner-restaurant-foster-city?adjust_creative=-1a8ZLzJ76_AvFzvJVcndQ&utm_campaign=yelp_api_v3&utm_medium=api_v3_business_search&utm_source=-1a8ZLzJ76_AvFzvJVcndQ", "review_count": 284, "categories": [{"alias": "chinese", "title": "Chinese"}], "rating": 4.0, "coordinates": {"latitude": 37.545512, "longitude": -122.271618628478}, "transactions": ["pickup"], "price": "$", "location": {"address1": "901 Edgewater Blvd", "address2": "", "address3": "", "city": "Foster City", "zip_code": "94404", "country": "US", "state": "CA", "display_address": ["901 Edgewater Blvd", "Foster City, CA 94404"]}, "phone": "+16505742603", "display_phone": "(650) 574-2603", "distance": 1418.4703534978605}, {"id": "RiHgtOrl91QFwW4xHMOPWA", "alias": "waterfront-foster-city-2", "name": "Waterfront", "image_url": "https://s3-media3.fl.yelpcdn.com/bphoto/rcaXnpEBw3-DcDoPhBhODw/o.jpg", "is_closed": false, "url": "https://www.yelp.com/biz/waterfront-foster-city-2?adjust_creative=-1a8ZLzJ76_AvFzvJVcndQ&utm_campaign=yelp_api_v3&utm_medium=api_v3_business_search&utm_source=-1a8ZLzJ76_AvFzvJVcndQ", "review_count": 1100, "categories": [{"alias": "pizza", "title": "Pizza"}, {"alias": "mediterranean", "title": "Mediterranean"}, {"alias": "hookah_bars", "title": "Hookah Bars"}], "rating": 3.5, "coordinates": {"latitude": 37.5439918621805, "longitude": -122.27053547568}, "transactions": ["delivery", "pickup"], "price": "$$", "location": {"address1": "969 D Edgewater Blvd", "address2": "", "address3": "", "city": "Foster City", "zip_code": "94404", "country": "US", "state": "CA", "display_address": ["969 D Edgewater Blvd", "Foster City, CA 94404"]}, "phone": "+16505736634", "display_phone": "(650) 573-6634", "distance": 1560.8262820275831}, {"id": "5K3_FZD6DdMm-Gi2ZsoUOw", "alias": "armadillo-willys-bbq-san-mateo", "name": "Armadillo Willy's BBQ", "image_url": "https://s3-media4.fl.yelpcdn.com/bphoto/iPx8oRLe4R35L6ww21eQSg/o.jpg", "is_closed": false, "url": "https://www.yelp.com/biz/armadillo-willys-bbq-san-mateo?adjust_creative=-1a8ZLzJ76_AvFzvJVcndQ&utm_campaign=yelp_api_v3&utm_medium=api_v3_business_search&utm_source=-1a8ZLzJ76_AvFzvJVcndQ", "review_count": 629, "categories": [{"alias": "bbq", "title": "Barbeque"}, {"alias": "catering", "title": "Caterers"}, {"alias": "tradamerican", "title": "American (Traditional)"}], "rating": 3.5, "coordinates": {"latitude": 37.559922, "longitude": -122.281249}, "transactions": ["delivery", "pickup"], "price": "$$", "location": {"address1": "2260 Bridgepointe Pkwy", "address2": "", "address3": "", "city": "San Mateo", "zip_code": "94404", "country": "US", "state": "CA", "display_address": ["2260 Bridgepointe Pkwy", "San Mateo, CA 94404"]}, "phone": "+16505717427", "display_phone": "(650) 571-7427", "distance": 1262.1166149061519}, {"id": "AvVDmuhENdjapJimBnFUYw", "alias": "bjs-restaurant-and-brewhouse-san-mateo-2", "name": "BJ's Restaurant & Brewhouse", "image_url": "https://s3-media4.fl.yelpcdn.com/bphoto/o8b2C7OS_FK5Pnuw8LN5Rg/o.jpg", "is_closed": false, "url": "https://www.yelp.com/biz/bjs-restaurant-and-brewhouse-san-mateo-2?adjust_creative=-1a8ZLzJ76_AvFzvJVcndQ&utm_campaign=yelp_api_v3&utm_medium=api_v3_business_search&utm_source=-1a8ZLzJ76_AvFzvJVcndQ", "review_count": 1174, "categories": [{"alias": "breweries", "title": "Breweries"}, {"alias": "newamerican", "title": "American (New)"}, {"alias": "pizza", "title": "Pizza"}], "rating": 3.0, "coordinates": {"latitude": 37.560941, "longitude": -122.28275}, "transactions": ["delivery"], "price": "$$", "location": {"address1": "2206 Bridgepoint Pkwy", "address2": "", "address3": "", "city": "San Mateo", "zip_code": "94404", "country": "US", "state": "CA", "display_address": ["2206 Bridgepoint Pkwy", "San Mateo, CA 94404"]}, "phone": "+16509312990", "display_phone": "(650) 931-2990", "distance": 1416.0837993052592}, {"id": "7lWIWFG4L2kzIXITvI3oiw", "alias": "kobe-japanese-cuisine-and-bar-foster-city", "name": "Kobe Japanese Cuisine & Bar", "image_url": "https://s3-media3.fl.yelpcdn.com/bphoto/HmdYfZ2miXENb-jzJk1wOg/o.jpg", "is_closed": false, "url": "https://www.yelp.com/biz/kobe-japanese-cuisine-and-bar-foster-city?adjust_creative=-1a8ZLzJ76_AvFzvJVcndQ&utm_campaign=yelp_api_v3&utm_medium=api_v3_business_search&utm_source=-1a8ZLzJ76_AvFzvJVcndQ", "review_count": 410, "categories": [{"alias": "japanese", "title": "Japanese"}, {"alias": "sushi", "title": "Sushi Bars"}], "rating": 3.5, "coordinates": {"latitude": 37.545304984758, "longitude": -122.27056553816}, "transactions": [], "price": "$$", "location": {"address1": "929 Edgewater Blvd", "address2": null, "address3": "", "city": "Foster City", "zip_code": "94404", "country": "US", "state": "CA", "display_address": ["929 Edgewater Blvd", "Foster City, CA 94404"]}, "phone": "+16505718798", "display_phone": "(650) 571-8798", "distance": 1418.2676633131714}, {"id": "W4vxMFAYC5-uSpTDf1dInw", "alias": "mod-pizza-foster-city", "name": "MOD Pizza", "image_url": "https://s3-media3.fl.yelpcdn.com/bphoto/h3tRZH7vQTY_QxtoK6y8vg/o.jpg", "is_closed": false, "url": "https://www.yelp.com/biz/mod-pizza-foster-city?adjust_creative=-1a8ZLzJ76_AvFzvJVcndQ&utm_campaign=yelp_api_v3&utm_medium=api_v3_business_search&utm_source=-1a8ZLzJ76_AvFzvJVcndQ", "review_count": 229, "categories": [{"alias": "hotdogs", "title": "Fast Food"}, {"alias": "pizza", "title": "Pizza"}], "rating": 4.0, "coordinates": {"latitude": 37.5619418295331, "longitude": -122.278989809664}, "transactions": [], "price": "$", "location": {"address1": "1297 Chess Dr", "address2": "Ste B", "address3": null, "city": "Foster City", "zip_code": "94404", "country": "US", "state": "CA", "display_address": ["1297 Chess Dr", "Ste B", "Foster City, CA 94404"]}, "phone": "+16503501530", "display_phone": "(650) 350-1530", "distance": 1138.6835192259382}, {"id": "TtqT2gQVGcDojEpz1oVgqQ", "alias": "cafe-florian-foster-city", "name": "Cafe Florian", "image_url": "https://s3-media4.fl.yelpcdn.com/bphoto/CQ0Wmqjxkexp_EW8YSx89w/o.jpg", "is_closed": false, "url": "https://www.yelp.com/biz/cafe-florian-foster-city?adjust_creative=-1a8ZLzJ76_AvFzvJVcndQ&utm_campaign=yelp_api_v3&utm_medium=api_v3_business_search&utm_source=-1a8ZLzJ76_AvFzvJVcndQ", "review_count": 37, "categories": [{"alias": "breakfast_brunch", "title": "Breakfast & Brunch"}, {"alias": "cafes", "title": "Cafes"}, {"alias": "tradamerican", "title": "American (Traditional)"}], "rating": 3.5, "coordinates": {"latitude": 37.56221, "longitude": -122.27701}, "transactions": ["restaurant_reservation"], "price": "$$", "location": {"address1": "1221 Chess Dr", "address2": "", "address3": "", "city": "Foster City", "zip_code": "94404", "country": "US", "state": "CA", "display_address": ["1221 Chess Dr", "Foster City, CA 94404"]}, "phone": "+16505705700", "display_phone": "(650) 570-5700", "distance": 992.5153725989319}, {"id": "9DuYKjbRC6UbRhdKCjE59w", "alias": "the-habit-burger-grill-foster-city", "name": "The Habit Burger Grill", "image_url": "https://s3-media3.fl.yelpcdn.com/bphoto/HlOXUEMAXL-AtS0WkLnw-w/o.jpg", "is_closed": false, "url": "https://www.yelp.com/biz/the-habit-burger-grill-foster-city?adjust_creative=-1a8ZLzJ76_AvFzvJVcndQ&utm_campaign=yelp_api_v3&utm_medium=api_v3_business_search&utm_source=-1a8ZLzJ76_AvFzvJVcndQ", "review_count": 95, "categories": [{"alias": "burgers", "title": "Burgers"}], "rating": 3.5, "coordinates": {"latitude": 37.5618906213961, "longitude": -122.279136488603}, "transactions": [], "price": "$", "location": {"address1": "1297 Chess Dr", "address2": "", "address3": null, "city": "Foster City", "zip_code": "94404", "country": "US", "state": "CA", "display_address": ["1297 Chess Dr", "Foster City, CA 94404"]}, "phone": "+16503128494", "display_phone": "(650) 312-8494", "distance": 1148.2258293696489}, {"id": "Qp4qX6-InFDxDCgR7CUZ7w", "alias": "the-clubhouse-bistro-foster-city", "name": "The Clubhouse Bistro", "image_url": "https://s3-media1.fl.yelpcdn.com/bphoto/9X35RxsfWqUgziLqYZQ7wg/o.jpg", "is_closed": false, "url": "https://www.yelp.com/biz/the-clubhouse-bistro-foster-city?adjust_creative=-1a8ZLzJ76_AvFzvJVcndQ&utm_campaign=yelp_api_v3&utm_medium=api_v3_business_search&utm_source=-1a8ZLzJ76_AvFzvJVcndQ", "review_count": 148, "categories": [{"alias": "tradamerican", "title": "American (Traditional)"}, {"alias": "danceclubs", "title": "Dance Clubs"}, {"alias": "sportsbars", "title": "Sports Bars"}], "rating": 3.0, "coordinates": {"latitude": 37.56221, "longitude": -122.27701}, "transactions": ["delivery", "pickup"], "price": "$$", "location": {"address1": "1221 Chess Dr", "address2": "", "address3": "", "city": "Foster City", "zip_code": "94404", "country": "US", "state": "CA", "display_address": ["1221 Chess Dr", "Foster City, CA 94404"]}, "phone": "+16505705700", "display_phone": "(650) 570-5700", "distance": 992.5153725989319}, {"id": "dOSyVswdanvbXoOaDwOFVg", "alias": "plaza-gourmet-delicatessen-foster-city", "name": "Plaza Gourmet Delicatessen", "image_url": "https://s3-media2.fl.yelpcdn.com/bphoto/-evKQ_8nFkKrbMXsQ0ChXA/o.jpg", "is_closed": false, "url": "https://www.yelp.com/biz/plaza-gourmet-delicatessen-foster-city?adjust_creative=-1a8ZLzJ76_AvFzvJVcndQ&utm_campaign=yelp_api_v3&utm_medium=api_v3_business_search&utm_source=-1a8ZLzJ76_AvFzvJVcndQ", "review_count": 203, "categories": [{"alias": "delis", "title": "Delis"}, {"alias": "cheesesteaks", "title": "Cheesesteaks"}, {"alias": "sandwiches", "title": "Sandwiches"}], "rating": 4.0, "coordinates": {"latitude": 37.5454495, "longitude": -122.271864}, "transactions": [], "price": "$", "location": {"address1": "929 Edgewater Blvd", "address2": "", "address3": "", "city": "Foster City", "zip_code": "94404", "country": "US", "state": "CA", "display_address": ["929 Edgewater Blvd", "Foster City, CA 94404"]}, "phone": "+16506380213", "display_phone": "(650) 638-0213", "distance": 1438.1369823903196}, {"id": "afS3NXDfLlfFeyafmkAZnw", "alias": "safeway-foster-city", "name": "Safeway", "image_url": "https://s3-media4.fl.yelpcdn.com/bphoto/-MdBDh4zsiT0RRfYD-Rk8A/o.jpg", "is_closed": false, "url": "https://www.yelp.com/biz/safeway-foster-city?adjust_creative=-1a8ZLzJ76_AvFzvJVcndQ&utm_campaign=yelp_api_v3&utm_medium=api_v3_business_search&utm_source=-1a8ZLzJ76_AvFzvJVcndQ", "review_count": 210, "categories": [{"alias": "grocery", "title": "Grocery"}, {"alias": "drugstores", "title": "Drugstores"}, {"alias": "delis", "title": "Delis"}], "rating": 2.5, "coordinates": {"latitude": 37.55651, "longitude": -122.27568}, "transactions": [], "price": "$$", "location": {"address1": "921 E Hillsdale Blvd", "address2": "", "address3": "", "city": "Foster City", "zip_code": "94404", "country": "US", "state": "CA", "display_address": ["921 E Hillsdale Blvd", "Foster City, CA 94404"]}, "phone": "+16503770711", "display_phone": "(650) 377-0711", "distance": 775.4539688686435}, {"id": "LcOX-BaXNoY7pByu9AD4yw", "alias": "five-guys-foster-city", "name": "Five Guys", "image_url": "https://s3-media1.fl.yelpcdn.com/bphoto/uV7XycdHHmCwM1M3wV87eg/o.jpg", "is_closed": false, "url": "https://www.yelp.com/biz/five-guys-foster-city?adjust_creative=-1a8ZLzJ76_AvFzvJVcndQ&utm_campaign=yelp_api_v3&utm_medium=api_v3_business_search&utm_source=-1a8ZLzJ76_AvFzvJVcndQ", "review_count": 94, "categories": [{"alias": "burgers", "title": "Burgers"}, {"alias": "hotdogs", "title": "Fast Food"}], "rating": 3.0, "coordinates": {"latitude": 37.5572128, "longitude": -122.2755359}, "transactions": ["delivery"], "price": "$", "location": {"address1": "933 E Hillsdale Blvd", "address2": "", "address3": "", "city": "Foster City", "zip_code": "94404", "country": "US", "state": "CA", "display_address": ["933 E Hillsdale Blvd", "Foster City, CA 94404"]}, "phone": "+16502359485", "display_phone": "(650) 235-9485", "distance": 738.4245814836588}, {"id": "Is1KN9f5THyPgo1RjAxRzg", "alias": "madd-mex-cantina-food-truck-san-mateo-3", "name": "Madd Mex Cantina Food Truck", "image_url": "https://s3-media3.fl.yelpcdn.com/bphoto/sqUQfoUkNqzsWDktPN09Dg/o.jpg", "is_closed": false, "url": "https://www.yelp.com/biz/madd-mex-cantina-food-truck-san-mateo-3?adjust_creative=-1a8ZLzJ76_AvFzvJVcndQ&utm_campaign=yelp_api_v3&utm_medium=api_v3_business_search&utm_source=-1a8ZLzJ76_AvFzvJVcndQ", "review_count": 225, "categories": [{"alias": "foodtrucks", "title": "Food Trucks"}, {"alias": "mexican", "title": "Mexican"}, {"alias": "catering", "title": "Caterers"}], "rating": 4.5, "coordinates": {"latitude": 37.5521392822266, "longitude": -122.260833740234}, "transactions": [], "price": "$", "location": {"address1": "", "address2": null, "address3": "", "city": "San Mateo", "zip_code": "94404", "country": "US", "state": "CA", "display_address": ["San Mateo, CA 94404"]}, "phone": "", "display_phone": "", "distance": 464.0250051822798}, {"id": "hOlulfm43qyf0a7dqGC-7A", "alias": "quickly-foster-city-3", "name": "Quickly", "image_url": "https://s3-media2.fl.yelpcdn.com/bphoto/f7rll7wcmQjTCWoVItjXEw/o.jpg", "is_closed": false, "url": "https://www.yelp.com/biz/quickly-foster-city-3?adjust_creative=-1a8ZLzJ76_AvFzvJVcndQ&utm_campaign=yelp_api_v3&utm_medium=api_v3_business_search&utm_source=-1a8ZLzJ76_AvFzvJVcndQ", "review_count": 68, "categories": [{"alias": "coffee", "title": "Coffee & Tea"}, {"alias": "bubbletea", "title": "Bubble Tea"}, {"alias": "asianfusion", "title": "Asian Fusion"}], "rating": 3.0, "coordinates": {"latitude": 37.544414, "longitude": -122.270628}, "transactions": ["pickup"], "price": "$", "location": {"address1": "969K Edgewater Blvd", "address2": "", "address3": "", "city": "Foster City", "zip_code": "94404", "country": "US", "state": "CA", "display_address": ["969K Edgewater Blvd", "Foster City, CA 94404"]}, "phone": "+16502930160", "display_phone": "(650) 293-0160", "distance": 1516.3683141176373}, {"id": "Cz0vZ_3mLe1AhwP_UVL_yQ", "alias": "red-robin-gourmet-burgers-and-brews-san-mateo", "name": "Red Robin Gourmet Burgers and Brews", "image_url": "https://s3-media2.fl.yelpcdn.com/bphoto/WW8oyXWOfhMhkKd4iCp6OA/o.jpg", "is_closed": false, "url": "https://www.yelp.com/biz/red-robin-gourmet-burgers-and-brews-san-mateo?adjust_creative=-1a8ZLzJ76_AvFzvJVcndQ&utm_campaign=yelp_api_v3&utm_medium=api_v3_business_search&utm_source=-1a8ZLzJ76_AvFzvJVcndQ", "review_count": 547, "categories": [{"alias": "burgers", "title": "Burgers"}, {"alias": "tradamerican", "title": "American (Traditional)"}], "rating": 2.5, "coordinates": {"latitude": 37.5616722106934, "longitude": -122.282119750977}, "transactions": ["delivery", "pickup"], "price": "$$", "location": {"address1": "2204 Bridgepointe Pkwy", "address2": "", "address3": "", "city": "San Mateo", "zip_code": "94404", "country": "US", "state": "CA", "display_address": ["2204 Bridgepointe Pkwy", "San Mateo, CA 94404"]}, "phone": "+16505715500", "display_phone": "(650) 571-5500", "distance": 1385.5350946316646}, {"id": "fNHLPsCN5HoscxbvhZZI6w", "alias": "chipotle-mexican-grill-foster-city-3", "name": "Chipotle Mexican Grill", "image_url": "https://s3-media3.fl.yelpcdn.com/bphoto/oNRViaxHdUEz9o_6RMk06A/o.jpg", "is_closed": false, "url": "https://www.yelp.com/biz/chipotle-mexican-grill-foster-city-3?adjust_creative=-1a8ZLzJ76_AvFzvJVcndQ&utm_campaign=yelp_api_v3&utm_medium=api_v3_business_search&utm_source=-1a8ZLzJ76_AvFzvJVcndQ", "review_count": 238, "categories": [{"alias": "mexican", "title": "Mexican"}, {"alias": "hotdogs", "title": "Fast Food"}], "rating": 2.5, "coordinates": {"latitude": 37.5625488, "longitude": -122.280643869329}, "transactions": [], "price": "$", "location": {"address1": "2019 Chess Dr", "address2": "", "address3": "", "city": "Foster City", "zip_code": "94404", "country": "US", "state": "CA", "display_address": ["2019 Chess Dr", "Foster City, CA 94404"]}, "phone": "+16505393638", "display_phone": "(650) 539-3638", "distance": 1299.3266894317812}, {"id": "JyyLgVK_90-UuiaGrh3yEg", "alias": "carls-jr-foster-city", "name": "Carl's Jr.", "image_url": "https://s3-media3.fl.yelpcdn.com/bphoto/FFEcUfqLSgoi3O7QRKDkNA/o.jpg", "is_closed": false, "url": "https://www.yelp.com/biz/carls-jr-foster-city?adjust_creative=-1a8ZLzJ76_AvFzvJVcndQ&utm_campaign=yelp_api_v3&utm_medium=api_v3_business_search&utm_source=-1a8ZLzJ76_AvFzvJVcndQ", "review_count": 94, "categories": [{"alias": "burgers", "title": "Burgers"}, {"alias": "hotdogs", "title": "Fast Food"}], "rating": 2.5, "coordinates": {"latitude": 37.56333, "longitude": -122.27048}, "transactions": ["delivery", "pickup"], "price": "$", "location": {"address1": "1140 Triton Dr", "address2": "", "address3": "", "city": "Foster City", "zip_code": "94404", "country": "US", "state": "CA", "display_address": ["1140 Triton Dr", "Foster City, CA 94404"]}, "phone": "+16503491221", "display_phone": "(650) 349-1221", "distance": 702.9589340401612}, {"id": "dNQYJVok1mquAFnUQA3sUg", "alias": "taco-bell-foster-city", "name": "Taco Bell", "image_url": "https://s3-media3.fl.yelpcdn.com/bphoto/ucZTwTFeOejargIIlmgOcQ/o.jpg", "is_closed": false, "url": "https://www.yelp.com/biz/taco-bell-foster-city?adjust_creative=-1a8ZLzJ76_AvFzvJVcndQ&utm_campaign=yelp_api_v3&utm_medium=api_v3_business_search&utm_source=-1a8ZLzJ76_AvFzvJVcndQ", "review_count": 95, "categories": [{"alias": "hotdogs", "title": "Fast Food"}, {"alias": "tacos", "title": "Tacos"}], "rating": 2.5, "coordinates": {"latitude": 37.563497, "longitude": -122.270865}, "transactions": ["delivery"], "price": "$", "location": {"address1": "1131 Triton Dr.", "address2": "", "address3": "", "city": "Foster City", "zip_code": "94404", "country": "US", "state": "CA", "display_address": ["1131 Triton Dr.", "Foster City, CA 94404"]}, "phone": "+16505728038", "display_phone": "(650) 572-8038", "distance": 713.9397045010065}, {"id": "dGxfk4ZkYzTGKY8XJ9yCFw", "alias": "panera-bread-foster-city", "name": "Panera Bread", "image_url": "https://s3-media1.fl.yelpcdn.com/bphoto/krZTCD8HLTaVE-hM-ypdxA/o.jpg", "is_closed": false, "url": "https://www.yelp.com/biz/panera-bread-foster-city?adjust_creative=-1a8ZLzJ76_AvFzvJVcndQ&utm_campaign=yelp_api_v3&utm_medium=api_v3_business_search&utm_source=-1a8ZLzJ76_AvFzvJVcndQ", "review_count": 151, "categories": [{"alias": "soup", "title": "Soup"}, {"alias": "sandwiches", "title": "Sandwiches"}, {"alias": "salad", "title": "Salad"}], "rating": 2.5, "coordinates": {"latitude": 37.561933, "longitude": -122.2786944}, "transactions": [], "price": "$$", "location": {"address1": "1297 Chess Dr", "address2": "Ste 300", "address3": null, "city": "Foster City", "zip_code": "94404", "country": "US", "state": "CA", "display_address": ["1297 Chess Dr", "Ste 300", "Foster City, CA 94404"]}, "phone": "+16503501106", "display_phone": "(650) 350-1106", "distance": 1114.539436368694}, {"id": "o0krFOpTwxNtZl6BtoT0xA", "alias": "mcdonalds-foster-city", "name": "McDonald's", "image_url": "https://s3-media1.fl.yelpcdn.com/bphoto/mwT570rBbVN4jTY7Op3YYQ/o.jpg", "is_closed": false, "url": "https://www.yelp.com/biz/mcdonalds-foster-city?adjust_creative=-1a8ZLzJ76_AvFzvJVcndQ&utm_campaign=yelp_api_v3&utm_medium=api_v3_business_search&utm_source=-1a8ZLzJ76_AvFzvJVcndQ", "review_count": 182, "categories": [{"alias": "burgers", "title": "Burgers"}, {"alias": "hotdogs", "title": "Fast Food"}, {"alias": "coffee", "title": "Coffee & Tea"}], "rating": 2.5, "coordinates": {"latitude": 37.563291, "longitude": -122.271678}, "transactions": [], "price": "$", "location": {"address1": "1101 Triton Dr", "address2": "", "address3": "", "city": "Foster City", "zip_code": "94404", "country": "US", "state": "CA", "display_address": ["1101 Triton Dr", "Foster City, CA 94404"]}, "phone": "+16503414832", "display_phone": "(650) 341-4832", "distance": 729.8393069862705}, {"id": "b_x29As3xa68f9HfYZqHYw", "alias": "hongry-kong-belmont-2", "name": "Hongry Kong", "image_url": "https://s3-media3.fl.yelpcdn.com/bphoto/LtJnUoeZMeXMPzRTiM8CFg/o.jpg", "is_closed": false, "url": "https://www.yelp.com/biz/hongry-kong-belmont-2?adjust_creative=-1a8ZLzJ76_AvFzvJVcndQ&utm_campaign=yelp_api_v3&utm_medium=api_v3_business_search&utm_source=-1a8ZLzJ76_AvFzvJVcndQ", "review_count": 173, "categories": [{"alias": "foodtrucks", "title": "Food Trucks"}, {"alias": "catering", "title": "Caterers"}, {"alias": "seafood", "title": "Seafood"}], "rating": 3.5, "coordinates": {"latitude": 37.52369, "longitude": -122.2785}, "transactions": ["delivery", "pickup"], "price": "$", "location": {"address1": null, "address2": null, "address3": null, "city": "Belmont", "zip_code": "94002", "country": "US", "state": "CA", "display_address": ["Belmont, CA 94002"]}, "phone": "+16503365664", "display_phone": "(650) 336-5664", "distance": 4245.071419316813}, {"id": "HzRjaLbv1ePbBRP-bZxxPw", "alias": "cooking-papa-restaurant-foster-city", "name": "Cooking Papa Restaurant", "image_url": "https://s3-media1.fl.yelpcdn.com/bphoto/g8EAA7U9U4YNyYzUX4aapA/o.jpg", "is_closed": false, "url": "https://www.yelp.com/biz/cooking-papa-restaurant-foster-city?adjust_creative=-1a8ZLzJ76_AvFzvJVcndQ&utm_campaign=yelp_api_v3&utm_medium=api_v3_business_search&utm_source=-1a8ZLzJ76_AvFzvJVcndQ", "review_count": 1146, "categories": [{"alias": "cantonese", "title": "Cantonese"}], "rating": 3.5, "coordinates": {"latitude": 37.544688, "longitude": -122.270425803511}, "transactions": ["pickup", "delivery"], "price": "$$", "location": {"address1": "949A Edgewater Blvd", "address2": "", "address3": "", "city": "Foster City", "zip_code": "94404", "country": "US", "state": "CA", "display_address": ["949A Edgewater Blvd", "Foster City, CA 94404"]}, "phone": "+16505771830", "display_phone": "(650) 577-1830", "distance": 1482.9958496499723}, {"id": "jJuW8kFjOE5C3kpTil7t1w", "alias": "panda-express-foster-city-2", "name": "Panda Express", "image_url": "https://s3-media1.fl.yelpcdn.com/bphoto/oZHSOR2Uej8zf7wQzNy3ow/o.jpg", "is_closed": false, "url": "https://www.yelp.com/biz/panda-express-foster-city-2?adjust_creative=-1a8ZLzJ76_AvFzvJVcndQ&utm_campaign=yelp_api_v3&utm_medium=api_v3_business_search&utm_source=-1a8ZLzJ76_AvFzvJVcndQ", "review_count": 123, "categories": [{"alias": "chinese", "title": "Chinese"}, {"alias": "hotdogs", "title": "Fast Food"}], "rating": 2.5, "coordinates": {"latitude": 37.5627012608185, "longitude": -122.28086064503}, "transactions": [], "price": "$", "location": {"address1": "2011 Chess Dr", "address2": "", "address3": "", "city": "Foster City", "zip_code": "94404", "country": "US", "state": "CA", "display_address": ["2011 Chess Dr", "Foster City, CA 94404"]}, "phone": "+16505251816", "display_phone": "(650) 525-1816", "distance": 1323.7136451298632}, {"id": "gLSaUtVhFPIiQ0xy8UpY9w", "alias": "ihop-foster-city-2", "name": "IHOP", "image_url": "https://s3-media2.fl.yelpcdn.com/bphoto/0PU3dxoX_NJ-m3rgjEAsdw/o.jpg", "is_closed": false, "url": "https://www.yelp.com/biz/ihop-foster-city-2?adjust_creative=-1a8ZLzJ76_AvFzvJVcndQ&utm_campaign=yelp_api_v3&utm_medium=api_v3_business_search&utm_source=-1a8ZLzJ76_AvFzvJVcndQ", "review_count": 115, "categories": [{"alias": "breakfast_brunch", "title": "Breakfast & Brunch"}, {"alias": "tradamerican", "title": "American (Traditional)"}, {"alias": "burgers", "title": "Burgers"}], "rating": 3.0, "coordinates": {"latitude": 37.5626, "longitude": -122.27058}, "transactions": ["delivery", "pickup"], "price": "$$", "location": {"address1": "531 Foster City Blvd", "address2": null, "address3": "", "city": "Foster City", "zip_code": "94404", "country": "US", "state": "CA", "display_address": ["531 Foster City Blvd", "Foster City, CA 94404"]}, "phone": "+16505738887", "display_phone": "(650) 573-8887", "distance": 614.0879600083082}, {"id": "vNIEDtyx5n0gz2Bm9H1ODw", "alias": "great-american-grill-san-mateo", "name": "Great American Grill", "image_url": "https://s3-media2.fl.yelpcdn.com/bphoto/k9yT7TgvKypi9CNdJTGOsA/o.jpg", "is_closed": false, "url": "https://www.yelp.com/biz/great-american-grill-san-mateo?adjust_creative=-1a8ZLzJ76_AvFzvJVcndQ&utm_campaign=yelp_api_v3&utm_medium=api_v3_business_search&utm_source=-1a8ZLzJ76_AvFzvJVcndQ", "review_count": 14, "categories": [{"alias": "tradamerican", "title": "American (Traditional)"}], "rating": 3.5, "coordinates": {"latitude": 37.5639899, "longitude": -122.28233}, "transactions": [], "price": "$$", "location": {"address1": "2000 Bridgepointe Cir", "address2": "", "address3": "Hilton Garden Inn", "city": "San Mateo", "zip_code": "94404", "country": "US", "state": "CA", "display_address": ["2000 Bridgepointe Cir", "Hilton Garden Inn", "San Mateo, CA 94404"]}, "phone": "+16505229000", "display_phone": "(650) 522-9000", "distance": 1497.408332719902}, {"id": "LbSacP-VWWQADiw5Vw1jDw", "alias": "kellys-deli-san-mateo-2", "name": "Kelly's Deli", "image_url": "https://s3-media4.fl.yelpcdn.com/bphoto/6HHkipw8iStTUYQEjpCQPw/o.jpg", "is_closed": false, "url": "https://www.yelp.com/biz/kellys-deli-san-mateo-2?adjust_creative=-1a8ZLzJ76_AvFzvJVcndQ&utm_campaign=yelp_api_v3&utm_medium=api_v3_business_search&utm_source=-1a8ZLzJ76_AvFzvJVcndQ", "review_count": 29, "categories": [{"alias": "delis", "title": "Delis"}], "rating": 3.5, "coordinates": {"latitude": 37.5629832, "longitude": -122.2813222}, "transactions": [], "price": "$", "location": {"address1": "2001 Chess Dr", "address2": "", "address3": "", "city": "San Mateo", "zip_code": "94404", "country": "US", "state": "CA", "display_address": ["2001 Chess Dr", "San Mateo, CA 94404"]}, "phone": "", "display_phone": "", "distance": 1373.6979935469888}, {"id": "jQGGuMd7tqY93YnueSpHow", "alias": "costco-food-court-foster-city", "name": "Costco Food Court", "image_url": "https://s3-media4.fl.yelpcdn.com/bphoto/c5UBaj5JcSfOjU4l1HaACA/o.jpg", "is_closed": false, "url": "https://www.yelp.com/biz/costco-food-court-foster-city?adjust_creative=-1a8ZLzJ76_AvFzvJVcndQ&utm_campaign=yelp_api_v3&utm_medium=api_v3_business_search&utm_source=-1a8ZLzJ76_AvFzvJVcndQ", "review_count": 27, "categories": [{"alias": "pizza", "title": "Pizza"}, {"alias": "hotdogs", "title": "Fast Food"}], "rating": 3.5, "coordinates": {"latitude": 37.5613699, "longitude": -122.27514}, "transactions": [], "price": "$", "location": {"address1": "1001 Metro Ctr Blvd", "address2": "", "address3": "", "city": "Foster City", "zip_code": "94404", "country": "US", "state": "CA", "display_address": ["1001 Metro Ctr Blvd", "Foster City, CA 94404"]}, "phone": "+16502860739", "display_phone": "(650) 286-0739", "distance": 782.0984464794121}, {"id": "8xDPfxmlMWVn-OQPTPU_wA", "alias": "crazy-curry-belmont-2", "name": "Crazy Curry", "image_url": "https://s3-media4.fl.yelpcdn.com/bphoto/6V2onr7ftDPTZyg9t0UOMw/o.jpg", "is_closed": false, "url": "https://www.yelp.com/biz/crazy-curry-belmont-2?adjust_creative=-1a8ZLzJ76_AvFzvJVcndQ&utm_campaign=yelp_api_v3&utm_medium=api_v3_business_search&utm_source=-1a8ZLzJ76_AvFzvJVcndQ", "review_count": 3, "categories": [{"alias": "japacurry", "title": "Japanese Curry"}, {"alias": "foodtrucks", "title": "Food Trucks"}], "rating": 3.5, "coordinates": {"latitude": 37.5265, "longitude": -122.28178}, "transactions": [], "location": {"address1": "407 Old County Rd", "address2": null, "address3": "", "city": "Belmont", "zip_code": "94002", "country": "US", "state": "CA", "display_address": ["407 Old County Rd", "Belmont, CA 94002"]}, "phone": "+14154832691", "display_phone": "(415) 483-2691", "distance": 3709.677748614062}, {"id": "VPdUshw6DUs5Os653yfEig", "alias": "round-table-pizza-foster-city", "name": "Round Table Pizza", "image_url": "https://s3-media3.fl.yelpcdn.com/bphoto/xWPOse8xr6fpqu7ZjPNPSA/o.jpg", "is_closed": false, "url": "https://www.yelp.com/biz/round-table-pizza-foster-city?adjust_creative=-1a8ZLzJ76_AvFzvJVcndQ&utm_campaign=yelp_api_v3&utm_medium=api_v3_business_search&utm_source=-1a8ZLzJ76_AvFzvJVcndQ", "review_count": 88, "categories": [{"alias": "pizza", "title": "Pizza"}, {"alias": "buffets", "title": "Buffets"}], "rating": 2.5, "coordinates": {"latitude": 37.5539637, "longitude": -122.2564094}, "transactions": ["delivery", "pickup"], "price": "$$", "location": {"address1": "1084 Foster City Blvd", "address2": "", "address3": "", "city": "Foster City", "zip_code": "94404", "country": "US", "state": "CA", "display_address": ["1084 Foster City Blvd", "Foster City, CA 94404"]}, "phone": "+16503417457", "display_phone": "(650) 341-7457", "distance": 1003.2620746884678}, {"id": "_glSnZX5A6dIAHPU6lnlww", "alias": "camilas-tacos-san-mateo-2", "name": "Camila's Tacos", "image_url": "https://s3-media3.fl.yelpcdn.com/bphoto/UpGzHVJk-tUfSA_a9YmiWQ/o.jpg", "is_closed": false, "url": "https://www.yelp.com/biz/camilas-tacos-san-mateo-2?adjust_creative=-1a8ZLzJ76_AvFzvJVcndQ&utm_campaign=yelp_api_v3&utm_medium=api_v3_business_search&utm_source=-1a8ZLzJ76_AvFzvJVcndQ", "review_count": 25, "categories": [{"alias": "foodtrucks", "title": "Food Trucks"}, {"alias": "mexican", "title": "Mexican"}], "rating": 4.5, "coordinates": {"latitude": 37.553105305223, "longitude": -122.31493268162}, "transactions": [], "price": "$$", "location": {"address1": "1601 S El Camino Real", "address2": "", "address3": null, "city": "San Mateo", "zip_code": "94402", "country": "US", "state": "CA", "display_address": ["1601 S El Camino Real", "San Mateo, CA 94402"]}, "phone": "+16502017976", "display_phone": "(650) 201-7976", "distance": 4240.581692995451}, {"id": "9YitmvFT7dZLN6C2EyK64Q", "alias": "gateway-cafe-foster-city", "name": "Gateway Cafe", "image_url": "https://s3-media1.fl.yelpcdn.com/bphoto/IUNuXOUqn2JB2Y74h8pEcw/o.jpg", "is_closed": false, "url": "https://www.yelp.com/biz/gateway-cafe-foster-city?adjust_creative=-1a8ZLzJ76_AvFzvJVcndQ&utm_campaign=yelp_api_v3&utm_medium=api_v3_business_search&utm_source=-1a8ZLzJ76_AvFzvJVcndQ", "review_count": 18, "categories": [{"alias": "breakfast_brunch", "title": "Breakfast & Brunch"}, {"alias": "hotdogs", "title": "Fast Food"}], "rating": 3.5, "coordinates": {"latitude": 37.5570248812437, "longitude": -122.280803918839}, "transactions": [], "price": "$", "location": {"address1": "1820 Gateway Dr", "address2": "", "address3": "", "city": "Foster City", "zip_code": "94404", "country": "US", "state": "CA", "display_address": ["1820 Gateway Dr", "Foster City, CA 94404"]}, "phone": "+16503413104", "display_phone": "(650) 341-3104", "distance": 1271.1322842321003}, {"id": "x4xqFRG0hM_-ZrxDsf7A0Q", "alias": "lincoln-centre-cafe-foster-city", "name": "Lincoln Centre Cafe", "image_url": "https://s3-media3.fl.yelpcdn.com/bphoto/LcsFbg83mRIQZ7Sd5LtXpg/o.jpg", "is_closed": false, "url": "https://www.yelp.com/biz/lincoln-centre-cafe-foster-city?adjust_creative=-1a8ZLzJ76_AvFzvJVcndQ&utm_campaign=yelp_api_v3&utm_medium=api_v3_business_search&utm_source=-1a8ZLzJ76_AvFzvJVcndQ", "review_count": 1, "categories": [{"alias": "restaurants", "title": "Restaurants"}], "rating": 4.0, "coordinates": {"latitude": 37.5687293708324, "longitude": -122.270043566823}, "transactions": [], "location": {"address1": "850 Lincoln Centre Dr", "address2": "Bldg 200", "address3": "", "city": "Foster City", "zip_code": "94404", "country": "US", "state": "CA", "display_address": ["850 Lincoln Centre Dr", "Bldg 200", "Foster City, CA 94404"]}, "phone": "", "display_phone": "", "distance": 1209.2483882317458}, {"id": "DC42MrpWtqEeWRmMsn6Z8w", "alias": "the-everest-momo-fremont-2", "name": "The Everest Momo", "image_url": "https://s3-media2.fl.yelpcdn.com/bphoto/T2f7tUQ1c104otx9oSdqYw/o.jpg", "is_closed": false, "url": "https://www.yelp.com/biz/the-everest-momo-fremont-2?adjust_creative=-1a8ZLzJ76_AvFzvJVcndQ&utm_campaign=yelp_api_v3&utm_medium=api_v3_business_search&utm_source=-1a8ZLzJ76_AvFzvJVcndQ", "review_count": 23, "categories": [{"alias": "foodtrucks", "title": "Food Trucks"}, {"alias": "indpak", "title": "Indian"}, {"alias": "himalayan", "title": "Himalayan/Nepalese"}], "rating": 4.5, "coordinates": {"latitude": 37.54643, "longitude": -121.98512}, "transactions": [], "price": "$", "location": {"address1": "39233 Fremont Blvd", "address2": null, "address3": null, "city": "Fremont", "zip_code": "94538", "country": "US", "state": "CA", "display_address": ["39233 Fremont Blvd", "Fremont, CA 94538"]}, "phone": "+14088406369", "display_phone": "(408) 840-6369", "distance": 24904.901981393126}, {"id": "ojUAPwlCiu_4vm_Z0ZqiYQ", "alias": "bayareatacocatering-belmont", "name": "BayAreaTacoCatering", "image_url": "https://s3-media2.fl.yelpcdn.com/bphoto/GMhjsoS5maG6UsosVN8Yhw/o.jpg", "is_closed": false, "url": "https://www.yelp.com/biz/bayareatacocatering-belmont?adjust_creative=-1a8ZLzJ76_AvFzvJVcndQ&utm_campaign=yelp_api_v3&utm_medium=api_v3_business_search&utm_source=-1a8ZLzJ76_AvFzvJVcndQ", "review_count": 24, "categories": [{"alias": "tacos", "title": "Tacos"}, {"alias": "catering", "title": "Caterers"}, {"alias": "foodtrucks", "title": "Food Trucks"}], "rating": 5.0, "coordinates": {"latitude": 37.5117858227472, "longitude": -122.292540979695}, "transactions": [], "price": "$", "location": {"address1": null, "address2": null, "address3": "", "city": "Belmont", "zip_code": "94002", "country": "US", "state": "CA", "display_address": ["Belmont, CA 94002"]}, "phone": "+15108666832", "display_phone": "(510) 866-6832", "distance": 5581.079920176682}, {"id": "7dHj1XDVA_7AYXTfp5i-BQ", "alias": "momo-noodle-san-francisco", "name": "MOMO noodle", "image_url": "https://s3-media4.fl.yelpcdn.com/bphoto/7zlv0Fz-2CTVIPLa767RVw/o.jpg", "is_closed": false, "url": "https://www.yelp.com/biz/momo-noodle-san-francisco?adjust_creative=-1a8ZLzJ76_AvFzvJVcndQ&utm_campaign=yelp_api_v3&utm_medium=api_v3_business_search&utm_source=-1a8ZLzJ76_AvFzvJVcndQ", "review_count": 46, "categories": [{"alias": "noodles", "title": "Noodles"}, {"alias": "foodtrucks", "title": "Food Trucks"}, {"alias": "szechuan", "title": "Szechuan"}], "rating": 4.0, "coordinates": {"latitude": 37.79106, "longitude": -122.40175}, "transactions": [], "price": "$$", "location": {"address1": null, "address2": null, "address3": "", "city": "San Francisco", "zip_code": "94104", "country": "US", "state": "CA", "display_address": ["San Francisco, CA 94104"]}, "phone": "+14088006819", "display_phone": "(408) 800-6819", "distance": 28534.8467854901}, {"id": "Leup0gVdW3eHxgikGvsGmw", "alias": "tierra-blanca-sushi-y-mariscos-redwood-city-5", "name": "Tierra Blanca Sushi Y Mariscos", "image_url": "https://s3-media4.fl.yelpcdn.com/bphoto/oN511OPbO2yrk38tX11wSQ/o.jpg", "is_closed": false, "url": "https://www.yelp.com/biz/tierra-blanca-sushi-y-mariscos-redwood-city-5?adjust_creative=-1a8ZLzJ76_AvFzvJVcndQ&utm_campaign=yelp_api_v3&utm_medium=api_v3_business_search&utm_source=-1a8ZLzJ76_AvFzvJVcndQ", "review_count": 35, "categories": [{"alias": "mexican", "title": "Mexican"}, {"alias": "foodtrucks", "title": "Food Trucks"}, {"alias": "seafood", "title": "Seafood"}], "rating": 4.5, "coordinates": {"latitude": 37.4839703, "longitude": -122.2006564}, "transactions": [], "price": "$$", "location": {"address1": "2ND Ave And Page St", "address2": null, "address3": "", "city": "Redwood City", "zip_code": "94063", "country": "US", "state": "CA", "display_address": ["2ND Ave And Page St", "Redwood City, CA 94063"]}, "phone": "+16506306133", "display_phone": "(650) 630-6133", "distance": 10088.634204923348}, {"id": "ga-czlYSJy1xziyFeyWB3Q", "alias": "guckenheimer-san-mateo-2", "name": "Guckenheimer", "image_url": "", "is_closed": false, "url": "https://www.yelp.com/biz/guckenheimer-san-mateo-2?adjust_creative=-1a8ZLzJ76_AvFzvJVcndQ&utm_campaign=yelp_api_v3&utm_medium=api_v3_business_search&utm_source=-1a8ZLzJ76_AvFzvJVcndQ", "review_count": 1, "categories": [{"alias": "restaurants", "title": "Restaurants"}, {"alias": "fooddeliveryservices", "title": "Food Delivery Services"}], "rating": 1.0, "coordinates": {"latitude": 37.55699, "longitude": -122.27988}, "transactions": [], "location": {"address1": "1850 Gateway Dr", "address2": "Ste 500", "address3": "", "city": "San Mateo", "zip_code": "94404", "country": "US", "state": "CA", "display_address": ["1850 Gateway Dr", "Ste 500", "San Mateo, CA 94404"]}, "phone": "+16505923800", "display_phone": "(650) 592-3800", "distance": 1125.6488732618316}, {"id": "40DtuR_HxNuBVf_uSoy66Q", "alias": "keeku-da-dhaba-fremont-2", "name": "Keeku da Dhaba", "image_url": "https://s3-media2.fl.yelpcdn.com/bphoto/8x2WS8oGXINIKI6pNnQYBw/o.jpg", "is_closed": false, "url": "https://www.yelp.com/biz/keeku-da-dhaba-fremont-2?adjust_creative=-1a8ZLzJ76_AvFzvJVcndQ&utm_campaign=yelp_api_v3&utm_medium=api_v3_business_search&utm_source=-1a8ZLzJ76_AvFzvJVcndQ", "review_count": 115, "categories": [{"alias": "indpak", "title": "Indian"}, {"alias": "foodtrucks", "title": "Food Trucks"}, {"alias": "kebab", "title": "Kebab"}], "rating": 4.5, "coordinates": {"latitude": 37.551938, "longitude": -121.985058}, "transactions": [], "location": {"address1": "3400 Mowry Ave", "address2": "", "address3": "Bharat Bazaar Parking Space", "city": "Fremont", "zip_code": "94538", "country": "US", "state": "CA", "display_address": ["3400 Mowry Ave", "Bharat Bazaar Parking Space", "Fremont, CA 94538"]}, "phone": "+15107893437", "display_phone": "(510) 789-3437", "distance": 24876.853073516973}, {"id": "X1NgPMMREoTTDAZPe6D-kA", "alias": "whisk-on-wheels-redwood-city", "name": "Whisk on Wheels", "image_url": "https://s3-media1.fl.yelpcdn.com/bphoto/qt-YlMlVl6G5a2wXxHgtJA/o.jpg", "is_closed": false, "url": "https://www.yelp.com/biz/whisk-on-wheels-redwood-city?adjust_creative=-1a8ZLzJ76_AvFzvJVcndQ&utm_campaign=yelp_api_v3&utm_medium=api_v3_business_search&utm_source=-1a8ZLzJ76_AvFzvJVcndQ", "review_count": 119, "categories": [{"alias": "catering", "title": "Caterers"}, {"alias": "foodtrucks", "title": "Food Trucks"}, {"alias": "tradamerican", "title": "American (Traditional)"}], "rating": 4.0, "coordinates": {"latitude": 37.48853, "longitude": -122.22662}, "transactions": [], "price": "$$", "location": {"address1": "", "address2": null, "address3": "", "city": "Redwood City", "zip_code": "94063", "country": "US", "state": "CA", "display_address": ["Redwood City, CA 94063"]}, "phone": "+14159021188", "display_phone": "(415) 902-1188", "distance": 8055.165522194469}, {"id": "rM6pPB_qmQ3de5yGpfLT1g", "alias": "lomo-libre-san-francisco-2", "name": "Lomo Libre", "image_url": "https://s3-media1.fl.yelpcdn.com/bphoto/vjnO-EUjFHKoLMy2_JQYvg/o.jpg", "is_closed": false, "url": "https://www.yelp.com/biz/lomo-libre-san-francisco-2?adjust_creative=-1a8ZLzJ76_AvFzvJVcndQ&utm_campaign=yelp_api_v3&utm_medium=api_v3_business_search&utm_source=-1a8ZLzJ76_AvFzvJVcndQ", "review_count": 8, "categories": [{"alias": "foodtrucks", "title": "Food Trucks"}, {"alias": "peruvian", "title": "Peruvian"}], "rating": 5.0, "coordinates": {"latitude": 37.799634, "longitude": -122.436301}, "transactions": [], "location": {"address1": "2101 Lombard St", "address2": "", "address3": null, "city": "San Francisco", "zip_code": "94123", "country": "US", "state": "CA", "display_address": ["2101 Lombard St", "San Francisco, CA 94123"]}, "phone": "+14156198149", "display_phone": "(415) 619-8149", "distance": 30737.3490740454}, {"id": "lGLyIlp2qqAVu5Zxeomy9Q", "alias": "gondo-fusion-south-san-francisco", "name": "Gondo Fusion", "image_url": "https://s3-media2.fl.yelpcdn.com/bphoto/Ry4KFwoAev_BGRpe2WtcYA/o.jpg", "is_closed": false, "url": "https://www.yelp.com/biz/gondo-fusion-south-san-francisco?adjust_creative=-1a8ZLzJ76_AvFzvJVcndQ&utm_campaign=yelp_api_v3&utm_medium=api_v3_business_search&utm_source=-1a8ZLzJ76_AvFzvJVcndQ", "review_count": 13, "categories": [{"alias": "foodtrucks", "title": "Food Trucks"}, {"alias": "cuban", "title": "Cuban"}, {"alias": "mexican", "title": "Mexican"}], "rating": 4.0, "coordinates": {"latitude": 37.65774, "longitude": -122.41407}, "transactions": [], "location": {"address1": "", "address2": null, "address3": "", "city": "South San Francisco", "zip_code": "94080", "country": "US", "state": "CA", "display_address": ["South San Francisco, CA 94080"]}, "phone": "+16502185404", "display_phone": "(650) 218-5404", "distance": 17030.09221694569}, {"id": "PxzM_zNIOy7jdtwT-fbB0w", "alias": "minnie-bells-san-francisco-2", "name": "Minnie Bells", "image_url": "https://s3-media2.fl.yelpcdn.com/bphoto/5YNxEigMmu8anIwGkIsEzg/o.jpg", "is_closed": false, "url": "https://www.yelp.com/biz/minnie-bells-san-francisco-2?adjust_creative=-1a8ZLzJ76_AvFzvJVcndQ&utm_campaign=yelp_api_v3&utm_medium=api_v3_business_search&utm_source=-1a8ZLzJ76_AvFzvJVcndQ", "review_count": 15, "categories": [{"alias": "soulfood", "title": "Soul Food"}, {"alias": "foodtrucks", "title": "Food Trucks"}, {"alias": "comfortfood", "title": "Comfort Food"}], "rating": 4.5, "coordinates": {"latitude": 37.7769775466477, "longitude": -122.416963241994}, "transactions": [], "location": {"address1": "", "address2": "", "address3": null, "city": "San Francisco", "zip_code": "94103", "country": "US", "state": "CA", "display_address": ["San Francisco, CA 94103"]}, "phone": "+14152739340", "display_phone": "(415) 273-9340", "distance": 27710.753123062364}, {"id": "jVGGp6ZQ_0jMVcDA8zC3nA", "alias": "mobile-food-fleet-san-bruno", "name": "Mobile Food Fleet", "image_url": "https://s3-media2.fl.yelpcdn.com/bphoto/mdPFUd9IwfEUibv4sFZ5Jg/o.jpg", "is_closed": false, "url": "https://www.yelp.com/biz/mobile-food-fleet-san-bruno?adjust_creative=-1a8ZLzJ76_AvFzvJVcndQ&utm_campaign=yelp_api_v3&utm_medium=api_v3_business_search&utm_source=-1a8ZLzJ76_AvFzvJVcndQ", "review_count": 1, "categories": [{"alias": "foodtrucks", "title": "Food Trucks"}, {"alias": "tacos", "title": "Tacos"}], "rating": 5.0, "coordinates": {"latitude": 37.6276206970215, "longitude": -122.425605773926}, "transactions": [], "location": {"address1": "", "address2": null, "address3": "", "city": "San Bruno", "zip_code": "94066", "country": "US", "state": "CA", "display_address": ["San Bruno, CA 94066"]}, "phone": "+16507735397", "display_phone": "(650) 773-5397", "distance": 15958.061438718887}, {"id": "qOKiXV4yxm40m3Ni9vsQlA", "alias": "momo-cook-fremont-3", "name": "MoMo CooK", "image_url": "https://s3-media1.fl.yelpcdn.com/bphoto/ZAM_gtFZMwrxbsxML0Qm2w/o.jpg", "is_closed": false, "url": "https://www.yelp.com/biz/momo-cook-fremont-3?adjust_creative=-1a8ZLzJ76_AvFzvJVcndQ&utm_campaign=yelp_api_v3&utm_medium=api_v3_business_search&utm_source=-1a8ZLzJ76_AvFzvJVcndQ", "review_count": 143, "categories": [{"alias": "chinese", "title": "Chinese"}, {"alias": "indpak", "title": "Indian"}, {"alias": "foodtrucks", "title": "Food Trucks"}], "rating": 4.5, "coordinates": {"latitude": 37.5536230879515, "longitude": -121.982570104301}, "transactions": [], "price": "$", "location": {"address1": "39039 Capitol Ave", "address2": null, "address3": "", "city": "Fremont", "zip_code": "94538", "country": "US", "state": "CA", "display_address": ["39039 Capitol Ave", "Fremont, CA 94538"]}, "phone": "+16012126767", "display_phone": "(601) 212-6767", "distance": 25093.659431111846}, {"id": "iA2CQeT9iWbUifpYrqtRbw", "alias": "yeeshaans-grubb-san-mateo-san-mateo-3", "name": "YeeShaans Grubb - San Mateo", "image_url": "https://s3-media1.fl.yelpcdn.com/bphoto/4Feev8zrWsRWiaBTiBDXCQ/o.jpg", "is_closed": false, "url": "https://www.yelp.com/biz/yeeshaans-grubb-san-mateo-san-mateo-3?adjust_creative=-1a8ZLzJ76_AvFzvJVcndQ&utm_campaign=yelp_api_v3&utm_medium=api_v3_business_search&utm_source=-1a8ZLzJ76_AvFzvJVcndQ", "review_count": 4, "categories": [{"alias": "halal", "title": "Halal"}, {"alias": "burgers", "title": "Burgers"}, {"alias": "foodtrucks", "title": "Food Trucks"}], "rating": 5.0, "coordinates": {"latitude": 37.5528491, "longitude": -122.3145976}, "transactions": ["delivery", "pickup"], "location": {"address1": "1619 S El Camino Real", "address2": null, "address3": "", "city": "San Mateo", "zip_code": "94402", "country": "US", "state": "CA", "display_address": ["1619 S El Camino Real", "San Mateo, CA 94402"]}, "phone": "+15106059510", "display_phone": "(510) 605-9510", "distance": 4227.460895755327}, {"id": "lgheXsHqe66AEZwoPDIEpw", "alias": "taco-coma-newark", "name": "Taco Coma", "image_url": "https://s3-media3.fl.yelpcdn.com/bphoto/DDz5lZDL5lDiRR_Ph0L4Sg/o.jpg", "is_closed": false, "url": "https://www.yelp.com/biz/taco-coma-newark?adjust_creative=-1a8ZLzJ76_AvFzvJVcndQ&utm_campaign=yelp_api_v3&utm_medium=api_v3_business_search&utm_source=-1a8ZLzJ76_AvFzvJVcndQ", "review_count": 3, "categories": [{"alias": "foodstands", "title": "Food Stands"}, {"alias": "tacos", "title": "Tacos"}], "rating": 5.0, "coordinates": {"latitude": 37.53453, "longitude": -122.03284}, "transactions": [], "location": {"address1": "", "address2": null, "address3": "", "city": "Newark", "zip_code": "94560", "country": "US", "state": "CA", "display_address": ["Newark, CA 94560"]}, "phone": "+15106971448", "display_phone": "(510) 697-1448", "distance": 20406.91176937242}, {"id": "4O9_XN624O9iT7jbSfdlGw", "alias": "applied-biosystems-cafeteria-1149-foster-city", "name": "Applied Biosystems Cafeteria 1149", "image_url": "", "is_closed": false, "url": "https://www.yelp.com/biz/applied-biosystems-cafeteria-1149-foster-city?adjust_creative=-1a8ZLzJ76_AvFzvJVcndQ&utm_campaign=yelp_api_v3&utm_medium=api_v3_business_search&utm_source=-1a8ZLzJ76_AvFzvJVcndQ", "review_count": 2, "categories": [{"alias": "cafeteria", "title": "Cafeteria"}], "rating": 3.0, "coordinates": {"latitude": 37.5687293708324, "longitude": -122.270043566823}, "transactions": [], "price": "$", "location": {"address1": "850 Lincoln Centre Dr", "address2": "Bldg 1149", "address3": "", "city": "Foster City", "zip_code": "94404", "country": "US", "state": "CA", "display_address": ["850 Lincoln Centre Dr", "Bldg 1149", "Foster City, CA 94404"]}, "phone": "", "display_phone": "", "distance": 1209.2483882317458}, {"id": "2foqEQPQVy91S_ze4Win-A", "alias": "lamas-peruvian-truck-daly-city-2", "name": "Lamas Peruvian Truck", "image_url": "https://s3-media3.fl.yelpcdn.com/bphoto/G81twUQQu_9iDQMlyq58AA/o.jpg", "is_closed": false, "url": "https://www.yelp.com/biz/lamas-peruvian-truck-daly-city-2?adjust_creative=-1a8ZLzJ76_AvFzvJVcndQ&utm_campaign=yelp_api_v3&utm_medium=api_v3_business_search&utm_source=-1a8ZLzJ76_AvFzvJVcndQ", "review_count": 32, "categories": [{"alias": "foodtrucks", "title": "Food Trucks"}, {"alias": "peruvian", "title": "Peruvian"}], "rating": 3.5, "coordinates": {"latitude": 37.69158, "longitude": -122.46252}, "transactions": [], "price": "$$", "location": {"address1": "", "address2": null, "address3": null, "city": "Daly City", "zip_code": "94014", "country": "US", "state": "CA", "display_address": ["Daly City, CA 94014"]}, "phone": "+16507979866", "display_phone": "(650) 797-9866", "distance": 21992.826981587295}, {"id": "1e93gYXXlBHA0-XJXicJhQ", "alias": "inshallah-food-truck-south-san-francisco-2", "name": "Inshallah Food Truck", "image_url": "https://s3-media1.fl.yelpcdn.com/bphoto/IBFIlRI2k5jz_4uMvkIIUw/o.jpg", "is_closed": false, "url": "https://www.yelp.com/biz/inshallah-food-truck-south-san-francisco-2?adjust_creative=-1a8ZLzJ76_AvFzvJVcndQ&utm_campaign=yelp_api_v3&utm_medium=api_v3_business_search&utm_source=-1a8ZLzJ76_AvFzvJVcndQ", "review_count": 1, "categories": [{"alias": "mediterranean", "title": "Mediterranean"}, {"alias": "foodtrucks", "title": "Food Trucks"}], "rating": 3.0, "coordinates": {"latitude": 37.66737, "longitude": -122.38249}, "transactions": [], "location": {"address1": "395 Oyster Point", "address2": null, "address3": "", "city": "South San Francisco", "zip_code": "94080", "country": "US", "state": "CA", "display_address": ["395 Oyster Point", "South San Francisco, CA 94080"]}, "phone": "+16502716848", "display_phone": "(650) 271-6848", "distance": 15924.670724053409}, {"id": "jCcAuXhCpeJP2n-8ol7mxg", "alias": "kolobok-russian-soul-food-truck-oakland", "name": "Kolobok Russian Soul Food Truck", "image_url": "https://s3-media1.fl.yelpcdn.com/bphoto/k8s1Bfc05Iw7SJXE6VJ74Q/o.jpg", "is_closed": false, "url": "https://www.yelp.com/biz/kolobok-russian-soul-food-truck-oakland?adjust_creative=-1a8ZLzJ76_AvFzvJVcndQ&utm_campaign=yelp_api_v3&utm_medium=api_v3_business_search&utm_source=-1a8ZLzJ76_AvFzvJVcndQ", "review_count": 47, "categories": [{"alias": "foodtrucks", "title": "Food Trucks"}, {"alias": "russian", "title": "Russian"}], "rating": 4.5, "coordinates": {"latitude": 37.7883087690458, "longitude": -122.309032460882}, "transactions": [], "price": "$$", "location": {"address1": null, "address2": null, "address3": "", "city": "Oakland", "zip_code": "94577", "country": "US", "state": "CA", "display_address": ["Oakland, CA 94577"]}, "phone": "+15105996542", "display_phone": "(510) 599-6542", "distance": 25897.26487235074}, {"id": "y7jjHpDrYUI7YGpE8e31-g", "alias": "pita-and-salt-santa-clara-2", "name": "Pita & Salt", "image_url": "https://s3-media4.fl.yelpcdn.com/bphoto/OzeFWYEgK2L4rl5VOSyEHQ/o.jpg", "is_closed": false, "url": "https://www.yelp.com/biz/pita-and-salt-santa-clara-2?adjust_creative=-1a8ZLzJ76_AvFzvJVcndQ&utm_campaign=yelp_api_v3&utm_medium=api_v3_business_search&utm_source=-1a8ZLzJ76_AvFzvJVcndQ", "review_count": 74, "categories": [{"alias": "mediterranean", "title": "Mediterranean"}, {"alias": "halal", "title": "Halal"}, {"alias": "foodtrucks", "title": "Food Trucks"}], "rating": 4.5, "coordinates": {"latitude": 37.3400871, "longitude": -121.987255}, "transactions": ["delivery", "pickup"], "price": "$", "location": {"address1": null, "address2": null, "address3": "", "city": "Santa Clara", "zip_code": "95051", "country": "US", "state": "CA", "display_address": ["Santa Clara, CA 95051"]}, "phone": "+16128765509", "display_phone": "(612) 876-5509", "distance": 34591.77895758645}, {"id": "8SNGFcMWZkvS4GWDUL8w1Q", "alias": "noon-o-kabob-san-jose-4", "name": "Noon O Kabob", "image_url": "https://s3-media2.fl.yelpcdn.com/bphoto/5GmY5FRw0m0XEWC5XXbVlA/o.jpg", "is_closed": false, "url": "https://www.yelp.com/biz/noon-o-kabob-san-jose-4?adjust_creative=-1a8ZLzJ76_AvFzvJVcndQ&utm_campaign=yelp_api_v3&utm_medium=api_v3_business_search&utm_source=-1a8ZLzJ76_AvFzvJVcndQ", "review_count": 29, "categories": [{"alias": "foodtrucks", "title": "Food Trucks"}, {"alias": "kebab", "title": "Kebab"}, {"alias": "persian", "title": "Persian/Iranian"}], "rating": 4.5, "coordinates": {"latitude": 37.3940232, "longitude": -122.0288052}, "transactions": [], "price": "$$", "location": {"address1": null, "address2": null, "address3": null, "city": "San Jose", "zip_code": "95101", "country": "US", "state": "CA", "display_address": ["San Jose, CA 95101"]}, "phone": "+14083346777", "display_phone": "(408) 334-6777", "distance": 27822.096391525352}, {"id": "XCC2GEmWwwsb6LoeZLaqXA", "alias": "momolicious-san-francisco-2", "name": "MOMOlicious", "image_url": "https://s3-media1.fl.yelpcdn.com/bphoto/3yNgEihH74gOY8BSlXWZtg/o.jpg", "is_closed": false, "url": "https://www.yelp.com/biz/momolicious-san-francisco-2?adjust_creative=-1a8ZLzJ76_AvFzvJVcndQ&utm_campaign=yelp_api_v3&utm_medium=api_v3_business_search&utm_source=-1a8ZLzJ76_AvFzvJVcndQ", "review_count": 100, "categories": [{"alias": "foodtrucks", "title": "Food Trucks"}, {"alias": "himalayan", "title": "Himalayan/Nepalese"}, {"alias": "noodles", "title": "Noodles"}], "rating": 4.5, "coordinates": {"latitude": 37.7945413, "longitude": -122.3949711}, "transactions": [], "price": "$$", "location": {"address1": "10 Market St", "address2": null, "address3": "", "city": "San Francisco", "zip_code": "94105", "country": "US", "state": "CA", "display_address": ["10 Market St", "San Francisco, CA 94105"]}, "phone": "+15102876606", "display_phone": "(510) 287-6606", "distance": 28583.11255988356}, {"id": "WTtLB137UZmS1WbKrnXuAg", "alias": "borsch-mobile-san-francisco", "name": "Borsch Mobile", "image_url": "https://s3-media4.fl.yelpcdn.com/bphoto/xzNCVt8nwmvwdWuUEEbvaA/o.jpg", "is_closed": false, "url": "https://www.yelp.com/biz/borsch-mobile-san-francisco?adjust_creative=-1a8ZLzJ76_AvFzvJVcndQ&utm_campaign=yelp_api_v3&utm_medium=api_v3_business_search&utm_source=-1a8ZLzJ76_AvFzvJVcndQ", "review_count": 30, "categories": [{"alias": "russian", "title": "Russian"}, {"alias": "foodtrucks", "title": "Food Trucks"}, {"alias": "modern_european", "title": "Modern European"}], "rating": 4.5, "coordinates": {"latitude": 37.7713890075684, "longitude": -122.393447875977}, "transactions": [], "price": "$$", "location": {"address1": "", "address2": "", "address3": null, "city": "San Francisco", "zip_code": "94158", "country": "US", "state": "CA", "display_address": ["San Francisco, CA 94158"]}, "phone": "+14157704371", "display_phone": "(415) 770-4371", "distance": 26348.39998149381}, {"id": "CUwBAy6lrFi4x6Neu9eRVw", "alias": "mini-street-burger-alameda-3", "name": "Mini Street Burger", "image_url": "https://s3-media2.fl.yelpcdn.com/bphoto/Kh-OQKBIclWY1dCeIuu57w/o.jpg", "is_closed": false, "url": "https://www.yelp.com/biz/mini-street-burger-alameda-3?adjust_creative=-1a8ZLzJ76_AvFzvJVcndQ&utm_campaign=yelp_api_v3&utm_medium=api_v3_business_search&utm_source=-1a8ZLzJ76_AvFzvJVcndQ", "review_count": 28, "categories": [{"alias": "foodtrucks", "title": "Food Trucks"}, {"alias": "burgers", "title": "Burgers"}], "rating": 4.0, "coordinates": {"latitude": 37.82628, "longitude": -122.25101}, "transactions": [], "location": {"address1": null, "address2": null, "address3": null, "city": "Alameda", "zip_code": "94611", "country": "US", "state": "CA", "display_address": ["Alameda, CA 94611"]}, "phone": "+15108278982", "display_phone": "(510) 827-8982", "distance": 31189.217113705374}, {"id": "or6vgjw2EFtsWUW_F_eW3A", "alias": "yoshi-food-truck-fremont-2", "name": "Yoshi Food Truck", "image_url": "https://s3-media3.fl.yelpcdn.com/bphoto/YTdMb9ocRxHjMv-CEYwN5g/o.jpg", "is_closed": false, "url": "https://www.yelp.com/biz/yoshi-food-truck-fremont-2?adjust_creative=-1a8ZLzJ76_AvFzvJVcndQ&utm_campaign=yelp_api_v3&utm_medium=api_v3_business_search&utm_source=-1a8ZLzJ76_AvFzvJVcndQ", "review_count": 27, "categories": [{"alias": "foodtrucks", "title": "Food Trucks"}, {"alias": "poke", "title": "Poke"}, {"alias": "japanese", "title": "Japanese"}], "rating": 4.5, "coordinates": {"latitude": 37.494597, "longitude": -121.94160967}, "transactions": [], "location": {"address1": "45500 Fremont Blvd", "address2": null, "address3": "", "city": "Fremont", "zip_code": "94538", "country": "US", "state": "CA", "display_address": ["45500 Fremont Blvd", "Fremont, CA 94538"]}, "phone": "+16693776666", "display_phone": "(669) 377-6666", "distance": 29736.798544631238}, {"id": "Lg73M4FnC1QQmUGpGHD4hA", "alias": "kabob-trolley-san-francisco-5", "name": "Kabob Trolley", "image_url": "https://s3-media2.fl.yelpcdn.com/bphoto/6WneQFOu-WWB-80KhY5TeA/o.jpg", "is_closed": false, "url": "https://www.yelp.com/biz/kabob-trolley-san-francisco-5?adjust_creative=-1a8ZLzJ76_AvFzvJVcndQ&utm_campaign=yelp_api_v3&utm_medium=api_v3_business_search&utm_source=-1a8ZLzJ76_AvFzvJVcndQ", "review_count": 86, "categories": [{"alias": "foodtrucks", "title": "Food Trucks"}, {"alias": "afghani", "title": "Afghan"}, {"alias": "halal", "title": "Halal"}], "rating": 3.5, "coordinates": {"latitude": 37.776774, "longitude": -122.3940414}, "transactions": ["pickup"], "price": "$", "location": {"address1": "298 King St", "address2": "", "address3": "", "city": "San Francisco", "zip_code": "94107", "country": "US", "state": "CA", "display_address": ["298 King St", "San Francisco, CA 94107"]}, "phone": "+14154049756", "display_phone": "(415) 404-9756", "distance": 26789.170303486488}, {"id": "-arrRYJYGEejjYaBa8gJ5Q", "alias": "la-flamme-oakland-2", "name": "La Flamme", "image_url": "https://s3-media1.fl.yelpcdn.com/bphoto/RnuD-0Cj1J9SYQIuky76mQ/o.jpg", "is_closed": false, "url": "https://www.yelp.com/biz/la-flamme-oakland-2?adjust_creative=-1a8ZLzJ76_AvFzvJVcndQ&utm_campaign=yelp_api_v3&utm_medium=api_v3_business_search&utm_source=-1a8ZLzJ76_AvFzvJVcndQ", "review_count": 20, "categories": [{"alias": "pizza", "title": "Pizza"}, {"alias": "foodtrucks", "title": "Food Trucks"}], "rating": 4.0, "coordinates": {"latitude": 37.8089442, "longitude": -122.2652352}, "transactions": ["delivery", "pickup"], "price": "$$", "location": {"address1": "344 Thomas L Berkeley Way -", "address2": "Ste 310", "address3": "", "city": "OAKLAND", "zip_code": "94612", "country": "US", "state": "CA", "display_address": ["344 Thomas L Berkeley Way -", "Ste 310", "OAKLAND, CA 94612"]}, "phone": "+14153168541", "display_phone": "(415) 316-8541", "distance": 27929.159669708784}, {"id": "kQEPAzL76d_4F8RJwpmYCQ", "alias": "3-3-3-fremont", "name": "3-3-3", "image_url": "https://s3-media1.fl.yelpcdn.com/bphoto/WrUzEXSitGcLpQkVQsUgWg/o.jpg", "is_closed": false, "url": "https://www.yelp.com/biz/3-3-3-fremont?adjust_creative=-1a8ZLzJ76_AvFzvJVcndQ&utm_campaign=yelp_api_v3&utm_medium=api_v3_business_search&utm_source=-1a8ZLzJ76_AvFzvJVcndQ", "review_count": 182, "categories": [{"alias": "korean", "title": "Korean"}, {"alias": "foodtrucks", "title": "Food Trucks"}, {"alias": "indpak", "title": "Indian"}], "rating": 4.0, "coordinates": {"latitude": 37.3595859789331, "longitude": -121.923039561035}, "transactions": [], "price": "$", "location": {"address1": "", "address2": null, "address3": "", "city": "Fremont", "zip_code": "94539", "country": "US", "state": "CA", "display_address": ["Fremont, CA 94539"]}, "phone": "+15104498360", "display_phone": "(510) 449-8360", "distance": 37528.519841693684}, {"id": "XTJJ_PUQoJKIh31ZIzsFzw", "alias": "cochinita-food-truck-san-francisco-6", "name": "Cochinita Food Truck", "image_url": "https://s3-media2.fl.yelpcdn.com/bphoto/w77SOd2jVJjOh1lwuYQ42w/o.jpg", "is_closed": false, "url": "https://www.yelp.com/biz/cochinita-food-truck-san-francisco-6?adjust_creative=-1a8ZLzJ76_AvFzvJVcndQ&utm_campaign=yelp_api_v3&utm_medium=api_v3_business_search&utm_source=-1a8ZLzJ76_AvFzvJVcndQ", "review_count": 49, "categories": [{"alias": "foodtrucks", "title": "Food Trucks"}, {"alias": "mexican", "title": "Mexican"}], "rating": 4.5, "coordinates": {"latitude": 37.770753, "longitude": -122.3916722}, "transactions": [], "price": "$", "location": {"address1": "601 Mission Blvd N", "address2": null, "address3": "", "city": "San Francisco", "zip_code": "94103", "country": "US", "state": "CA", "display_address": ["601 Mission Blvd N", "San Francisco, CA 94103"]}, "phone": "+14159883663", "display_phone": "(415) 988-3663", "distance": 26094.014768562265}, {"id": "RZuGdsSkwvpIt3Nnjyga8A", "alias": "serendipity-food-truck-san-francisco", "name": "Serendipity Food Truck", "image_url": "https://s3-media1.fl.yelpcdn.com/bphoto/HM1b2tiz7b-odiAGU6SY8g/o.jpg", "is_closed": false, "url": "https://www.yelp.com/biz/serendipity-food-truck-san-francisco?adjust_creative=-1a8ZLzJ76_AvFzvJVcndQ&utm_campaign=yelp_api_v3&utm_medium=api_v3_business_search&utm_source=-1a8ZLzJ76_AvFzvJVcndQ", "review_count": 23, "categories": [{"alias": "newamerican", "title": "American (New)"}, {"alias": "foodtrucks", "title": "Food Trucks"}, {"alias": "comfortfood", "title": "Comfort Food"}], "rating": 4.5, "coordinates": {"latitude": 37.73053, "longitude": -122.38523}, "transactions": [], "price": "$$", "location": {"address1": "", "address2": null, "address3": "", "city": "San Francisco", "zip_code": "94124", "country": "US", "state": "CA", "display_address": ["San Francisco, CA 94124"]}, "phone": "+19164791437", "display_phone": "(916) 479-1437", "distance": 21795.956191379944}, {"id": "C8QSWh3j0xkXwiWC8h-7ag", "alias": "three-amigos-market-and-deli-oakland", "name": "Three Amigos Market & Deli", "image_url": "https://s3-media1.fl.yelpcdn.com/bphoto/B4LNxfyWsiyHibJqkrK1gQ/o.jpg", "is_closed": false, "url": "https://www.yelp.com/biz/three-amigos-market-and-deli-oakland?adjust_creative=-1a8ZLzJ76_AvFzvJVcndQ&utm_campaign=yelp_api_v3&utm_medium=api_v3_business_search&utm_source=-1a8ZLzJ76_AvFzvJVcndQ", "review_count": 9, "categories": [{"alias": "grocery", "title": "Grocery"}, {"alias": "sandwiches", "title": "Sandwiches"}, {"alias": "delis", "title": "Delis"}], "rating": 4.5, "coordinates": {"latitude": 37.791048, "longitude": -122.245431}, "transactions": [], "price": "$", "location": {"address1": "1554 13th Ave", "address2": "", "address3": "", "city": "Oakland", "zip_code": "94606", "country": "US", "state": "CA", "display_address": ["1554 13th Ave", "Oakland, CA 94606"]}, "phone": "+15102612353", "display_phone": "(510) 261-2353", "distance": 26009.25485756554}, {"id": "uuouQQIFQ1B9mkmcxaAKFA", "alias": "tacos-el-rey-oakland", "name": "Tacos El Rey", "image_url": "https://s3-media2.fl.yelpcdn.com/bphoto/DblyFrtT9uyPCQAUfPbYbQ/o.jpg", "is_closed": false, "url": "https://www.yelp.com/biz/tacos-el-rey-oakland?adjust_creative=-1a8ZLzJ76_AvFzvJVcndQ&utm_campaign=yelp_api_v3&utm_medium=api_v3_business_search&utm_source=-1a8ZLzJ76_AvFzvJVcndQ", "review_count": 9, "categories": [{"alias": "foodtrucks", "title": "Food Trucks"}, {"alias": "mexican", "title": "Mexican"}], "rating": 4.0, "coordinates": {"latitude": 37.8294034, "longitude": -122.2875758}, "transactions": [], "price": "$", "location": {"address1": "40th & Horton", "address2": "", "address3": null, "city": "Oakland", "zip_code": "94608", "country": "US", "state": "CA", "display_address": ["40th & Horton", "Oakland, CA 94608"]}, "phone": "+15108130232", "display_phone": "(510) 813-0232", "distance": 30256.806099582544}, {"id": "_HuNiaPs0WOo4R_3-8Qp1w", "alias": "adams-grub-truck-san-francisco-2", "name": "Adam's Grub Truck", "image_url": "https://s3-media3.fl.yelpcdn.com/bphoto/0mWV2kVfZJyPxats8bu-Rg/o.jpg", "is_closed": false, "url": "https://www.yelp.com/biz/adams-grub-truck-san-francisco-2?adjust_creative=-1a8ZLzJ76_AvFzvJVcndQ&utm_campaign=yelp_api_v3&utm_medium=api_v3_business_search&utm_source=-1a8ZLzJ76_AvFzvJVcndQ", "review_count": 329, "categories": [{"alias": "sandwiches", "title": "Sandwiches"}, {"alias": "asianfusion", "title": "Asian Fusion"}, {"alias": "foodtrucks", "title": "Food Trucks"}], "rating": 4.0, "coordinates": {"latitude": 37.770765, "longitude": -122.391708}, "transactions": ["delivery", "pickup"], "price": "$$", "location": {"address1": "601 Mission Bay Blvd N", "address2": "", "address3": "", "city": "San Francisco", "zip_code": "94158", "country": "US", "state": "CA", "display_address": ["601 Mission Bay Blvd N", "San Francisco, CA 94158"]}, "phone": "+14153078844", "display_phone": "(415) 307-8844", "distance": 26096.548727942914}, {"id": "MutHfYUQnieaBuycuNXEPA", "alias": "damians-tacos-and-hotdogs-alum-rock", "name": "Damian's Tacos & Hotdogs", "image_url": "https://s3-media3.fl.yelpcdn.com/bphoto/HHmnhqlFJwEDhftVetH4qw/o.jpg", "is_closed": false, "url": "https://www.yelp.com/biz/damians-tacos-and-hotdogs-alum-rock?adjust_creative=-1a8ZLzJ76_AvFzvJVcndQ&utm_campaign=yelp_api_v3&utm_medium=api_v3_business_search&utm_source=-1a8ZLzJ76_AvFzvJVcndQ", "review_count": 7, "categories": [{"alias": "foodtrucks", "title": "Food Trucks"}, {"alias": "tacos", "title": "Tacos"}, {"alias": "hotdog", "title": "Hot Dogs"}], "rating": 4.5, "coordinates": {"latitude": 37.3549620850075, "longitude": -121.851418079178}, "transactions": [], "price": "$", "location": {"address1": "1925 Alumrock Ave", "address2": "", "address3": null, "city": "Alum Rock", "zip_code": "95116", "country": "US", "state": "CA", "display_address": ["1925 Alumrock Ave", "Alum Rock, CA 95116"]}, "phone": "+14084397331", "display_phone": "(408) 439-7331", "distance": 43074.631253361906}, {"id": "-SnIHr-tALmciy_J1VqXRg", "alias": "cielito-lindo-mexican-street-kitchen-san-jos\u00e9-5", "name": "Cielito Lindo Mexican Street Kitchen", "image_url": "https://s3-media4.fl.yelpcdn.com/bphoto/kCSoIcRPwQ0tPiGQh3gEFw/o.jpg", "is_closed": false, "url": "https://www.yelp.com/biz/cielito-lindo-mexican-street-kitchen-san-jos%C3%A9-5?adjust_creative=-1a8ZLzJ76_AvFzvJVcndQ&utm_campaign=yelp_api_v3&utm_medium=api_v3_business_search&utm_source=-1a8ZLzJ76_AvFzvJVcndQ", "review_count": 40, "categories": [{"alias": "foodtrucks", "title": "Food Trucks"}, {"alias": "mexican", "title": "Mexican"}], "rating": 4.0, "coordinates": {"latitude": 37.3853149414062, "longitude": -121.893257141113}, "transactions": [], "price": "$", "location": {"address1": null, "address2": null, "address3": "", "city": "San Jos\u00e9", "zip_code": "95131", "country": "US", "state": "CA", "display_address": ["San Jos\u00e9, CA 95131"]}, "phone": "+16508629836", "display_phone": "(650) 862-9836", "distance": 37672.15555692123}, {"id": "0x_iVQeDq7YVMjNGUNuloA", "alias": "holy-cannoli-san-jose-3", "name": "Holy Cannoli", "image_url": "https://s3-media1.fl.yelpcdn.com/bphoto/-2Pxy7VYA8-CTgdvUf58Og/o.jpg", "is_closed": false, "url": "https://www.yelp.com/biz/holy-cannoli-san-jose-3?adjust_creative=-1a8ZLzJ76_AvFzvJVcndQ&utm_campaign=yelp_api_v3&utm_medium=api_v3_business_search&utm_source=-1a8ZLzJ76_AvFzvJVcndQ", "review_count": 58, "categories": [{"alias": "cafes", "title": "Cafes"}, {"alias": "catering", "title": "Caterers"}, {"alias": "foodtrucks", "title": "Food Trucks"}], "rating": 4.5, "coordinates": {"latitude": 37.337298, "longitude": -121.88759}, "transactions": ["delivery", "pickup"], "price": "$", "location": {"address1": "138 E Santa Clara St", "address2": null, "address3": null, "city": "San Jose", "zip_code": "95113", "country": "US", "state": "CA", "display_address": ["138 E Santa Clara St", "San Jose, CA 95113"]}, "phone": "+14085612223", "display_phone": "(408) 561-2223", "distance": 41520.86532741096}, {"id": "ai1PcujD1397VPMNc8Ffcg", "alias": "cross-hatch-eatery-sunnyvale", "name": "Cross Hatch Eatery", "image_url": "https://s3-media1.fl.yelpcdn.com/bphoto/HPquQAnn8mSmsNlng5Z-_A/o.jpg", "is_closed": false, "url": "https://www.yelp.com/biz/cross-hatch-eatery-sunnyvale?adjust_creative=-1a8ZLzJ76_AvFzvJVcndQ&utm_campaign=yelp_api_v3&utm_medium=api_v3_business_search&utm_source=-1a8ZLzJ76_AvFzvJVcndQ", "review_count": 1, "categories": [{"alias": "asianfusion", "title": "Asian Fusion"}, {"alias": "foodtrucks", "title": "Food Trucks"}], "rating": 1.0, "coordinates": {"latitude": 37.3998374938965, "longitude": -121.997146606445}, "transactions": [], "location": {"address1": "", "address2": null, "address3": "", "city": "Sunnyvale", "zip_code": "94089", "country": "US", "state": "CA", "display_address": ["Sunnyvale, CA 94089"]}, "phone": "+16692322267", "display_phone": "(669) 232-2267", "distance": 27363.63574120681}, {"id": "S9MYGapWK7T7oKUEYLz6Iw", "alias": "the-boneyard-san-bruno-3", "name": "The Boneyard", "image_url": "https://s3-media3.fl.yelpcdn.com/bphoto/uG6EEbOomy5tsXTsHGodxg/o.jpg", "is_closed": false, "url": "https://www.yelp.com/biz/the-boneyard-san-bruno-3?adjust_creative=-1a8ZLzJ76_AvFzvJVcndQ&utm_campaign=yelp_api_v3&utm_medium=api_v3_business_search&utm_source=-1a8ZLzJ76_AvFzvJVcndQ", "review_count": 87, "categories": [{"alias": "foodtrucks", "title": "Food Trucks"}, {"alias": "bbq", "title": "Barbeque"}, {"alias": "catering", "title": "Caterers"}], "rating": 3.5, "coordinates": {"latitude": 37.7939188282826, "longitude": -122.400518522289}, "transactions": ["delivery", "pickup"], "price": "$$", "location": {"address1": "1225 San Mateo Ave", "address2": null, "address3": "", "city": "San Bruno", "zip_code": "94066", "country": "US", "state": "CA", "display_address": ["1225 San Mateo Ave", "San Bruno, CA 94066"]}, "phone": "+14159350696", "display_phone": "(415) 935-0696", "distance": 28760.496761043054}, {"id": "Qa7brHniluYGS6kvDLn_7Q", "alias": "3geeks-food-truck-santa-clara", "name": "3GEEKS FOOD TRUCK", "image_url": "https://s3-media2.fl.yelpcdn.com/bphoto/Ahw89hwfujcvycQ_3soddQ/o.jpg", "is_closed": false, "url": "https://www.yelp.com/biz/3geeks-food-truck-santa-clara?adjust_creative=-1a8ZLzJ76_AvFzvJVcndQ&utm_campaign=yelp_api_v3&utm_medium=api_v3_business_search&utm_source=-1a8ZLzJ76_AvFzvJVcndQ", "review_count": 86, "categories": [{"alias": "seafood", "title": "Seafood"}, {"alias": "cheesesteaks", "title": "Cheesesteaks"}, {"alias": "foodtrucks", "title": "Food Trucks"}], "rating": 3.0, "coordinates": {"latitude": 37.39911, "longitude": -121.95728}, "transactions": [], "price": "$$", "location": {"address1": null, "address2": null, "address3": "", "city": "Santa Clara", "zip_code": "95054", "country": "US", "state": "CA", "display_address": ["Santa Clara, CA 95054"]}, "phone": "+14089090709", "display_phone": "(408) 909-0709", "distance": 32051.111307390143}, {"id": "_Y526-jjGzk_fjXBj1EePA", "alias": "paddy-wagon-sliders-san-jose-11", "name": "Paddy Wagon Sliders", "image_url": "https://s3-media1.fl.yelpcdn.com/bphoto/ESoDFDH27crUaTgFNhJB0w/o.jpg", "is_closed": false, "url": "https://www.yelp.com/biz/paddy-wagon-sliders-san-jose-11?adjust_creative=-1a8ZLzJ76_AvFzvJVcndQ&utm_campaign=yelp_api_v3&utm_medium=api_v3_business_search&utm_source=-1a8ZLzJ76_AvFzvJVcndQ", "review_count": 225, "categories": [{"alias": "foodtrucks", "title": "Food Trucks"}, {"alias": "burgers", "title": "Burgers"}, {"alias": "catering", "title": "Caterers"}], "rating": 4.0, "coordinates": {"latitude": 37.3382082, "longitude": -121.8863286}, "transactions": [], "price": "$", "location": {"address1": "", "address2": null, "address3": "", "city": "San Jose", "zip_code": "95112", "country": "US", "state": "CA", "display_address": ["San Jose, CA 95112"]}, "phone": "+14086435254", "display_phone": "(408) 643-5254", "distance": 41551.07392470502}, {"id": "jW66693LVPlyDtzAoeb7KQ", "alias": "travelin-joe-espresso-berkeley", "name": "Travelin Joe Espresso", "image_url": "https://s3-media2.fl.yelpcdn.com/bphoto/XiqMQnnnbGe4g2SzU4Wm-A/o.jpg", "is_closed": false, "url": "https://www.yelp.com/biz/travelin-joe-espresso-berkeley?adjust_creative=-1a8ZLzJ76_AvFzvJVcndQ&utm_campaign=yelp_api_v3&utm_medium=api_v3_business_search&utm_source=-1a8ZLzJ76_AvFzvJVcndQ", "review_count": 33, "categories": [{"alias": "coffee", "title": "Coffee & Tea"}, {"alias": "foodstands", "title": "Food Stands"}, {"alias": "waffles", "title": "Waffles"}], "rating": 4.5, "coordinates": {"latitude": 37.85571, "longitude": -122.2893}, "transactions": [], "price": "$$", "location": {"address1": "1016 Grayson St", "address2": "", "address3": "", "city": "Berkeley", "zip_code": "94710", "country": "US", "state": "CA", "display_address": ["1016 Grayson St", "Berkeley, CA 94710"]}, "phone": "+15109197279", "display_phone": "(510) 919-7279", "distance": 33189.75314138245}, {"id": "GcfdjsPGaXrY02Q3bsKvew", "alias": "el-diferente-san-jose-4", "name": "El Diferente", "image_url": "https://s3-media4.fl.yelpcdn.com/bphoto/bTeYqqJp0YrJkkfM5OiPZg/o.jpg", "is_closed": false, "url": "https://www.yelp.com/biz/el-diferente-san-jose-4?adjust_creative=-1a8ZLzJ76_AvFzvJVcndQ&utm_campaign=yelp_api_v3&utm_medium=api_v3_business_search&utm_source=-1a8ZLzJ76_AvFzvJVcndQ", "review_count": 41, "categories": [{"alias": "foodtrucks", "title": "Food Trucks"}, {"alias": "tacos", "title": "Tacos"}, {"alias": "catering", "title": "Caterers"}], "rating": 5.0, "coordinates": {"latitude": 37.324611, "longitude": -121.880933}, "transactions": [], "price": "$", "location": {"address1": "795 S 2nd St", "address2": "", "address3": null, "city": "San Jose", "zip_code": "95112", "country": "US", "state": "CA", "display_address": ["795 S 2nd St", "San Jose, CA 95112"]}, "phone": "+14086651936", "display_phone": "(408) 665-1936", "distance": 42837.73265844241}, {"id": "C9uewBH5505NV0EWYBIJAA", "alias": "lady-and-l-aperitivo-san-jose", "name": "Lady & L'Aperitivo", "image_url": "https://s3-media4.fl.yelpcdn.com/bphoto/3nz0sRE9MlOq_4xVRQRt9w/o.jpg", "is_closed": false, "url": "https://www.yelp.com/biz/lady-and-l-aperitivo-san-jose?adjust_creative=-1a8ZLzJ76_AvFzvJVcndQ&utm_campaign=yelp_api_v3&utm_medium=api_v3_business_search&utm_source=-1a8ZLzJ76_AvFzvJVcndQ", "review_count": 1, "categories": [{"alias": "bakeries", "title": "Bakeries"}, {"alias": "desserts", "title": "Desserts"}, {"alias": "cheesesteaks", "title": "Cheesesteaks"}], "rating": 5.0, "coordinates": {"latitude": 37.2208938598633, "longitude": -121.861633300781}, "transactions": [], "location": {"address1": null, "address2": null, "address3": "", "city": "San Jose", "zip_code": "95120", "country": "US", "state": "CA", "display_address": ["San Jose, CA 95120"]}, "phone": "", "display_phone": "", "distance": 57053.42573261339}, {"id": "M3vYD__s0sSkOie_Uwft3A", "alias": "taste-buds-bbq-tracy-2", "name": "Taste Buds BBQ", "image_url": "https://s3-media1.fl.yelpcdn.com/bphoto/pX1yclRMlmo1S7Db6iO6Lg/o.jpg", "is_closed": false, "url": "https://www.yelp.com/biz/taste-buds-bbq-tracy-2?adjust_creative=-1a8ZLzJ76_AvFzvJVcndQ&utm_campaign=yelp_api_v3&utm_medium=api_v3_business_search&utm_source=-1a8ZLzJ76_AvFzvJVcndQ", "review_count": 3, "categories": [{"alias": "bbq", "title": "Barbeque"}, {"alias": "catering", "title": "Caterers"}, {"alias": "foodtrucks", "title": "Food Trucks"}], "rating": 4.5, "coordinates": {"latitude": 37.74251, "longitude": -121.42994}, "transactions": [], "location": {"address1": "", "address2": null, "address3": "", "city": "Tracy", "zip_code": "95376", "country": "US", "state": "CA", "display_address": ["Tracy, CA 95376"]}, "phone": "+16502241324", "display_phone": "(650) 224-1324", "distance": 75927.82509854423}, {"id": "IU3OJCdlT92FsM8ohRiWig", "alias": "el-buen-taco-santa-cruz-2", "name": "El Buen Taco", "image_url": "https://s3-media2.fl.yelpcdn.com/bphoto/A_KAIKX-yDTTk2TTkFnFhw/o.jpg", "is_closed": false, "url": "https://www.yelp.com/biz/el-buen-taco-santa-cruz-2?adjust_creative=-1a8ZLzJ76_AvFzvJVcndQ&utm_campaign=yelp_api_v3&utm_medium=api_v3_business_search&utm_source=-1a8ZLzJ76_AvFzvJVcndQ", "review_count": 22, "categories": [{"alias": "tacos", "title": "Tacos"}, {"alias": "foodtrucks", "title": "Food Trucks"}], "rating": 4.5, "coordinates": {"latitude": 36.97017, "longitude": -122.02429}, "transactions": [], "location": {"address1": null, "address2": null, "address3": "", "city": "Santa Cruz", "zip_code": "95060", "country": "US", "state": "CA", "display_address": ["Santa Cruz, CA 95060"]}, "phone": "+18317130703", "display_phone": "(831) 713-0703", "distance": 68187.81734051282}, {"id": "xomxVUXe8Sy5R2nt7qBxxg", "alias": "fired-mobile-pizza-oven-stockton", "name": "FIRED Mobile Pizza Oven", "image_url": "https://s3-media4.fl.yelpcdn.com/bphoto/JV4MGBFFrJGZQbmtdoOLFQ/o.jpg", "is_closed": false, "url": "https://www.yelp.com/biz/fired-mobile-pizza-oven-stockton?adjust_creative=-1a8ZLzJ76_AvFzvJVcndQ&utm_campaign=yelp_api_v3&utm_medium=api_v3_business_search&utm_source=-1a8ZLzJ76_AvFzvJVcndQ", "review_count": 8, "categories": [{"alias": "pizza", "title": "Pizza"}, {"alias": "catering", "title": "Caterers"}, {"alias": "foodtrucks", "title": "Food Trucks"}], "rating": 5.0, "coordinates": {"latitude": 38.0521138, "longitude": -121.3484448}, "transactions": [], "location": {"address1": null, "address2": null, "address3": "", "city": "Stockton", "zip_code": "95209", "country": "US", "state": "CA", "display_address": ["Stockton, CA 95209"]}, "phone": "+12092424105", "display_phone": "(209) 242-4105", "distance": 97654.74857559608}, {"id": "sR0Wy3LYGdYV9HLszRlMmw", "alias": "tacos-la-palmita-stockton", "name": "Tacos La Palmita", "image_url": "https://s3-media2.fl.yelpcdn.com/bphoto/pzYoRmZjUQqxZ7qOyU7hUQ/o.jpg", "is_closed": false, "url": "https://www.yelp.com/biz/tacos-la-palmita-stockton?adjust_creative=-1a8ZLzJ76_AvFzvJVcndQ&utm_campaign=yelp_api_v3&utm_medium=api_v3_business_search&utm_source=-1a8ZLzJ76_AvFzvJVcndQ", "review_count": 90, "categories": [{"alias": "tacos", "title": "Tacos"}, {"alias": "foodtrucks", "title": "Food Trucks"}], "rating": 4.5, "coordinates": {"latitude": 38.008129, "longitude": -121.320219}, "transactions": ["delivery", "pickup"], "price": "$", "location": {"address1": "6393 Pacific Ave", "address2": null, "address3": null, "city": "Stockton", "zip_code": "95207", "country": "US", "state": "CA", "display_address": ["6393 Pacific Ave", "Stockton, CA 95207"]}, "phone": "+12093026825", "display_phone": "(209) 302-6825", "distance": 97125.10256372433}, {"id": "bUe6V7qwbr95Zg14Bpi8qw", "alias": "curbside-pies-knob-noster-mo-2", "name": "Curbside Pies", "image_url": "https://s3-media2.fl.yelpcdn.com/bphoto/3MO0dr4ok9hisoHpYSIwcA/o.jpg", "is_closed": false, "url": "https://www.yelp.com/biz/curbside-pies-knob-noster-mo-2?adjust_creative=-1a8ZLzJ76_AvFzvJVcndQ&utm_campaign=yelp_api_v3&utm_medium=api_v3_business_search&utm_source=-1a8ZLzJ76_AvFzvJVcndQ", "review_count": 2, "categories": [{"alias": "pizza", "title": "Pizza"}, {"alias": "foodtrucks", "title": "Food Trucks"}], "rating": 5.0, "coordinates": {"latitude": 38.772474, "longitude": -93.57255}, "transactions": [], "location": {"address1": "1601 W 7th Street Ter", "address2": "", "address3": null, "city": "Knob Noster MO", "zip_code": "65336", "country": "US", "state": "MO", "display_address": ["1601 W 7th Street Ter", "Knob Noster MO, MO 65336"]}, "phone": "+15057508525", "display_phone": "(505) 750-8525", "distance": 2501988.4127017176}]}