{"location": "Gilroy, CA", "term": "restaurant", "radius": 3649, "businesses": [{"id": "5_IelWCid_SPx7LLYlqKUQ", "alias": "garlic-city-cafe-gilroy", "name": "Garlic City Cafe", "image_url": "https://s3-media1.fl.yelpcdn.com/bphoto/suOPhY9QyuXiBRGuYkFgGQ/o.jpg", "is_closed": false, "url": "https://www.yelp.com/biz/garlic-city-cafe-gilroy?adjust_creative=-1a8ZLzJ76_AvFzvJVcndQ&utm_campaign=yelp_api_v3&utm_medium=api_v3_business_search&utm_source=-1a8ZLzJ76_AvFzvJVcndQ", "review_count": 570, "categories": [{"alias": "tradamerican", "title": "American (Traditional)"}, {"alias": "diners", "title": "Diners"}, {"alias": "italian", "title": "Italian"}], "rating": 4.0, "coordinates": {"latitude": 37.0076217651367, "longitude": -121.569465637207}, "transactions": [], "price": "$$", "location": {"address1": "7461 Monterey St", "address2": "", "address3": "", "city": "Gilroy", "zip_code": "95020", "country": "US", "state": "CA", "display_address": ["7461 Monterey St", "Gilroy, CA 95020"]}, "phone": "+14088477744", "display_phone": "(408) 847-7744", "distance": 1025.495808825602}, {"id": "y_3RHd5d-UPziSkYXvahvQ", "alias": "pineapple-village-gilroy", "name": "Pineapple Village", "image_url": "https://s3-media3.fl.yelpcdn.com/bphoto/mZpsJtUbDcJP-roCxxZnGQ/o.jpg", "is_closed": false, "url": "https://www.yelp.com/biz/pineapple-village-gilroy?adjust_creative=-1a8ZLzJ76_AvFzvJVcndQ&utm_campaign=yelp_api_v3&utm_medium=api_v3_business_search&utm_source=-1a8ZLzJ76_AvFzvJVcndQ", "review_count": 584, "categories": [{"alias": "asianfusion", "title": "Asian Fusion"}, {"alias": "vietnamese", "title": "Vietnamese"}, {"alias": "thai", "title": "Thai"}], "rating": 4.0, "coordinates": {"latitude": 37.01427, "longitude": -121.585}, "transactions": [], "price": "$$", "location": {"address1": "769 First St", "address2": "", "address3": "", "city": "Gilroy", "zip_code": "95020", "country": "US", "state": "CA", "display_address": ["769 First St", "Gilroy, CA 95020"]}, "phone": "+14088422888", "display_phone": "(408) 842-2888", "distance": 620.4345659724551}, {"id": "4TnPziE38JPK6CikPdCFGQ", "alias": "saigon-2-siam-bistro-gilroy-3", "name": "Saigon -2- Siam Bistro", "image_url": "https://s3-media1.fl.yelpcdn.com/bphoto/6tMIBn4wv62aqdF4hWs78Q/o.jpg", "is_closed": false, "url": "https://www.yelp.com/biz/saigon-2-siam-bistro-gilroy-3?adjust_creative=-1a8ZLzJ76_AvFzvJVcndQ&utm_campaign=yelp_api_v3&utm_medium=api_v3_business_search&utm_source=-1a8ZLzJ76_AvFzvJVcndQ", "review_count": 816, "categories": [{"alias": "vietnamese", "title": "Vietnamese"}, {"alias": "thai", "title": "Thai"}], "rating": 4.5, "coordinates": {"latitude": 37.0124363, "longitude": -121.5946556}, "transactions": [], "price": "$$", "location": {"address1": "1280 1st St", "address2": "Ste E", "address3": "", "city": "Gilroy", "zip_code": "95020", "country": "US", "state": "CA", "display_address": ["1280 1st St", "Ste E", "Gilroy, CA 95020"]}, "phone": "+14088486000", "display_phone": "(408) 848-6000", "distance": 1277.977360439184}, {"id": "UtuLWO9q-6khJmuREkjo0Q", "alias": "ods-kitchen-gilroy", "name": "OD's Kitchen", "image_url": "https://s3-media2.fl.yelpcdn.com/bphoto/85agIr_nMNsj85fltQbazQ/o.jpg", "is_closed": false, "url": "https://www.yelp.com/biz/ods-kitchen-gilroy?adjust_creative=-1a8ZLzJ76_AvFzvJVcndQ&utm_campaign=yelp_api_v3&utm_medium=api_v3_business_search&utm_source=-1a8ZLzJ76_AvFzvJVcndQ", "review_count": 979, "categories": [{"alias": "breakfast_brunch", "title": "Breakfast & Brunch"}, {"alias": "tradamerican", "title": "American (Traditional)"}], "rating": 4.5, "coordinates": {"latitude": 37.008, "longitude": -121.56882}, "transactions": [], "price": "$$", "location": {"address1": "28 Martin St", "address2": null, "address3": "", "city": "Gilroy", "zip_code": "95020", "country": "US", "state": "CA", "display_address": ["28 Martin St", "Gilroy, CA 95020"]}, "phone": "+14088473818", "display_phone": "(408) 847-3818", "distance": 1075.0407400027734}, {"id": "Xe-k3e20ySDxbPKS8zp-2Q", "alias": "los-cuates-buffet-gilroy", "name": "Los Cuates Buffet", "image_url": "https://s3-media1.fl.yelpcdn.com/bphoto/55NFSsCMW-fvSW2n16VGcQ/o.jpg", "is_closed": false, "url": "https://www.yelp.com/biz/los-cuates-buffet-gilroy?adjust_creative=-1a8ZLzJ76_AvFzvJVcndQ&utm_campaign=yelp_api_v3&utm_medium=api_v3_business_search&utm_source=-1a8ZLzJ76_AvFzvJVcndQ", "review_count": 26, "categories": [{"alias": "buffets", "title": "Buffets"}, {"alias": "mexican", "title": "Mexican"}, {"alias": "tradamerican", "title": "American (Traditional)"}], "rating": 3.0, "coordinates": {"latitude": 37.017781, "longitude": -121.56318}, "transactions": [], "location": {"address1": "7950 Arroyo Cir", "address2": null, "address3": "", "city": "Gilroy", "zip_code": "95020", "country": "US", "state": "CA", "display_address": ["7950 Arroyo Cir", "Gilroy, CA 95020"]}, "phone": "+14087672166", "display_phone": "(408) 767-2166", "distance": 1845.5336871389145}, {"id": "nm-VeO6Ft6sOA8imq3ssEg", "alias": "bbq-152-gilroy-2", "name": "BBQ 152", "image_url": "https://s3-media3.fl.yelpcdn.com/bphoto/tK9z7eMAdeCPAzWsyEJ1MA/o.jpg", "is_closed": false, "url": "https://www.yelp.com/biz/bbq-152-gilroy-2?adjust_creative=-1a8ZLzJ76_AvFzvJVcndQ&utm_campaign=yelp_api_v3&utm_medium=api_v3_business_search&utm_source=-1a8ZLzJ76_AvFzvJVcndQ", "review_count": 664, "categories": [{"alias": "bbq", "title": "Barbeque"}, {"alias": "salad", "title": "Salad"}, {"alias": "sandwiches", "title": "Sandwiches"}], "rating": 4.0, "coordinates": {"latitude": 37.01763, "longitude": -121.57438}, "transactions": [], "price": "$$", "location": {"address1": "8295 Monterey Rd", "address2": "", "address3": "", "city": "Gilroy", "zip_code": "95020", "country": "US", "state": "CA", "display_address": ["8295 Monterey Rd", "Gilroy, CA 95020"]}, "phone": "+14088424499", "display_phone": "(408) 842-4499", "distance": 1132.7733844499048}, {"id": "HPPl-72S_LiOEBhXFbTojQ", "alias": "bella-viva-gilroy", "name": "Bella Viva", "image_url": "https://s3-media1.fl.yelpcdn.com/bphoto/fV0LKHmwKAVJp-aGD6zGwA/o.jpg", "is_closed": false, "url": "https://www.yelp.com/biz/bella-viva-gilroy?adjust_creative=-1a8ZLzJ76_AvFzvJVcndQ&utm_campaign=yelp_api_v3&utm_medium=api_v3_business_search&utm_source=-1a8ZLzJ76_AvFzvJVcndQ", "review_count": 138, "categories": [{"alias": "wine_bars", "title": "Wine Bars"}, {"alias": "pizza", "title": "Pizza"}], "rating": 4.5, "coordinates": {"latitude": 37.0070986147462, "longitude": -121.568985566801}, "transactions": [], "price": "$$", "location": {"address1": "7423 Monterey St", "address2": "", "address3": "", "city": "Gilroy", "zip_code": "95020", "country": "US", "state": "CA", "display_address": ["7423 Monterey St", "Gilroy, CA 95020"]}, "phone": "+14083375561", "display_phone": "(408) 337-5561", "distance": 1079.6789005562741}, {"id": "mwbSLHWjlZiBwzQGdSTniQ", "alias": "westside-grill-gilroy", "name": "Westside Grill", "image_url": "https://s3-media2.fl.yelpcdn.com/bphoto/nnUgEp6WLhC-fBoi0WNeSA/o.jpg", "is_closed": false, "url": "https://www.yelp.com/biz/westside-grill-gilroy?adjust_creative=-1a8ZLzJ76_AvFzvJVcndQ&utm_campaign=yelp_api_v3&utm_medium=api_v3_business_search&utm_source=-1a8ZLzJ76_AvFzvJVcndQ", "review_count": 357, "categories": [{"alias": "tradamerican", "title": "American (Traditional)"}, {"alias": "steak", "title": "Steakhouses"}, {"alias": "cocktailbars", "title": "Cocktail Bars"}], "rating": 4.0, "coordinates": {"latitude": 37.014991, "longitude": -121.598916}, "transactions": [], "price": "$$", "location": {"address1": "8080 Santa Teresa Blvd", "address2": "Ste 100", "address3": "", "city": "Gilroy", "zip_code": "95020", "country": "US", "state": "CA", "display_address": ["8080 Santa Teresa Blvd", "Ste 100", "Gilroy, CA 95020"]}, "phone": "+14088473800", "display_phone": "(408) 847-3800", "distance": 1730.14419207751}, {"id": "347DPrSe2cO7R-gy0ONHQg", "alias": "sweet-sicily-gilroy", "name": "Sweet Sicily", "image_url": "https://s3-media2.fl.yelpcdn.com/bphoto/otZ5qJre1iaHUxeM4xoHsQ/o.jpg", "is_closed": false, "url": "https://www.yelp.com/biz/sweet-sicily-gilroy?adjust_creative=-1a8ZLzJ76_AvFzvJVcndQ&utm_campaign=yelp_api_v3&utm_medium=api_v3_business_search&utm_source=-1a8ZLzJ76_AvFzvJVcndQ", "review_count": 254, "categories": [{"alias": "coffee", "title": "Coffee & Tea"}, {"alias": "italian", "title": "Italian"}, {"alias": "bakeries", "title": "Bakeries"}], "rating": 4.5, "coordinates": {"latitude": 37.0133727, "longitude": -121.5956325}, "transactions": ["delivery", "pickup"], "price": "$", "location": {"address1": "1280 1st St", "address2": "", "address3": "", "city": "Gilroy", "zip_code": "95020", "country": "US", "state": "CA", "display_address": ["1280 1st St", "Gilroy, CA 95020"]}, "phone": "+14087672882", "display_phone": "(408) 767-2882", "distance": 1283.6077582094929}, {"id": "BpuHxGzViJPdFrItjGaKTw", "alias": "m-noodle-and-cafe-gilroy-2", "name": "M Noodle & Cafe", "image_url": "https://s3-media2.fl.yelpcdn.com/bphoto/s3YUi6WzgGLSxbp3NWZfIQ/o.jpg", "is_closed": false, "url": "https://www.yelp.com/biz/m-noodle-and-cafe-gilroy-2?adjust_creative=-1a8ZLzJ76_AvFzvJVcndQ&utm_campaign=yelp_api_v3&utm_medium=api_v3_business_search&utm_source=-1a8ZLzJ76_AvFzvJVcndQ", "review_count": 153, "categories": [{"alias": "vietnamese", "title": "Vietnamese"}, {"alias": "cafes", "title": "Cafes"}, {"alias": "soup", "title": "Soup"}], "rating": 4.0, "coordinates": {"latitude": 36.9986310543341, "longitude": -121.566111576714}, "transactions": ["delivery", "pickup"], "price": "$$", "location": {"address1": "6945 Monterey Rd", "address2": "Ste D", "address3": null, "city": "Gilroy", "zip_code": "95020", "country": "US", "state": "CA", "display_address": ["6945 Monterey Rd", "Ste D", "Gilroy, CA 95020"]}, "phone": "+14088424848", "display_phone": "(408) 842-4848", "distance": 1753.1418751446372}, {"id": "YxeuxO6BDefPADHO6axjSw", "alias": "little-india-gilroy", "name": "Little India", "image_url": "https://s3-media3.fl.yelpcdn.com/bphoto/Q3w23sI9z_HnDZiNWfnQRw/o.jpg", "is_closed": false, "url": "https://www.yelp.com/biz/little-india-gilroy?adjust_creative=-1a8ZLzJ76_AvFzvJVcndQ&utm_campaign=yelp_api_v3&utm_medium=api_v3_business_search&utm_source=-1a8ZLzJ76_AvFzvJVcndQ", "review_count": 215, "categories": [{"alias": "indpak", "title": "Indian"}], "rating": 4.0, "coordinates": {"latitude": 37.0125057915072, "longitude": -121.59590754658}, "transactions": [], "price": "$$", "location": {"address1": "1340 1st St", "address2": "Ste A", "address3": "", "city": "Gilroy", "zip_code": "95020", "country": "US", "state": "CA", "display_address": ["1340 1st St", "Ste A", "Gilroy, CA 95020"]}, "phone": "+14087672828", "display_phone": "(408) 767-2828", "distance": 1386.7939417376826}, {"id": "ruY1TS3irfU5mLIQoosYIQ", "alias": "super-burger-drive-in-gilroy", "name": "Super Burger Drive In", "image_url": "https://s3-media1.fl.yelpcdn.com/bphoto/tbb0-OjgkUoWn4N6pQ0NKQ/o.jpg", "is_closed": false, "url": "https://www.yelp.com/biz/super-burger-drive-in-gilroy?adjust_creative=-1a8ZLzJ76_AvFzvJVcndQ&utm_campaign=yelp_api_v3&utm_medium=api_v3_business_search&utm_source=-1a8ZLzJ76_AvFzvJVcndQ", "review_count": 125, "categories": [{"alias": "newamerican", "title": "American (New)"}, {"alias": "burgers", "title": "Burgers"}], "rating": 4.5, "coordinates": {"latitude": 37.0136493, "longitude": -121.580852}, "transactions": [], "price": "$", "location": {"address1": "611 1st St", "address2": "", "address3": "", "city": "Gilroy", "zip_code": "95020", "country": "US", "state": "CA", "display_address": ["611 1st St", "Gilroy, CA 95020"]}, "phone": "+14087672146", "display_phone": "(408) 767-2146", "distance": 507.17763886769757}, {"id": "PaYSKtA3Kv0pMrVDmrTqZA", "alias": "tacos-ameca-gilroy", "name": "Tacos Ameca", "image_url": "https://s3-media1.fl.yelpcdn.com/bphoto/0-5S-inyWxY44LVfGhGtDA/o.jpg", "is_closed": false, "url": "https://www.yelp.com/biz/tacos-ameca-gilroy?adjust_creative=-1a8ZLzJ76_AvFzvJVcndQ&utm_campaign=yelp_api_v3&utm_medium=api_v3_business_search&utm_source=-1a8ZLzJ76_AvFzvJVcndQ", "review_count": 390, "categories": [{"alias": "mexican", "title": "Mexican"}], "rating": 4.0, "coordinates": {"latitude": 37.00048, "longitude": -121.56611}, "transactions": [], "price": "$", "location": {"address1": "7001 Monterey Rd", "address2": "", "address3": "", "city": "Gilroy", "zip_code": "95020", "country": "US", "state": "CA", "display_address": ["7001 Monterey Rd", "Gilroy, CA 95020"]}, "phone": "+14083375451", "display_phone": "(408) 337-5451", "distance": 1622.6298540285873}, {"id": "5cj9uY41vqv7azsvHmTchw", "alias": "a-jays-cheese-steaks-gilroy", "name": "A-Jay's Cheese Steaks", "image_url": "https://s3-media2.fl.yelpcdn.com/bphoto/ZlK4ABwQnOtTavd8UTJ2-A/o.jpg", "is_closed": false, "url": "https://www.yelp.com/biz/a-jays-cheese-steaks-gilroy?adjust_creative=-1a8ZLzJ76_AvFzvJVcndQ&utm_campaign=yelp_api_v3&utm_medium=api_v3_business_search&utm_source=-1a8ZLzJ76_AvFzvJVcndQ", "review_count": 168, "categories": [{"alias": "cheesesteaks", "title": "Cheesesteaks"}], "rating": 4.0, "coordinates": {"latitude": 37.0125923156738, "longitude": -121.595390319824}, "transactions": ["delivery", "pickup"], "price": "$", "location": {"address1": "1340 First St", "address2": "Ste E", "address3": "", "city": "Gilroy", "zip_code": "95020", "country": "US", "state": "CA", "display_address": ["1340 First St", "Ste E", "Gilroy, CA 95020"]}, "phone": "+14084278888", "display_phone": "(408) 427-8888", "distance": 1403.1873914518317}, {"id": "d3eAaMSKT3adJ7JIIEj2qw", "alias": "gaetas-restaurant-gilroy", "name": "Gaeta's Restaurant", "image_url": "https://s3-media3.fl.yelpcdn.com/bphoto/IheZe204sVj0Q7L4la5Qzw/o.jpg", "is_closed": false, "url": "https://www.yelp.com/biz/gaetas-restaurant-gilroy?adjust_creative=-1a8ZLzJ76_AvFzvJVcndQ&utm_campaign=yelp_api_v3&utm_medium=api_v3_business_search&utm_source=-1a8ZLzJ76_AvFzvJVcndQ", "review_count": 134, "categories": [{"alias": "mexican", "title": "Mexican"}], "rating": 4.0, "coordinates": {"latitude": 37.013180976768, "longitude": -121.57129894942}, "transactions": ["delivery", "pickup"], "price": "$$", "location": {"address1": "7820 Monterey Rd", "address2": "", "address3": "", "city": "Gilroy", "zip_code": "95020", "country": "US", "state": "CA", "display_address": ["7820 Monterey Rd", "Gilroy, CA 95020"]}, "phone": "+14087672422", "display_phone": "(408) 767-2422", "distance": 965.3262053962314}, {"id": "mWf8qhYh6HANbTaWz39VJg", "alias": "los-pericos-taqueria-gilroy", "name": "Los Pericos Taqueria", "image_url": "https://s3-media3.fl.yelpcdn.com/bphoto/Ck4rZ86nIERx0CTZsKxy8g/o.jpg", "is_closed": false, "url": "https://www.yelp.com/biz/los-pericos-taqueria-gilroy?adjust_creative=-1a8ZLzJ76_AvFzvJVcndQ&utm_campaign=yelp_api_v3&utm_medium=api_v3_business_search&utm_source=-1a8ZLzJ76_AvFzvJVcndQ", "review_count": 318, "categories": [{"alias": "mexican", "title": "Mexican"}], "rating": 3.5, "coordinates": {"latitude": 37.0081454, "longitude": -121.5696135}, "transactions": [], "price": "$", "location": {"address1": "20 5th St", "address2": "", "address3": "", "city": "Gilroy", "zip_code": "95020", "country": "US", "state": "CA", "display_address": ["20 5th St", "Gilroy, CA 95020"]}, "phone": "+14088480270", "display_phone": "(408) 848-0270", "distance": 988.2288384928898}, {"id": "ekwO8JtKMY1lmefnCT3tfg", "alias": "pizza-factory-gilroy-gilroy-2", "name": "Pizza Factory Gilroy", "image_url": "https://s3-media1.fl.yelpcdn.com/bphoto/qhvxE4XQFK6RhO8bIZGL3Q/o.jpg", "is_closed": false, "url": "https://www.yelp.com/biz/pizza-factory-gilroy-gilroy-2?adjust_creative=-1a8ZLzJ76_AvFzvJVcndQ&utm_campaign=yelp_api_v3&utm_medium=api_v3_business_search&utm_source=-1a8ZLzJ76_AvFzvJVcndQ", "review_count": 20, "categories": [{"alias": "pizza", "title": "Pizza"}], "rating": 3.5, "coordinates": {"latitude": 37.00255, "longitude": -121.56133}, "transactions": [], "location": {"address1": "363 E 10th St", "address2": "", "address3": null, "city": "Gilroy", "zip_code": "95020", "country": "US", "state": "CA", "display_address": ["363 E 10th St", "Gilroy, CA 95020"]}, "phone": "+14088421011", "display_phone": "(408) 842-1011", "distance": 1876.5435032178486}, {"id": "SsOrroRD8GaZrx2im2YmfA", "alias": "sushi-omakase-gilroy", "name": "Sushi Omakase", "image_url": "https://s3-media2.fl.yelpcdn.com/bphoto/TbAfk3ylFz_sFimZcFeSzA/o.jpg", "is_closed": false, "url": "https://www.yelp.com/biz/sushi-omakase-gilroy?adjust_creative=-1a8ZLzJ76_AvFzvJVcndQ&utm_campaign=yelp_api_v3&utm_medium=api_v3_business_search&utm_source=-1a8ZLzJ76_AvFzvJVcndQ", "review_count": 630, "categories": [{"alias": "sushi", "title": "Sushi Bars"}, {"alias": "japanese", "title": "Japanese"}], "rating": 3.5, "coordinates": {"latitude": 37.0024421, "longitude": -121.5510128}, "transactions": ["restaurant_reservation", "pickup"], "price": "$$", "location": {"address1": "6905 Camino Arroyo", "address2": "Ste 50", "address3": "", "city": "Gilroy", "zip_code": "95020", "country": "US", "state": "CA", "display_address": ["6905 Camino Arroyo", "Ste 50", "Gilroy, CA 95020"]}, "phone": "+14088467874", "display_phone": "(408) 846-7874", "distance": 2448.647901836745}, {"id": "QcyvOOwNW9FvYa5_ehm_SA", "alias": "scottys-restaurant-gilroy", "name": "Scotty's Restaurant", "image_url": "https://s3-media3.fl.yelpcdn.com/bphoto/Cw1_Abdu-QS0yq--8ojOsw/o.jpg", "is_closed": false, "url": "https://www.yelp.com/biz/scottys-restaurant-gilroy?adjust_creative=-1a8ZLzJ76_AvFzvJVcndQ&utm_campaign=yelp_api_v3&utm_medium=api_v3_business_search&utm_source=-1a8ZLzJ76_AvFzvJVcndQ", "review_count": 88, "categories": [{"alias": "tradamerican", "title": "American (Traditional)"}, {"alias": "hawaiian", "title": "Hawaiian"}, {"alias": "japanese", "title": "Japanese"}], "rating": 4.0, "coordinates": {"latitude": 37.0089944, "longitude": -121.5695312}, "transactions": [], "price": "$$", "location": {"address1": "7554 Monterey St", "address2": "", "address3": "Gilroy Bowl", "city": "Gilroy", "zip_code": "95020", "country": "US", "state": "CA", "display_address": ["7554 Monterey St", "Gilroy Bowl", "Gilroy, CA 95020"]}, "phone": "+14088425100", "display_phone": "(408) 842-5100", "distance": 1008.3617145797803}, {"id": "2leMiAaD4PzPNOnZWc9lfw", "alias": "nob-hill-foods-gilroy-3", "name": "Nob Hill Foods", "image_url": "https://s3-media4.fl.yelpcdn.com/bphoto/VcmBA_E3C-XhWMhgXsQyIg/o.jpg", "is_closed": false, "url": "https://www.yelp.com/biz/nob-hill-foods-gilroy-3?adjust_creative=-1a8ZLzJ76_AvFzvJVcndQ&utm_campaign=yelp_api_v3&utm_medium=api_v3_business_search&utm_source=-1a8ZLzJ76_AvFzvJVcndQ", "review_count": 79, "categories": [{"alias": "grocery", "title": "Grocery"}, {"alias": "delis", "title": "Delis"}, {"alias": "beer_and_wine", "title": "Beer, Wine & Spirits"}], "rating": 3.5, "coordinates": {"latitude": 37.014252, "longitude": -121.585323}, "transactions": [], "price": "$$", "location": {"address1": "777 1st St", "address2": "", "address3": "", "city": "Gilroy", "zip_code": "95020", "country": "US", "state": "CA", "display_address": ["777 1st St", "Gilroy, CA 95020"]}, "phone": "+14088474857", "display_phone": "(408) 847-4857", "distance": 696.3024525059201}, {"id": "zRtpgqg4izjUrbpMWKs1fg", "alias": "asian-buffet-gilroy", "name": "Asian Buffet", "image_url": "https://s3-media3.fl.yelpcdn.com/bphoto/Kl5GyJL05WoflQeGHMwUPw/o.jpg", "is_closed": false, "url": "https://www.yelp.com/biz/asian-buffet-gilroy?adjust_creative=-1a8ZLzJ76_AvFzvJVcndQ&utm_campaign=yelp_api_v3&utm_medium=api_v3_business_search&utm_source=-1a8ZLzJ76_AvFzvJVcndQ", "review_count": 119, "categories": [{"alias": "chinese", "title": "Chinese"}, {"alias": "buffets", "title": "Buffets"}, {"alias": "sushi", "title": "Sushi Bars"}], "rating": 3.5, "coordinates": {"latitude": 37.001347, "longitude": -121.557923}, "transactions": [], "price": "$$", "location": {"address1": "6960 Chestnut St", "address2": "", "address3": "", "city": "Gilroy", "zip_code": "95020", "country": "US", "state": "CA", "display_address": ["6960 Chestnut St", "Gilroy, CA 95020"]}, "phone": "+14088424930", "display_phone": "(408) 842-4930", "distance": 2213.380990545998}, {"id": "cK-96mGcoEjgWcllDVawDA", "alias": "el-michoacano-restaurant-gilroy", "name": "El Michoacano Restaurant", "image_url": "https://s3-media2.fl.yelpcdn.com/bphoto/B2f1BRxUR-ArBvgdU8LZuA/o.jpg", "is_closed": false, "url": "https://www.yelp.com/biz/el-michoacano-restaurant-gilroy?adjust_creative=-1a8ZLzJ76_AvFzvJVcndQ&utm_campaign=yelp_api_v3&utm_medium=api_v3_business_search&utm_source=-1a8ZLzJ76_AvFzvJVcndQ", "review_count": 168, "categories": [{"alias": "mexican", "title": "Mexican"}], "rating": 3.5, "coordinates": {"latitude": 37.001906, "longitude": -121.55962}, "transactions": ["delivery", "pickup"], "price": "$$", "location": {"address1": "6966 Chestnut St", "address2": "", "address3": "", "city": "Gilroy", "zip_code": "95020", "country": "US", "state": "CA", "display_address": ["6966 Chestnut St", "Gilroy, CA 95020"]}, "phone": "+14088425877", "display_phone": "(408) 842-5877", "distance": 2248.74963544956}, {"id": "gwWrSaS5PtGkeA26Nd1jfg", "alias": "cielito-lindo-restaurant-gilroy-2", "name": "Cielito Lindo Restaurant", "image_url": "https://s3-media1.fl.yelpcdn.com/bphoto/osxXcH0k8cAeRhYKAx4bDA/o.jpg", "is_closed": false, "url": "https://www.yelp.com/biz/cielito-lindo-restaurant-gilroy-2?adjust_creative=-1a8ZLzJ76_AvFzvJVcndQ&utm_campaign=yelp_api_v3&utm_medium=api_v3_business_search&utm_source=-1a8ZLzJ76_AvFzvJVcndQ", "review_count": 190, "categories": [{"alias": "mexican", "title": "Mexican"}], "rating": 4.0, "coordinates": {"latitude": 37.007591, "longitude": -121.568874}, "transactions": [], "price": "$$", "location": {"address1": "7460 Monterey St", "address2": null, "address3": "", "city": "Gilroy", "zip_code": "95020", "country": "US", "state": "CA", "display_address": ["7460 Monterey St", "Gilroy, CA 95020"]}, "phone": "+14088427724", "display_phone": "(408) 842-7724", "distance": 1079.5866660388508}, {"id": "mMKrL2PxlAZVkrmUkBGHSQ", "alias": "pho-thanh-an-gilroy", "name": "Pho Thanh An", "image_url": "https://s3-media1.fl.yelpcdn.com/bphoto/CJcS8ZOqLWq0V6Pe6fJsJw/o.jpg", "is_closed": false, "url": "https://www.yelp.com/biz/pho-thanh-an-gilroy?adjust_creative=-1a8ZLzJ76_AvFzvJVcndQ&utm_campaign=yelp_api_v3&utm_medium=api_v3_business_search&utm_source=-1a8ZLzJ76_AvFzvJVcndQ", "review_count": 332, "categories": [{"alias": "vietnamese", "title": "Vietnamese"}], "rating": 3.5, "coordinates": {"latitude": 37.005305656148, "longitude": -121.55185462118}, "transactions": ["pickup"], "price": "$", "location": {"address1": "890 Renz Ln", "address2": "", "address3": "", "city": "Gilroy", "zip_code": "95020", "country": "US", "state": "CA", "display_address": ["890 Renz Ln", "Gilroy, CA 95020"]}, "phone": "+14088473286", "display_phone": "(408) 847-3286", "distance": 2612.0227551764488}, {"id": "W6JawBcmHFZ7-zIr4dRYVg", "alias": "mama-mias-gilroy", "name": "Mama Mia's", "image_url": "https://s3-media3.fl.yelpcdn.com/bphoto/yhRri5mveV3TImS1cUTi0g/o.jpg", "is_closed": false, "url": "https://www.yelp.com/biz/mama-mias-gilroy?adjust_creative=-1a8ZLzJ76_AvFzvJVcndQ&utm_campaign=yelp_api_v3&utm_medium=api_v3_business_search&utm_source=-1a8ZLzJ76_AvFzvJVcndQ", "review_count": 193, "categories": [{"alias": "italian", "title": "Italian"}], "rating": 3.0, "coordinates": {"latitude": 37.0131644536058, "longitude": -121.595892021922}, "transactions": [], "price": "$$", "location": {"address1": "1360 1st St", "address2": "Ste B", "address3": "", "city": "Gilroy", "zip_code": "95020", "country": "US", "state": "CA", "display_address": ["1360 1st St", "Ste B", "Gilroy, CA 95020"]}, "phone": "+14088478808", "display_phone": "(408) 847-8808", "distance": 1407.3150630879013}, {"id": "fjmr2KhfHqa1lMR5yf6uLg", "alias": "ginger-cafe-gilroy", "name": "Ginger Cafe", "image_url": "https://s3-media1.fl.yelpcdn.com/bphoto/uvP0QfiroaaBuPirDicpZA/o.jpg", "is_closed": false, "url": "https://www.yelp.com/biz/ginger-cafe-gilroy?adjust_creative=-1a8ZLzJ76_AvFzvJVcndQ&utm_campaign=yelp_api_v3&utm_medium=api_v3_business_search&utm_source=-1a8ZLzJ76_AvFzvJVcndQ", "review_count": 325, "categories": [{"alias": "asianfusion", "title": "Asian Fusion"}, {"alias": "chinese", "title": "Chinese"}], "rating": 3.5, "coordinates": {"latitude": 37.0263876, "longitude": -121.5667884}, "transactions": ["delivery", "pickup"], "price": "$$", "location": {"address1": "8657 San Ysidro Ave", "address2": "", "address3": "", "city": "Gilroy", "zip_code": "95020", "country": "US", "state": "CA", "display_address": ["8657 San Ysidro Ave", "Gilroy, CA 95020"]}, "phone": "+14088472625", "display_phone": "(408) 847-2625", "distance": 2294.99721990191}, {"id": "bPFiuPd4Zf_Yy7KRuLoZdA", "alias": "old-city-hall-restaurant-gilroy", "name": "Old City Hall Restaurant", "image_url": "https://s3-media3.fl.yelpcdn.com/bphoto/EfyvwRUX6JOIS-DK-rljcg/o.jpg", "is_closed": false, "url": "https://www.yelp.com/biz/old-city-hall-restaurant-gilroy?adjust_creative=-1a8ZLzJ76_AvFzvJVcndQ&utm_campaign=yelp_api_v3&utm_medium=api_v3_business_search&utm_source=-1a8ZLzJ76_AvFzvJVcndQ", "review_count": 278, "categories": [{"alias": "tradamerican", "title": "American (Traditional)"}], "rating": 3.5, "coordinates": {"latitude": 37.00705, "longitude": -121.56839}, "transactions": [], "price": "$$", "location": {"address1": "7400 Monterey St", "address2": "", "address3": "", "city": "Gilroy", "zip_code": "95020", "country": "US", "state": "CA", "display_address": ["7400 Monterey St", "Gilroy, CA 95020"]}, "phone": "+14088423454", "display_phone": "(408) 842-3454", "distance": 1121.5336990372725}, {"id": "CwwByKgtBXCwTzx0TV_qgw", "alias": "ten-japan-gilroy", "name": "Ten Japan", "image_url": "https://s3-media3.fl.yelpcdn.com/bphoto/k7iUaWgm8wlYpjWJwbmFTA/o.jpg", "is_closed": false, "url": "https://www.yelp.com/biz/ten-japan-gilroy?adjust_creative=-1a8ZLzJ76_AvFzvJVcndQ&utm_campaign=yelp_api_v3&utm_medium=api_v3_business_search&utm_source=-1a8ZLzJ76_AvFzvJVcndQ", "review_count": 231, "categories": [{"alias": "sushi", "title": "Sushi Bars"}, {"alias": "ramen", "title": "Ramen"}], "rating": 3.5, "coordinates": {"latitude": 37.0128522, "longitude": -121.595557}, "transactions": [], "price": "$$", "location": {"address1": "1340 1st St", "address2": "Ste C", "address3": "", "city": "Gilroy", "zip_code": "95020", "country": "US", "state": "CA", "display_address": ["1340 1st St", "Ste C", "Gilroy, CA 95020"]}, "phone": "+14088474030", "display_phone": "(408) 847-4030", "distance": 1368.1713111411652}, {"id": "qd0rPyJMuXOZ93YT50y1DA", "alias": "new-tung-kee-noodle-house-gilroy-2", "name": "New Tung Kee Noodle House", "image_url": "https://s3-media3.fl.yelpcdn.com/bphoto/DcUhHbrsHzJez_qq9a3Qpg/o.jpg", "is_closed": false, "url": "https://www.yelp.com/biz/new-tung-kee-noodle-house-gilroy-2?adjust_creative=-1a8ZLzJ76_AvFzvJVcndQ&utm_campaign=yelp_api_v3&utm_medium=api_v3_business_search&utm_source=-1a8ZLzJ76_AvFzvJVcndQ", "review_count": 195, "categories": [{"alias": "noodles", "title": "Noodles"}], "rating": 3.0, "coordinates": {"latitude": 37.002594, "longitude": -121.55466}, "transactions": [], "price": "$", "location": {"address1": "6905 Camino Arroyo", "address2": "Ste 10", "address3": "", "city": "Gilroy", "zip_code": "95020", "country": "US", "state": "CA", "display_address": ["6905 Camino Arroyo", "Ste 10", "Gilroy, CA 95020"]}, "phone": "+14088476988", "display_phone": "(408) 847-6988", "distance": 2438.2596090575594}, {"id": "W6Wf0qKEYLCYLdAKVKwB4Q", "alias": "cafe-thyme-gilroy-2", "name": "Cafe Thyme", "image_url": "https://s3-media4.fl.yelpcdn.com/bphoto/3HvAWHdtj-MROkQIP7BAaA/o.jpg", "is_closed": false, "url": "https://www.yelp.com/biz/cafe-thyme-gilroy-2?adjust_creative=-1a8ZLzJ76_AvFzvJVcndQ&utm_campaign=yelp_api_v3&utm_medium=api_v3_business_search&utm_source=-1a8ZLzJ76_AvFzvJVcndQ", "review_count": 206, "categories": [{"alias": "newamerican", "title": "American (New)"}], "rating": 4.5, "coordinates": {"latitude": 37.01366, "longitude": -121.578}, "transactions": [], "price": "$$", "location": {"address1": "433 1st St", "address2": "", "address3": null, "city": "Gilroy", "zip_code": "95020", "country": "US", "state": "CA", "display_address": ["433 1st St", "Gilroy, CA 95020"]}, "phone": "+14084131250", "display_phone": "(408) 413-1250", "distance": 569.0435844506625}, {"id": "VismytC5HM5hSAo1jdm20A", "alias": "tacos-del-guero-gilroy-2", "name": "Tacos Del Guero", "image_url": "https://s3-media4.fl.yelpcdn.com/bphoto/SpWBBx67BTjXU8K2ZJT7Kw/o.jpg", "is_closed": false, "url": "https://www.yelp.com/biz/tacos-del-guero-gilroy-2?adjust_creative=-1a8ZLzJ76_AvFzvJVcndQ&utm_campaign=yelp_api_v3&utm_medium=api_v3_business_search&utm_source=-1a8ZLzJ76_AvFzvJVcndQ", "review_count": 34, "categories": [{"alias": "tacos", "title": "Tacos"}], "rating": 4.0, "coordinates": {"latitude": 37.0057057, "longitude": -121.5677884}, "transactions": [], "location": {"address1": "40 Hornlein Ct", "address2": null, "address3": "", "city": "Gilroy", "zip_code": "95020", "country": "US", "state": "CA", "display_address": ["40 Hornlein Ct", "Gilroy, CA 95020"]}, "phone": "+14087672123", "display_phone": "(408) 767-2123", "distance": 1241.5704918556746}, {"id": "WH0N_6cMBlKOGd3u_hH9ng", "alias": "josephine-s-bakery-and-cafe-gilroy-gilroy", "name": "Josephine\u2019s Bakery & Cafe Gilroy", "image_url": "https://s3-media1.fl.yelpcdn.com/bphoto/RNEqIpDJzaFcAEnmm7mcmA/o.jpg", "is_closed": false, "url": "https://www.yelp.com/biz/josephine-s-bakery-and-cafe-gilroy-gilroy?adjust_creative=-1a8ZLzJ76_AvFzvJVcndQ&utm_campaign=yelp_api_v3&utm_medium=api_v3_business_search&utm_source=-1a8ZLzJ76_AvFzvJVcndQ", "review_count": 93, "categories": [{"alias": "bakeries", "title": "Bakeries"}, {"alias": "cupcakes", "title": "Cupcakes"}, {"alias": "mexican", "title": "Mexican"}], "rating": 4.0, "coordinates": {"latitude": 37.01372, "longitude": -121.57671}, "transactions": ["delivery", "pickup"], "price": "$$", "location": {"address1": "381 1st St", "address2": "", "address3": null, "city": "Gilroy", "zip_code": "95020", "country": "US", "state": "CA", "display_address": ["381 1st St", "Gilroy, CA 95020"]}, "phone": "+16692057073", "display_phone": "(669) 205-7073", "distance": 628.1210766161345}, {"id": "4XBmeSGQQUB4V_-4-p8-_A", "alias": "danys-restaurant-gilroy", "name": "Dany's Restaurant", "image_url": "https://s3-media3.fl.yelpcdn.com/bphoto/Hl-rcYVOG5Yy_U4s93pR0g/o.jpg", "is_closed": false, "url": "https://www.yelp.com/biz/danys-restaurant-gilroy?adjust_creative=-1a8ZLzJ76_AvFzvJVcndQ&utm_campaign=yelp_api_v3&utm_medium=api_v3_business_search&utm_source=-1a8ZLzJ76_AvFzvJVcndQ", "review_count": 174, "categories": [{"alias": "breakfast_brunch", "title": "Breakfast & Brunch"}, {"alias": "newamerican", "title": "American (New)"}], "rating": 4.5, "coordinates": {"latitude": 37.00894, "longitude": -121.55382}, "transactions": [], "price": "$$", "location": {"address1": "7210 Camino Arroyo", "address2": "Ste 100", "address3": null, "city": "Gilroy", "zip_code": "95020", "country": "US", "state": "CA", "display_address": ["7210 Camino Arroyo", "Ste 100", "Gilroy, CA 95020"]}, "phone": "+14088420047", "display_phone": "(408) 842-0047", "distance": 2401.7208840497924}, {"id": "wwDGLGfJh5DwVEktUJWkuQ", "alias": "tamale-lady-gilroy", "name": "Tamale Lady", "image_url": "https://s3-media3.fl.yelpcdn.com/bphoto/aIHkzBehNvqBJqFI-bcC6w/o.jpg", "is_closed": false, "url": "https://www.yelp.com/biz/tamale-lady-gilroy?adjust_creative=-1a8ZLzJ76_AvFzvJVcndQ&utm_campaign=yelp_api_v3&utm_medium=api_v3_business_search&utm_source=-1a8ZLzJ76_AvFzvJVcndQ", "review_count": 20, "categories": [{"alias": "mexican", "title": "Mexican"}], "rating": 5.0, "coordinates": {"latitude": 37.01371, "longitude": -121.58935}, "transactions": [], "price": "$", "location": {"address1": "Walmart Parking Lot", "address2": "", "address3": "", "city": "Gilroy", "zip_code": "95020", "country": "US", "state": "CA", "display_address": ["Walmart Parking Lot", "Gilroy, CA 95020"]}, "phone": "", "display_phone": "", "distance": 2650.994849627308}, {"id": "tJ6WPOUCs_p7rRZW3j6tpg", "alias": "longhouse-restaurant-gilroy", "name": "Longhouse Restaurant", "image_url": "https://s3-media2.fl.yelpcdn.com/bphoto/IkLI7uEX6cjH5Qf7lpFB_g/o.jpg", "is_closed": false, "url": "https://www.yelp.com/biz/longhouse-restaurant-gilroy?adjust_creative=-1a8ZLzJ76_AvFzvJVcndQ&utm_campaign=yelp_api_v3&utm_medium=api_v3_business_search&utm_source=-1a8ZLzJ76_AvFzvJVcndQ", "review_count": 200, "categories": [{"alias": "newamerican", "title": "American (New)"}, {"alias": "tradamerican", "title": "American (Traditional)"}], "rating": 3.5, "coordinates": {"latitude": 37.01704, "longitude": -121.57408}, "transactions": [], "price": "$$", "location": {"address1": "8195 Monterey St", "address2": "", "address3": "", "city": "Gilroy", "zip_code": "95020", "country": "US", "state": "CA", "display_address": ["8195 Monterey St", "Gilroy, CA 95020"]}, "phone": "+14088427664", "display_phone": "(408) 842-7664", "distance": 1074.1212102515833}, {"id": "emJGYsbjqg5b2bso8FX3Fg", "alias": "ninja-sushi-gilroy", "name": "Ninja Sushi", "image_url": "https://s3-media3.fl.yelpcdn.com/bphoto/dIG0fuPVy7Rfq7BhMoE01A/o.jpg", "is_closed": false, "url": "https://www.yelp.com/biz/ninja-sushi-gilroy?adjust_creative=-1a8ZLzJ76_AvFzvJVcndQ&utm_campaign=yelp_api_v3&utm_medium=api_v3_business_search&utm_source=-1a8ZLzJ76_AvFzvJVcndQ", "review_count": 255, "categories": [{"alias": "sushi", "title": "Sushi Bars"}, {"alias": "seafood", "title": "Seafood"}, {"alias": "japanese", "title": "Japanese"}], "rating": 3.5, "coordinates": {"latitude": 37.01421, "longitude": -121.58295}, "transactions": [], "price": "$$", "location": {"address1": "715 1st St", "address2": null, "address3": "", "city": "Gilroy", "zip_code": "95020", "country": "US", "state": "CA", "display_address": ["715 1st St", "Gilroy, CA 95020"]}, "phone": "+14088478855", "display_phone": "(408) 847-8855", "distance": 542.0873947346618}, {"id": "g7ggoWkFhq6QO2YYKPDw5g", "alias": "capos-night-club-and-restaurant-gilroy", "name": "Capos Night Club & Restaurant", "image_url": "https://s3-media4.fl.yelpcdn.com/bphoto/SEsi0-wxJOOO9gNc5P-f4w/o.jpg", "is_closed": false, "url": "https://www.yelp.com/biz/capos-night-club-and-restaurant-gilroy?adjust_creative=-1a8ZLzJ76_AvFzvJVcndQ&utm_campaign=yelp_api_v3&utm_medium=api_v3_business_search&utm_source=-1a8ZLzJ76_AvFzvJVcndQ", "review_count": 10, "categories": [{"alias": "lounges", "title": "Lounges"}, {"alias": "danceclubs", "title": "Dance Clubs"}, {"alias": "tradamerican", "title": "American (Traditional)"}], "rating": 4.0, "coordinates": {"latitude": 37.00942, "longitude": -121.56936}, "transactions": [], "location": {"address1": "7588 Monterey St", "address2": null, "address3": "", "city": "Gilroy", "zip_code": "95020", "country": "US", "state": "CA", "display_address": ["7588 Monterey St", "Gilroy, CA 95020"]}, "phone": "+16692390871", "display_phone": "(669) 239-0871", "distance": 1018.7230049657455}, {"id": "BZW8F_8QN0ZjIN7hhU3ZyA", "alias": "claddagh-irish-restaurant-gilroy", "name": "Claddagh Irish Restaurant", "image_url": "https://s3-media2.fl.yelpcdn.com/bphoto/w51mLkBJkASBgqsr9GM3Jg/o.jpg", "is_closed": false, "url": "https://www.yelp.com/biz/claddagh-irish-restaurant-gilroy?adjust_creative=-1a8ZLzJ76_AvFzvJVcndQ&utm_campaign=yelp_api_v3&utm_medium=api_v3_business_search&utm_source=-1a8ZLzJ76_AvFzvJVcndQ", "review_count": 156, "categories": [{"alias": "irish", "title": "Irish"}, {"alias": "pubs", "title": "Pubs"}], "rating": 3.5, "coordinates": {"latitude": 37.0124358369154, "longitude": -121.595739921511}, "transactions": [], "price": "$$", "location": {"address1": "1300 1st St", "address2": "Ste A", "address3": "", "city": "Gilroy", "zip_code": "95020", "country": "US", "state": "CA", "display_address": ["1300 1st St", "Ste A", "Gilroy, CA 95020"]}, "phone": "+14088485050", "display_phone": "(408) 848-5050", "distance": 1370.3532495627817}, {"id": "DX5pJNbOIHb2gUKIMaphxQ", "alias": "famous-daves-bar-b-que-gilroy", "name": "Famous Dave's Bar-B-Que", "image_url": "https://s3-media1.fl.yelpcdn.com/bphoto/yyc3TApxEFQvdlYLAVhwRA/o.jpg", "is_closed": false, "url": "https://www.yelp.com/biz/famous-daves-bar-b-que-gilroy?adjust_creative=-1a8ZLzJ76_AvFzvJVcndQ&utm_campaign=yelp_api_v3&utm_medium=api_v3_business_search&utm_source=-1a8ZLzJ76_AvFzvJVcndQ", "review_count": 557, "categories": [{"alias": "bbq", "title": "Barbeque"}, {"alias": "tradamerican", "title": "American (Traditional)"}, {"alias": "comfortfood", "title": "Comfort Food"}], "rating": 3.5, "coordinates": {"latitude": 37.003072223453, "longitude": -121.55375344786}, "transactions": ["delivery"], "price": "$$", "location": {"address1": "6925 Camino Arroyo", "address2": "", "address3": "", "city": "Gilroy", "zip_code": "95020", "country": "US", "state": "CA", "display_address": ["6925 Camino Arroyo", "Gilroy, CA 95020"]}, "phone": "+14088421400", "display_phone": "(408) 842-1400", "distance": 2500.505462851991}, {"id": "c6BsyAI9-q1OtUCofwGlgg", "alias": "great-china-garden-gilroy", "name": "Great China Garden", "image_url": "https://s3-media2.fl.yelpcdn.com/bphoto/p4lktwjYjkgI6cc6HlOZ8w/o.jpg", "is_closed": false, "url": "https://www.yelp.com/biz/great-china-garden-gilroy?adjust_creative=-1a8ZLzJ76_AvFzvJVcndQ&utm_campaign=yelp_api_v3&utm_medium=api_v3_business_search&utm_source=-1a8ZLzJ76_AvFzvJVcndQ", "review_count": 78, "categories": [{"alias": "chinese", "title": "Chinese"}], "rating": 3.5, "coordinates": {"latitude": 37.0122489929199, "longitude": -121.570671081543}, "transactions": ["delivery", "pickup"], "price": "$$", "location": {"address1": "7760 Monterey St", "address2": "", "address3": "", "city": "Gilroy", "zip_code": "95020", "country": "US", "state": "CA", "display_address": ["7760 Monterey St", "Gilroy, CA 95020"]}, "phone": "+14088428611", "display_phone": "(408) 842-8611", "distance": 975.4625877107478}, {"id": "FPS7uTaseYR4SAkAONgFBw", "alias": "cafe-152-bread-company-gilroy", "name": "Cafe 152 Bread Company", "image_url": "https://s3-media4.fl.yelpcdn.com/bphoto/Bq4YwKyAPFSo4YWNqqO6aw/o.jpg", "is_closed": false, "url": "https://www.yelp.com/biz/cafe-152-bread-company-gilroy?adjust_creative=-1a8ZLzJ76_AvFzvJVcndQ&utm_campaign=yelp_api_v3&utm_medium=api_v3_business_search&utm_source=-1a8ZLzJ76_AvFzvJVcndQ", "review_count": 132, "categories": [{"alias": "bakeries", "title": "Bakeries"}, {"alias": "sandwiches", "title": "Sandwiches"}, {"alias": "coffee", "title": "Coffee & Tea"}], "rating": 4.0, "coordinates": {"latitude": 37.009579, "longitude": -121.571133}, "transactions": ["delivery", "pickup"], "price": "$$", "location": {"address1": "60 4th St", "address2": "Ste 4", "address3": "", "city": "Gilroy", "zip_code": "95020", "country": "US", "state": "CA", "display_address": ["60 4th St", "Ste 4", "Gilroy, CA 95020"]}, "phone": "+14087672868", "display_phone": "(408) 767-2868", "distance": 867.7925021565213}, {"id": "XLNDNhd7g1T74_uomntIEw", "alias": "tk-noodle-gilroy", "name": "TK Noodle", "image_url": "https://s3-media4.fl.yelpcdn.com/bphoto/o2jCtNAImS6lajz5v9sBPg/o.jpg", "is_closed": false, "url": "https://www.yelp.com/biz/tk-noodle-gilroy?adjust_creative=-1a8ZLzJ76_AvFzvJVcndQ&utm_campaign=yelp_api_v3&utm_medium=api_v3_business_search&utm_source=-1a8ZLzJ76_AvFzvJVcndQ", "review_count": 105, "categories": [{"alias": "vietnamese", "title": "Vietnamese"}, {"alias": "noodles", "title": "Noodles"}], "rating": 3.0, "coordinates": {"latitude": 37.02704, "longitude": -121.56556}, "transactions": [], "price": "$", "location": {"address1": "8660 San Ysidro Ave", "address2": "Ste 108", "address3": "San Ysidro Shopping Ctr", "city": "Gilroy", "zip_code": "95020", "country": "US", "state": "CA", "display_address": ["8660 San Ysidro Ave", "Ste 108", "San Ysidro Shopping Ctr", "Gilroy, CA 95020"]}, "phone": "", "display_phone": "", "distance": 2369.376251840105}, {"id": "e9i-Mw9RbPdsqqxuYvl0Kw", "alias": "the-habit-burger-grill-gilroy", "name": "The Habit Burger Grill", "image_url": "https://s3-media2.fl.yelpcdn.com/bphoto/hYfoNRe3Jxuh5AsB7sje1A/o.jpg", "is_closed": false, "url": "https://www.yelp.com/biz/the-habit-burger-grill-gilroy?adjust_creative=-1a8ZLzJ76_AvFzvJVcndQ&utm_campaign=yelp_api_v3&utm_medium=api_v3_business_search&utm_source=-1a8ZLzJ76_AvFzvJVcndQ", "review_count": 135, "categories": [{"alias": "burgers", "title": "Burgers"}, {"alias": "sandwiches", "title": "Sandwiches"}, {"alias": "salad", "title": "Salad"}], "rating": 4.0, "coordinates": {"latitude": 37.00233, "longitude": -121.55284}, "transactions": [], "price": "$", "location": {"address1": "6955 Camino Arroyo", "address2": null, "address3": "", "city": "Gilroy", "zip_code": "95020", "country": "US", "state": "CA", "display_address": ["6955 Camino Arroyo", "Gilroy, CA 95020"]}, "phone": "+14088424300", "display_phone": "(408) 842-4300", "distance": 2636.8970466391465}, {"id": "SNoctyHZj7F0a_S4Ngqspg", "alias": "la-hacienda-mexican-restaurant-gilroy", "name": "La Hacienda Mexican Restaurant", "image_url": "https://s3-media1.fl.yelpcdn.com/bphoto/Y-XfaVrKOq4LyPqyMYt2eg/o.jpg", "is_closed": false, "url": "https://www.yelp.com/biz/la-hacienda-mexican-restaurant-gilroy?adjust_creative=-1a8ZLzJ76_AvFzvJVcndQ&utm_campaign=yelp_api_v3&utm_medium=api_v3_business_search&utm_source=-1a8ZLzJ76_AvFzvJVcndQ", "review_count": 204, "categories": [{"alias": "mexican", "title": "Mexican"}], "rating": 3.5, "coordinates": {"latitude": 37.01325, "longitude": -121.59283}, "transactions": [], "price": "$$", "location": {"address1": "1160 1st St", "address2": "", "address3": "", "city": "Gilroy", "zip_code": "95020", "country": "US", "state": "CA", "display_address": ["1160 1st St", "Gilroy, CA 95020"]}, "phone": "+14088484133", "display_phone": "(408) 848-4133", "distance": 1163.0468279028696}, {"id": "eVl5PbNm6drGbadnXxpCcg", "alias": "l-and-l-hawaiian-bbq-gilroy", "name": "L&L Hawaiian BBQ", "image_url": "https://s3-media3.fl.yelpcdn.com/bphoto/1F9T0_7QaYQmV0vl6VbXnA/o.jpg", "is_closed": false, "url": "https://www.yelp.com/biz/l-and-l-hawaiian-bbq-gilroy?adjust_creative=-1a8ZLzJ76_AvFzvJVcndQ&utm_campaign=yelp_api_v3&utm_medium=api_v3_business_search&utm_source=-1a8ZLzJ76_AvFzvJVcndQ", "review_count": 118, "categories": [{"alias": "hawaiian", "title": "Hawaiian"}], "rating": 3.5, "coordinates": {"latitude": 37.00894, "longitude": -121.55382}, "transactions": ["delivery", "pickup"], "price": "$$", "location": {"address1": "7210 Camino Arroyo", "address2": "Ste 104", "address3": "", "city": "Gilroy", "zip_code": "95020", "country": "US", "state": "CA", "display_address": ["7210 Camino Arroyo", "Ste 104", "Gilroy, CA 95020"]}, "phone": "+14088460917", "display_phone": "(408) 846-0917", "distance": 2401.7208840497924}, {"id": "5GUv-rt8OKqsu64OrJ9mPw", "alias": "the-milias-restaurant-gilroy-2", "name": "The Milias Restaurant", "image_url": "https://s3-media3.fl.yelpcdn.com/bphoto/iiwM1-DIZbUQelACmQvS6g/o.jpg", "is_closed": false, "url": "https://www.yelp.com/biz/the-milias-restaurant-gilroy-2?adjust_creative=-1a8ZLzJ76_AvFzvJVcndQ&utm_campaign=yelp_api_v3&utm_medium=api_v3_business_search&utm_source=-1a8ZLzJ76_AvFzvJVcndQ", "review_count": 325, "categories": [{"alias": "newamerican", "title": "American (New)"}, {"alias": "bars", "title": "Bars"}, {"alias": "breakfast_brunch", "title": "Breakfast & Brunch"}], "rating": 3.5, "coordinates": {"latitude": 37.00649, "longitude": -121.56887}, "transactions": [], "price": "$$", "location": {"address1": "7397 Monterey St", "address2": "", "address3": "Milias Apartments", "city": "Gilroy", "zip_code": "95020", "country": "US", "state": "CA", "display_address": ["7397 Monterey St", "Milias Apartments", "Gilroy, CA 95020"]}, "phone": "+14083375100", "display_phone": "(408) 337-5100", "distance": 1105.2959468949252}, {"id": "qyb_NV_BkbkFknGkGNHuYg", "alias": "straw-hat-pizza-gilroy", "name": "Straw Hat Pizza", "image_url": "https://s3-media4.fl.yelpcdn.com/bphoto/SpcSttO3WbGVKu0WrHflyA/o.jpg", "is_closed": false, "url": "https://www.yelp.com/biz/straw-hat-pizza-gilroy?adjust_creative=-1a8ZLzJ76_AvFzvJVcndQ&utm_campaign=yelp_api_v3&utm_medium=api_v3_business_search&utm_source=-1a8ZLzJ76_AvFzvJVcndQ", "review_count": 105, "categories": [{"alias": "pizza", "title": "Pizza"}, {"alias": "italian", "title": "Italian"}, {"alias": "tradamerican", "title": "American (Traditional)"}], "rating": 4.0, "coordinates": {"latitude": 37.01428, "longitude": -121.59221}, "transactions": ["delivery", "pickup"], "price": "$$", "location": {"address1": "1053 1st St", "address2": "", "address3": "", "city": "Gilroy", "zip_code": "95020", "country": "US", "state": "CA", "display_address": ["1053 1st St", "Gilroy, CA 95020"]}, "phone": "+14088422745", "display_phone": "(408) 842-2745", "distance": 1142.3531883701512}, {"id": "Zd4tC7PW6saNVKrzUDgsuw", "alias": "victorias-mexican-restaurant-gilroy", "name": "Victoria's Mexican Restaurant", "image_url": "https://s3-media2.fl.yelpcdn.com/bphoto/HfeATR1IF-PbaMwi9VbFUA/o.jpg", "is_closed": false, "url": "https://www.yelp.com/biz/victorias-mexican-restaurant-gilroy?adjust_creative=-1a8ZLzJ76_AvFzvJVcndQ&utm_campaign=yelp_api_v3&utm_medium=api_v3_business_search&utm_source=-1a8ZLzJ76_AvFzvJVcndQ", "review_count": 144, "categories": [{"alias": "mexican", "title": "Mexican"}], "rating": 3.5, "coordinates": {"latitude": 37.0144443700089, "longitude": -121.583569131266}, "transactions": [], "price": "$$", "location": {"address1": "757 1st St", "address2": "", "address3": "", "city": "Gilroy", "zip_code": "95020", "country": "US", "state": "CA", "display_address": ["757 1st St", "Gilroy, CA 95020"]}, "phone": "+14088481052", "display_phone": "(408) 848-1052", "distance": 641.4292917657137}, {"id": "I56bzsFAhR8HesDLf-I73g", "alias": "bamboo-village-restaurant-gilroy", "name": "Bamboo Village Restaurant", "image_url": "https://s3-media4.fl.yelpcdn.com/bphoto/LnSCRcVKffip7y2ro9PFnw/o.jpg", "is_closed": false, "url": "https://www.yelp.com/biz/bamboo-village-restaurant-gilroy?adjust_creative=-1a8ZLzJ76_AvFzvJVcndQ&utm_campaign=yelp_api_v3&utm_medium=api_v3_business_search&utm_source=-1a8ZLzJ76_AvFzvJVcndQ", "review_count": 116, "categories": [{"alias": "chinese", "title": "Chinese"}], "rating": 3.0, "coordinates": {"latitude": 37.014554255485, "longitude": -121.58729449747}, "transactions": [], "price": "$$", "location": {"address1": "8045 Wren Ave", "address2": "", "address3": "", "city": "Gilroy", "zip_code": "95020", "country": "US", "state": "CA", "display_address": ["8045 Wren Ave", "Gilroy, CA 95020"]}, "phone": "+14088423400", "display_phone": "(408) 842-3400", "distance": 832.5289537205689}, {"id": "-V9OTxsWKDPohgTS7XDJ8g", "alias": "in-n-out-burger-gilroy", "name": "In-N-Out Burger", "image_url": "https://s3-media1.fl.yelpcdn.com/bphoto/kwSBWWn_AjIXMMK5tGhGLQ/o.jpg", "is_closed": false, "url": "https://www.yelp.com/biz/in-n-out-burger-gilroy?adjust_creative=-1a8ZLzJ76_AvFzvJVcndQ&utm_campaign=yelp_api_v3&utm_medium=api_v3_business_search&utm_source=-1a8ZLzJ76_AvFzvJVcndQ", "review_count": 307, "categories": [{"alias": "burgers", "title": "Burgers"}], "rating": 4.0, "coordinates": {"latitude": 37.0238071561118, "longitude": -121.564217171199}, "transactions": [], "price": "$", "location": {"address1": "641 Leavesley Rd", "address2": null, "address3": "", "city": "Gilroy", "zip_code": "95020", "country": "US", "state": "CA", "display_address": ["641 Leavesley Rd", "Gilroy, CA 95020"]}, "phone": "+18007861000", "display_phone": "(800) 786-1000", "distance": 2206.6105041547003}, {"id": "GM1q7EYug5bY9T2bvWMECg", "alias": "mr-hongs-chinese-fast-food-gilroy", "name": "Mr Hong's Chinese Fast Food", "image_url": "https://s3-media1.fl.yelpcdn.com/bphoto/ebXHclOWpkyJDIsnHrSCZw/o.jpg", "is_closed": false, "url": "https://www.yelp.com/biz/mr-hongs-chinese-fast-food-gilroy?adjust_creative=-1a8ZLzJ76_AvFzvJVcndQ&utm_campaign=yelp_api_v3&utm_medium=api_v3_business_search&utm_source=-1a8ZLzJ76_AvFzvJVcndQ", "review_count": 86, "categories": [{"alias": "chinese", "title": "Chinese"}], "rating": 3.0, "coordinates": {"latitude": 37.0133951, "longitude": -121.5942685}, "transactions": [], "price": "$", "location": {"address1": "1210 1st St", "address2": "", "address3": "", "city": "Gilroy", "zip_code": "95020", "country": "US", "state": "CA", "display_address": ["1210 1st St", "Gilroy, CA 95020"]}, "phone": "+14088429389", "display_phone": "(408) 842-9389", "distance": 1309.661361693431}, {"id": "szBb1y3sbfG_zEmv7EAzbw", "alias": "king-eggroll-gilroy", "name": "King Eggroll", "image_url": "https://s3-media1.fl.yelpcdn.com/bphoto/GX85KsBHqMk_ZRPPDrmj-g/o.jpg", "is_closed": false, "url": "https://www.yelp.com/biz/king-eggroll-gilroy?adjust_creative=-1a8ZLzJ76_AvFzvJVcndQ&utm_campaign=yelp_api_v3&utm_medium=api_v3_business_search&utm_source=-1a8ZLzJ76_AvFzvJVcndQ", "review_count": 139, "categories": [{"alias": "chinese", "title": "Chinese"}], "rating": 3.0, "coordinates": {"latitude": 37.026236, "longitude": -121.566131}, "transactions": [], "price": "$", "location": {"address1": "8610 San Ysidro Ave", "address2": "Ste A", "address3": "", "city": "Gilroy", "zip_code": "95020", "country": "US", "state": "CA", "display_address": ["8610 San Ysidro Ave", "Ste A", "Gilroy, CA 95020"]}, "phone": "+14088468897", "display_phone": "(408) 846-8897", "distance": 2313.4321853704996}, {"id": "O2JJJ2pEgsmvNhQX1WYfhg", "alias": "black-bear-diner-gilroy", "name": "Black Bear Diner", "image_url": "https://s3-media1.fl.yelpcdn.com/bphoto/NnpFz6oZrtwOlONYvaa-pw/o.jpg", "is_closed": false, "url": "https://www.yelp.com/biz/black-bear-diner-gilroy?adjust_creative=-1a8ZLzJ76_AvFzvJVcndQ&utm_campaign=yelp_api_v3&utm_medium=api_v3_business_search&utm_source=-1a8ZLzJ76_AvFzvJVcndQ", "review_count": 563, "categories": [{"alias": "diners", "title": "Diners"}, {"alias": "breakfast_brunch", "title": "Breakfast & Brunch"}, {"alias": "burgers", "title": "Burgers"}], "rating": 3.5, "coordinates": {"latitude": 37.0216772539082, "longitude": -121.569757397098}, "transactions": [], "price": "$$", "location": {"address1": "395 Leavesley Rd", "address2": "", "address3": "", "city": "Gilroy", "zip_code": "95020", "country": "US", "state": "CA", "display_address": ["395 Leavesley Rd", "Gilroy, CA 95020"]}, "phone": "+14088429901", "display_phone": "(408) 842-9901", "distance": 1713.4641662860492}, {"id": "px87U5GPkCtmWpCE_EpPwg", "alias": "lings-mongolian-b-b-q-gilroy", "name": "Ling's Mongolian B B Q", "image_url": "https://s3-media1.fl.yelpcdn.com/bphoto/2YRTFhFa026nFiy5MyUPnA/o.jpg", "is_closed": false, "url": "https://www.yelp.com/biz/lings-mongolian-b-b-q-gilroy?adjust_creative=-1a8ZLzJ76_AvFzvJVcndQ&utm_campaign=yelp_api_v3&utm_medium=api_v3_business_search&utm_source=-1a8ZLzJ76_AvFzvJVcndQ", "review_count": 42, "categories": [{"alias": "bbq", "title": "Barbeque"}], "rating": 3.0, "coordinates": {"latitude": 37.0011101, "longitude": -121.5615997}, "transactions": ["delivery", "pickup"], "price": "$", "location": {"address1": "340 E 10th St", "address2": "", "address3": "", "city": "Gilroy", "zip_code": "95020", "country": "US", "state": "CA", "display_address": ["340 E 10th St", "Gilroy, CA 95020"]}, "phone": "+14088478642", "display_phone": "(408) 847-8642", "distance": 1933.450211704637}, {"id": "A4VXdiOpU4ROZ8FC8y1Yfw", "alias": "popeyes-louisiana-kitchen-gilroy", "name": "Popeyes Louisiana Kitchen", "image_url": "https://s3-media1.fl.yelpcdn.com/bphoto/ZMJuK8Z_D2exnSNWG7YX8w/o.jpg", "is_closed": false, "url": "https://www.yelp.com/biz/popeyes-louisiana-kitchen-gilroy?adjust_creative=-1a8ZLzJ76_AvFzvJVcndQ&utm_campaign=yelp_api_v3&utm_medium=api_v3_business_search&utm_source=-1a8ZLzJ76_AvFzvJVcndQ", "review_count": 123, "categories": [{"alias": "hotdogs", "title": "Fast Food"}, {"alias": "chicken_wings", "title": "Chicken Wings"}], "rating": 2.0, "coordinates": {"latitude": 37.003714248178, "longitude": -121.552522652779}, "transactions": [], "price": "$", "location": {"address1": "6945 Camino Arroyo", "address2": "", "address3": null, "city": "Gilroy", "zip_code": "95020", "country": "US", "state": "CA", "display_address": ["6945 Camino Arroyo", "Gilroy, CA 95020"]}, "phone": "+14088421111", "display_phone": "(408) 842-1111", "distance": 2588.5606496810387}, {"id": "MbjZtFAbGShgcNfOCMCYHQ", "alias": "carnitas-michoacan-gilroy", "name": "Carnitas Michoacan", "image_url": "https://s3-media3.fl.yelpcdn.com/bphoto/mdCLhdGp5KmaptlGnMFmDw/o.jpg", "is_closed": false, "url": "https://www.yelp.com/biz/carnitas-michoacan-gilroy?adjust_creative=-1a8ZLzJ76_AvFzvJVcndQ&utm_campaign=yelp_api_v3&utm_medium=api_v3_business_search&utm_source=-1a8ZLzJ76_AvFzvJVcndQ", "review_count": 282, "categories": [{"alias": "mexican", "title": "Mexican"}], "rating": 3.5, "coordinates": {"latitude": 37.00791, "longitude": -121.56873}, "transactions": [], "price": "$$", "location": {"address1": "7484 Monterey St", "address2": "", "address3": "", "city": "Gilroy", "zip_code": "95020", "country": "US", "state": "CA", "display_address": ["7484 Monterey St", "Gilroy, CA 95020"]}, "phone": "+14088478812", "display_phone": "(408) 847-8812", "distance": 1082.738729911657}, {"id": "r2dazmatyjtiWN8Rw2DmOA", "alias": "pieology-pizzeria-gilroy", "name": "Pieology Pizzeria", "image_url": "https://s3-media3.fl.yelpcdn.com/bphoto/OOqYj-NgURHeu1-E8TY_dw/o.jpg", "is_closed": false, "url": "https://www.yelp.com/biz/pieology-pizzeria-gilroy?adjust_creative=-1a8ZLzJ76_AvFzvJVcndQ&utm_campaign=yelp_api_v3&utm_medium=api_v3_business_search&utm_source=-1a8ZLzJ76_AvFzvJVcndQ", "review_count": 195, "categories": [{"alias": "pizza", "title": "Pizza"}, {"alias": "vegan", "title": "Vegan"}, {"alias": "hotdogs", "title": "Fast Food"}], "rating": 3.5, "coordinates": {"latitude": 37.002908847202, "longitude": -121.552087032451}, "transactions": [], "price": "$", "location": {"address1": "6955 Camino Arroyo", "address2": "Ste 30", "address3": "", "city": "Gilroy", "zip_code": "95020", "country": "US", "state": "CA", "display_address": ["6955 Camino Arroyo", "Ste 30", "Gilroy, CA 95020"]}, "phone": "+14088472400", "display_phone": "(408) 847-2400", "distance": 2648.039451307552}, {"id": "F5lLlLCZJ-UNhrjOssWoSg", "alias": "sandys-cafe-gilroy-2", "name": "Sandys Cafe", "image_url": "https://s3-media2.fl.yelpcdn.com/bphoto/rEwgFD8eZKZcfGHHunqJhg/o.jpg", "is_closed": false, "url": "https://www.yelp.com/biz/sandys-cafe-gilroy-2?adjust_creative=-1a8ZLzJ76_AvFzvJVcndQ&utm_campaign=yelp_api_v3&utm_medium=api_v3_business_search&utm_source=-1a8ZLzJ76_AvFzvJVcndQ", "review_count": 232, "categories": [{"alias": "cafes", "title": "Cafes"}, {"alias": "breakfast_brunch", "title": "Breakfast & Brunch"}, {"alias": "tradamerican", "title": "American (Traditional)"}], "rating": 4.0, "coordinates": {"latitude": 36.9891045840124, "longitude": -121.560239537263}, "transactions": [], "price": "$$", "location": {"address1": "6120 Monterey St", "address2": "", "address3": "", "city": "Gilroy", "zip_code": "95020", "country": "US", "state": "CA", "display_address": ["6120 Monterey St", "Gilroy, CA 95020"]}, "phone": "+14088481200", "display_phone": "(408) 848-1200", "distance": 2880.914311997248}, {"id": "qy0ipPOsHZZlo_P6gJ--xQ", "alias": "first-street-coffee-house-gilroy-2", "name": "First Street Coffee House", "image_url": "https://s3-media3.fl.yelpcdn.com/bphoto/h6I6BjVxuX4Lg-CA_zRpCA/o.jpg", "is_closed": false, "url": "https://www.yelp.com/biz/first-street-coffee-house-gilroy-2?adjust_creative=-1a8ZLzJ76_AvFzvJVcndQ&utm_campaign=yelp_api_v3&utm_medium=api_v3_business_search&utm_source=-1a8ZLzJ76_AvFzvJVcndQ", "review_count": 187, "categories": [{"alias": "coffee", "title": "Coffee & Tea"}, {"alias": "bagels", "title": "Bagels"}, {"alias": "sandwiches", "title": "Sandwiches"}], "rating": 4.0, "coordinates": {"latitude": 37.0139253558535, "longitude": -121.594372927338}, "transactions": ["pickup"], "price": "$", "location": {"address1": "1211 1st St", "address2": "", "address3": "", "city": "Gilroy", "zip_code": "95020", "country": "US", "state": "CA", "display_address": ["1211 1st St", "Gilroy, CA 95020"]}, "phone": "+14088421340", "display_phone": "(408) 842-1340", "distance": 1312.6909180712585}, {"id": "R4f2VO4Cs6KZXLUAgE-blw", "alias": "buffalo-wild-wings-gilroy-2", "name": "Buffalo Wild Wings", "image_url": "https://s3-media2.fl.yelpcdn.com/bphoto/mIl3Jwkqyyk4Q7eCXOUX9w/o.jpg", "is_closed": false, "url": "https://www.yelp.com/biz/buffalo-wild-wings-gilroy-2?adjust_creative=-1a8ZLzJ76_AvFzvJVcndQ&utm_campaign=yelp_api_v3&utm_medium=api_v3_business_search&utm_source=-1a8ZLzJ76_AvFzvJVcndQ", "review_count": 167, "categories": [{"alias": "sportsbars", "title": "Sports Bars"}, {"alias": "tradamerican", "title": "American (Traditional)"}, {"alias": "chicken_wings", "title": "Chicken Wings"}], "rating": 2.0, "coordinates": {"latitude": 37.001563, "longitude": -121.555134952068}, "transactions": [], "price": "$$", "location": {"address1": "6805 Camino Arroyo", "address2": null, "address3": null, "city": "Gilroy", "zip_code": "95020", "country": "US", "state": "CA", "display_address": ["6805 Camino Arroyo", "Gilroy, CA 95020"]}, "phone": "+14088421668", "display_phone": "(408) 842-1668", "distance": 2435.002171954391}, {"id": "E0Ox2C2miCEoXolumgjNIQ", "alias": "taqueria-los-coste\u00f1itos-gilroy", "name": "Taqueria Los Coste\u00f1itos", "image_url": "https://s3-media3.fl.yelpcdn.com/bphoto/VbQ_GeAZMwwHUj76xa_msg/o.jpg", "is_closed": false, "url": "https://www.yelp.com/biz/taqueria-los-coste%C3%B1itos-gilroy?adjust_creative=-1a8ZLzJ76_AvFzvJVcndQ&utm_campaign=yelp_api_v3&utm_medium=api_v3_business_search&utm_source=-1a8ZLzJ76_AvFzvJVcndQ", "review_count": 28, "categories": [{"alias": "mexican", "title": "Mexican"}], "rating": 4.0, "coordinates": {"latitude": 37.0197544832591, "longitude": -121.576443091035}, "transactions": [], "price": "$", "location": {"address1": "195 Welburn Ave", "address2": "Ste B", "address3": null, "city": "Gilroy", "zip_code": "95020", "country": "US", "state": "CA", "display_address": ["195 Welburn Ave", "Ste B", "Gilroy, CA 95020"]}, "phone": "+14088481794", "display_phone": "(408) 848-1794", "distance": 1249.93695489066}, {"id": "zNXtsXPPaIWMii5lIwSJvQ", "alias": "tacomania-gilroy", "name": "Tacomania", "image_url": "https://s3-media4.fl.yelpcdn.com/bphoto/1r8UHpqMxYEDRAHBPpq0iA/o.jpg", "is_closed": false, "url": "https://www.yelp.com/biz/tacomania-gilroy?adjust_creative=-1a8ZLzJ76_AvFzvJVcndQ&utm_campaign=yelp_api_v3&utm_medium=api_v3_business_search&utm_source=-1a8ZLzJ76_AvFzvJVcndQ", "review_count": 61, "categories": [{"alias": "mexican", "title": "Mexican"}, {"alias": "hotdogs", "title": "Fast Food"}], "rating": 3.5, "coordinates": {"latitude": 37.0135705039975, "longitude": -121.579332500696}, "transactions": ["pickup"], "price": "$", "location": {"address1": "565 1st St", "address2": "", "address3": "", "city": "Gilroy", "zip_code": "95020", "country": "US", "state": "CA", "display_address": ["565 1st St", "Gilroy, CA 95020"]}, "phone": "+14088425720", "display_phone": "(408) 842-5720", "distance": 517.1616171772841}, {"id": "ehBcSVFml6svKQG5rZUfWQ", "alias": "taqueria-y-mariscos-chapala-gilroy", "name": "Taqueria y Mariscos Chapala", "image_url": "https://s3-media4.fl.yelpcdn.com/bphoto/pPiPkVBeMFJCkb4fX-qlZw/o.jpg", "is_closed": false, "url": "https://www.yelp.com/biz/taqueria-y-mariscos-chapala-gilroy?adjust_creative=-1a8ZLzJ76_AvFzvJVcndQ&utm_campaign=yelp_api_v3&utm_medium=api_v3_business_search&utm_source=-1a8ZLzJ76_AvFzvJVcndQ", "review_count": 53, "categories": [{"alias": "catering", "title": "Caterers"}, {"alias": "mexican", "title": "Mexican"}], "rating": 3.0, "coordinates": {"latitude": 37.013836, "longitude": -121.576317}, "transactions": [], "price": "$$", "location": {"address1": "303 1st St", "address2": "", "address3": "", "city": "Gilroy", "zip_code": "95020", "country": "US", "state": "CA", "display_address": ["303 1st St", "Gilroy, CA 95020"]}, "phone": "+14088428925", "display_phone": "(408) 842-8925", "distance": 665.8786695627668}, {"id": "3cYltfpFR0Lauglb-oX1MA", "alias": "station-55-seafood-and-mexican-cocina-gilroy-2", "name": "Station 55 Seafood & Mexican Cocina", "image_url": "https://s3-media3.fl.yelpcdn.com/bphoto/e-G6ZII34ro8Ut6mUQKMIw/o.jpg", "is_closed": false, "url": "https://www.yelp.com/biz/station-55-seafood-and-mexican-cocina-gilroy-2?adjust_creative=-1a8ZLzJ76_AvFzvJVcndQ&utm_campaign=yelp_api_v3&utm_medium=api_v3_business_search&utm_source=-1a8ZLzJ76_AvFzvJVcndQ", "review_count": 66, "categories": [{"alias": "mexican", "title": "Mexican"}, {"alias": "seafood", "title": "Seafood"}], "rating": 3.0, "coordinates": {"latitude": 37.00835, "longitude": -121.57019}, "transactions": [], "price": "$$", "location": {"address1": "55 5th St", "address2": "", "address3": null, "city": "Gilroy", "zip_code": "95020", "country": "US", "state": "CA", "display_address": ["55 5th St", "Gilroy, CA 95020"]}, "phone": "+16692057200", "display_phone": "(669) 205-7200", "distance": 950.2269226232643}, {"id": "1DMY2zupglVSeQ7rCA_dMw", "alias": "tacos-el-grullense-jal-gilroy", "name": "Tacos El Grullense Jal", "image_url": "https://s3-media2.fl.yelpcdn.com/bphoto/ss7gZvrEA6jrJrCYYCQ8lA/o.jpg", "is_closed": false, "url": "https://www.yelp.com/biz/tacos-el-grullense-jal-gilroy?adjust_creative=-1a8ZLzJ76_AvFzvJVcndQ&utm_campaign=yelp_api_v3&utm_medium=api_v3_business_search&utm_source=-1a8ZLzJ76_AvFzvJVcndQ", "review_count": 118, "categories": [{"alias": "mexican", "title": "Mexican"}], "rating": 3.0, "coordinates": {"latitude": 37.01409, "longitude": -121.57543}, "transactions": [], "price": "$", "location": {"address1": "251 1st St", "address2": "", "address3": "", "city": "Gilroy", "zip_code": "95020", "country": "US", "state": "CA", "display_address": ["251 1st St", "Gilroy, CA 95020"]}, "phone": "+14088427749", "display_phone": "(408) 842-7749", "distance": 720.6642191711578}, {"id": "UzuJ4sBrE9TAq6N4-zHtRA", "alias": "o-henrys-donuts-gilroy", "name": "O'henry's Donuts", "image_url": "https://s3-media3.fl.yelpcdn.com/bphoto/1tJeykrNMdrhT-5HpICcYA/o.jpg", "is_closed": false, "url": "https://www.yelp.com/biz/o-henrys-donuts-gilroy?adjust_creative=-1a8ZLzJ76_AvFzvJVcndQ&utm_campaign=yelp_api_v3&utm_medium=api_v3_business_search&utm_source=-1a8ZLzJ76_AvFzvJVcndQ", "review_count": 45, "categories": [{"alias": "donuts", "title": "Donuts"}, {"alias": "coffee", "title": "Coffee & Tea"}, {"alias": "sandwiches", "title": "Sandwiches"}], "rating": 3.0, "coordinates": {"latitude": 37.001962, "longitude": -121.5605349}, "transactions": [], "price": "$", "location": {"address1": "401 E 10th St", "address2": "", "address3": "", "city": "Gilroy", "zip_code": "95020", "country": "US", "state": "CA", "display_address": ["401 E 10th St", "Gilroy, CA 95020"]}, "phone": "+14088475455", "display_phone": "(408) 847-5455", "distance": 1978.8543981633434}, {"id": "4KGoanGBth6WNlU246s2cQ", "alias": "house-of-bagels-gilroy", "name": "House of Bagels", "image_url": "https://s3-media4.fl.yelpcdn.com/bphoto/WTZ4MTZATbQD7T8-hWisVA/o.jpg", "is_closed": false, "url": "https://www.yelp.com/biz/house-of-bagels-gilroy?adjust_creative=-1a8ZLzJ76_AvFzvJVcndQ&utm_campaign=yelp_api_v3&utm_medium=api_v3_business_search&utm_source=-1a8ZLzJ76_AvFzvJVcndQ", "review_count": 145, "categories": [{"alias": "bagels", "title": "Bagels"}, {"alias": "breakfast_brunch", "title": "Breakfast & Brunch"}], "rating": 4.5, "coordinates": {"latitude": 37.014278, "longitude": -121.585006}, "transactions": [], "price": "$", "location": {"address1": "793 1st St", "address2": "", "address3": "", "city": "Gilroy", "zip_code": "95020", "country": "US", "state": "CA", "display_address": ["793 1st St", "Gilroy, CA 95020"]}, "phone": "+14088469377", "display_phone": "(408) 846-9377", "distance": 729.6097563607988}, {"id": "nOg0NAQPP-jlzHNf3srIUw", "alias": "bears-secret-7-bbq-sauce-gilroy", "name": "Bears Secret 7 Bbq Sauce", "image_url": "https://s3-media4.fl.yelpcdn.com/bphoto/AxirfdtxBHoVSRgovJuadw/o.jpg", "is_closed": false, "url": "https://www.yelp.com/biz/bears-secret-7-bbq-sauce-gilroy?adjust_creative=-1a8ZLzJ76_AvFzvJVcndQ&utm_campaign=yelp_api_v3&utm_medium=api_v3_business_search&utm_source=-1a8ZLzJ76_AvFzvJVcndQ", "review_count": 1, "categories": [{"alias": "bbq", "title": "Barbeque"}], "rating": 5.0, "coordinates": {"latitude": 37.0195288170196, "longitude": -121.574887409806}, "transactions": [], "location": {"address1": "", "address2": "", "address3": "", "city": "Gilroy", "zip_code": "95020", "country": "US", "state": "CA", "display_address": ["Gilroy, CA 95020"]}, "phone": "", "display_phone": "", "distance": 1277.3108619639584}, {"id": "60mu9xN8ENqHSngyEX5wog", "alias": "applebees-grill-bar-gilroy", "name": "Applebee's Grill + Bar", "image_url": "https://s3-media3.fl.yelpcdn.com/bphoto/WMrdvcC8TnDvwBUvPZ5kmA/o.jpg", "is_closed": false, "url": "https://www.yelp.com/biz/applebees-grill-bar-gilroy?adjust_creative=-1a8ZLzJ76_AvFzvJVcndQ&utm_campaign=yelp_api_v3&utm_medium=api_v3_business_search&utm_source=-1a8ZLzJ76_AvFzvJVcndQ", "review_count": 317, "categories": [{"alias": "tradamerican", "title": "American (Traditional)"}, {"alias": "sportsbars", "title": "Sports Bars"}, {"alias": "burgers", "title": "Burgers"}], "rating": 2.5, "coordinates": {"latitude": 37.021279, "longitude": -121.561732}, "transactions": [], "price": "$$", "location": {"address1": "8200 Arroyo Cir", "address2": "", "address3": "", "city": "Gilroy", "zip_code": "95020", "country": "US", "state": "CA", "display_address": ["8200 Arroyo Cir", "Gilroy, CA 95020"]}, "phone": "+14088485600", "display_phone": "(408) 848-5600", "distance": 2174.8246139712337}, {"id": "T3nuJqIwU44O33gzGv_tsQ", "alias": "california-fresh-gilroy-2", "name": "California Fresh", "image_url": "https://s3-media4.fl.yelpcdn.com/bphoto/rTZSwE0fR8gSGRMHZxmnTw/o.jpg", "is_closed": false, "url": "https://www.yelp.com/biz/california-fresh-gilroy-2?adjust_creative=-1a8ZLzJ76_AvFzvJVcndQ&utm_campaign=yelp_api_v3&utm_medium=api_v3_business_search&utm_source=-1a8ZLzJ76_AvFzvJVcndQ", "review_count": 64, "categories": [{"alias": "tradamerican", "title": "American (Traditional)"}], "rating": 2.5, "coordinates": {"latitude": 37.0262565612793, "longitude": -121.56763458252}, "transactions": [], "price": "$$", "location": {"address1": "8697 San Ysidro Ave", "address2": "", "address3": "", "city": "Gilroy", "zip_code": "95020", "country": "US", "state": "CA", "display_address": ["8697 San Ysidro Ave", "Gilroy, CA 95020"]}, "phone": "+14088422224", "display_phone": "(408) 842-2224", "distance": 2240.7289666795764}, {"id": "axrs56wpkorJPSDa_QCbTw", "alias": "wingstop-gilroy-2", "name": "Wingstop", "image_url": "https://s3-media2.fl.yelpcdn.com/bphoto/WQyXOsuLrNjX4QCIxkiqgg/o.jpg", "is_closed": false, "url": "https://www.yelp.com/biz/wingstop-gilroy-2?adjust_creative=-1a8ZLzJ76_AvFzvJVcndQ&utm_campaign=yelp_api_v3&utm_medium=api_v3_business_search&utm_source=-1a8ZLzJ76_AvFzvJVcndQ", "review_count": 60, "categories": [{"alias": "chicken_wings", "title": "Chicken Wings"}], "rating": 3.0, "coordinates": {"latitude": 37.0075035375248, "longitude": -121.554110601699}, "transactions": [], "price": "$$", "location": {"address1": "7171 Camino Arroyo", "address2": "", "address3": "", "city": "Gilroy", "zip_code": "95020", "country": "US", "state": "CA", "display_address": ["7171 Camino Arroyo", "Gilroy, CA 95020"]}, "phone": "+14088429464", "display_phone": "(408) 842-9464", "distance": 2384.101534707718}, {"id": "NB-jGGsj8HArC8rfrXXdoA", "alias": "el-charrito-market-gilroy", "name": "El Charrito Market", "image_url": "https://s3-media2.fl.yelpcdn.com/bphoto/kmmAbf9uNJ-gsssYmEDJEw/o.jpg", "is_closed": false, "url": "https://www.yelp.com/biz/el-charrito-market-gilroy?adjust_creative=-1a8ZLzJ76_AvFzvJVcndQ&utm_campaign=yelp_api_v3&utm_medium=api_v3_business_search&utm_source=-1a8ZLzJ76_AvFzvJVcndQ", "review_count": 28, "categories": [{"alias": "grocery", "title": "Grocery"}, {"alias": "mexican", "title": "Mexican"}], "rating": 4.5, "coordinates": {"latitude": 37.0104713439941, "longitude": -121.569892883301}, "transactions": [], "price": "$", "location": {"address1": "7638 Monterey St", "address2": "", "address3": "", "city": "Gilroy", "zip_code": "95020", "country": "US", "state": "CA", "display_address": ["7638 Monterey St", "Gilroy, CA 95020"]}, "phone": "+14088423659", "display_phone": "(408) 842-3659", "distance": 982.785019455584}, {"id": "NHo04BBb2Bf_iYTaZZBnTg", "alias": "tacos-ameca-2-gilroy-4", "name": "Tacos Ameca 2", "image_url": "https://s3-media4.fl.yelpcdn.com/bphoto/qR40M_y408WpbWNfojMPXA/o.jpg", "is_closed": false, "url": "https://www.yelp.com/biz/tacos-ameca-2-gilroy-4?adjust_creative=-1a8ZLzJ76_AvFzvJVcndQ&utm_campaign=yelp_api_v3&utm_medium=api_v3_business_search&utm_source=-1a8ZLzJ76_AvFzvJVcndQ", "review_count": 86, "categories": [{"alias": "tacos", "title": "Tacos"}], "rating": 3.5, "coordinates": {"latitude": 37.032135652694, "longitude": -121.581780351698}, "transactions": [], "price": "$", "location": {"address1": "9335 Monterey Hwy", "address2": "", "address3": null, "city": "Gilroy", "zip_code": "95020", "country": "US", "state": "CA", "display_address": ["9335 Monterey Hwy", "Gilroy, CA 95020"]}, "phone": "+14088422889", "display_phone": "(408) 842-2889", "distance": 2563.981965166691}, {"id": "k6EfwuvVTUqLtT8gj5KbnA", "alias": "mariscos-puerto-vallarta-gilroy", "name": "Mariscos Puerto Vallarta", "image_url": "https://s3-media3.fl.yelpcdn.com/bphoto/cgCLFn2ATHAgl8Oh1ySwAQ/o.jpg", "is_closed": false, "url": "https://www.yelp.com/biz/mariscos-puerto-vallarta-gilroy?adjust_creative=-1a8ZLzJ76_AvFzvJVcndQ&utm_campaign=yelp_api_v3&utm_medium=api_v3_business_search&utm_source=-1a8ZLzJ76_AvFzvJVcndQ", "review_count": 20, "categories": [{"alias": "mexican", "title": "Mexican"}], "rating": 3.0, "coordinates": {"latitude": 37.0157362925245, "longitude": -121.572448946536}, "transactions": [], "price": "$$", "location": {"address1": "7121 Monterey St", "address2": "", "address3": "", "city": "Gilroy", "zip_code": "95020", "country": "US", "state": "CA", "display_address": ["7121 Monterey St", "Gilroy, CA 95020"]}, "phone": "+14088489700", "display_phone": "(408) 848-9700", "distance": 1052.5013729446214}, {"id": "LLLvKuD83y2MbbgaaMP9AQ", "alias": "star-tea-gilroy-6", "name": "Star Tea", "image_url": "https://s3-media4.fl.yelpcdn.com/bphoto/5sOrI9qyckrES17FXtf0Iw/o.jpg", "is_closed": false, "url": "https://www.yelp.com/biz/star-tea-gilroy-6?adjust_creative=-1a8ZLzJ76_AvFzvJVcndQ&utm_campaign=yelp_api_v3&utm_medium=api_v3_business_search&utm_source=-1a8ZLzJ76_AvFzvJVcndQ", "review_count": 105, "categories": [{"alias": "bubbletea", "title": "Bubble Tea"}, {"alias": "juicebars", "title": "Juice Bars & Smoothies"}, {"alias": "sandwiches", "title": "Sandwiches"}], "rating": 4.0, "coordinates": {"latitude": 37.02704, "longitude": -121.56556}, "transactions": ["delivery", "pickup"], "price": "$", "location": {"address1": "8650 San Ysidro Ave", "address2": "Ste 102", "address3": "", "city": "Gilroy", "zip_code": "95020", "country": "US", "state": "CA", "display_address": ["8650 San Ysidro Ave", "Ste 102", "Gilroy, CA 95020"]}, "phone": "+16692390846", "display_phone": "(669) 239-0846", "distance": 2408.8348320063938}, {"id": "m8o_55GP29HgvoVFeUADJg", "alias": "mountain-mikes-pizza-gilroy", "name": "Mountain Mike's Pizza", "image_url": "https://s3-media4.fl.yelpcdn.com/bphoto/7ME7mSeiG22FZs5hG1zrlg/o.jpg", "is_closed": false, "url": "https://www.yelp.com/biz/mountain-mikes-pizza-gilroy?adjust_creative=-1a8ZLzJ76_AvFzvJVcndQ&utm_campaign=yelp_api_v3&utm_medium=api_v3_business_search&utm_source=-1a8ZLzJ76_AvFzvJVcndQ", "review_count": 71, "categories": [{"alias": "pizza", "title": "Pizza"}], "rating": 3.0, "coordinates": {"latitude": 37.01421, "longitude": -121.58294}, "transactions": ["delivery", "pickup"], "price": "$$", "location": {"address1": "747 First Street", "address2": "", "address3": "", "city": "Gilroy", "zip_code": "95020", "country": "US", "state": "CA", "display_address": ["747 First Street", "Gilroy, CA 95020"]}, "phone": "+14088461900", "display_phone": "(408) 846-1900", "distance": 645.2559364363312}, {"id": "Bc7E90jM1quE4UD2yKxT8A", "alias": "pearl-sushi-lovers-gilroy-2", "name": "Pearl Sushi Lovers", "image_url": "https://s3-media2.fl.yelpcdn.com/bphoto/plGwYN_VocqczWkeZBVCYQ/o.jpg", "is_closed": false, "url": "https://www.yelp.com/biz/pearl-sushi-lovers-gilroy-2?adjust_creative=-1a8ZLzJ76_AvFzvJVcndQ&utm_campaign=yelp_api_v3&utm_medium=api_v3_business_search&utm_source=-1a8ZLzJ76_AvFzvJVcndQ", "review_count": 120, "categories": [{"alias": "japanese", "title": "Japanese"}, {"alias": "sushi", "title": "Sushi Bars"}, {"alias": "poke", "title": "Poke"}], "rating": 3.5, "coordinates": {"latitude": 37.00111, "longitude": -121.5616}, "transactions": ["delivery", "pickup"], "price": "$$", "location": {"address1": "340 E 10th St", "address2": "Ste A", "address3": "", "city": "Gilroy", "zip_code": "95020", "country": "US", "state": "CA", "display_address": ["340 E 10th St", "Ste A", "Gilroy, CA 95020"]}, "phone": "+14087672972", "display_phone": "(408) 767-2972", "distance": 1933.5724256502865}, {"id": "glHOf1zW6UyDGNLafXXJZg", "alias": "pinocchios-pizza-gilroy-6", "name": "Pinocchio's Pizza", "image_url": "https://s3-media4.fl.yelpcdn.com/bphoto/Yq1aKQUC9JA9FU0qg1HIvA/o.jpg", "is_closed": false, "url": "https://www.yelp.com/biz/pinocchios-pizza-gilroy-6?adjust_creative=-1a8ZLzJ76_AvFzvJVcndQ&utm_campaign=yelp_api_v3&utm_medium=api_v3_business_search&utm_source=-1a8ZLzJ76_AvFzvJVcndQ", "review_count": 97, "categories": [{"alias": "pizza", "title": "Pizza"}, {"alias": "desserts", "title": "Desserts"}, {"alias": "sandwiches", "title": "Sandwiches"}], "rating": 3.5, "coordinates": {"latitude": 37.0196782, "longitude": -121.5768221}, "transactions": [], "price": "$", "location": {"address1": "8400 Church St", "address2": "Ste A", "address3": "", "city": "Gilroy", "zip_code": "95020", "country": "US", "state": "CA", "display_address": ["8400 Church St", "Ste A", "Gilroy, CA 95020"]}, "phone": "+14088473464", "display_phone": "(408) 847-3464", "distance": 1231.6136819489022}, {"id": "mGCY2nUT-8JB5cPV_33oPw", "alias": "mimis-bistro-bakery-gilroy", "name": "Mimi's Bistro + Bakery", "image_url": "https://s3-media3.fl.yelpcdn.com/bphoto/rYYO1StGzHwabtdyuF6SRA/o.jpg", "is_closed": false, "url": "https://www.yelp.com/biz/mimis-bistro-bakery-gilroy?adjust_creative=-1a8ZLzJ76_AvFzvJVcndQ&utm_campaign=yelp_api_v3&utm_medium=api_v3_business_search&utm_source=-1a8ZLzJ76_AvFzvJVcndQ", "review_count": 320, "categories": [{"alias": "breakfast_brunch", "title": "Breakfast & Brunch"}, {"alias": "tradamerican", "title": "American (Traditional)"}, {"alias": "french", "title": "French"}], "rating": 3.0, "coordinates": {"latitude": 37.003458280636, "longitude": -121.55330280875}, "transactions": ["pickup"], "price": "$$", "location": {"address1": "6935 Camino Arroyo", "address2": null, "address3": "", "city": "Gilroy", "zip_code": "95020", "country": "US", "state": "CA", "display_address": ["6935 Camino Arroyo", "Gilroy, CA 95020"]}, "phone": "+14088424043", "display_phone": "(408) 842-4043", "distance": 2528.1083690834294}, {"id": "K7-f63avLdSSoj0l49yRzg", "alias": "super-taqueria-gilroy-3", "name": "Super Taqueria", "image_url": "https://s3-media4.fl.yelpcdn.com/bphoto/mRjGuDSpvno_Tkfeeq2HIQ/o.jpg", "is_closed": false, "url": "https://www.yelp.com/biz/super-taqueria-gilroy-3?adjust_creative=-1a8ZLzJ76_AvFzvJVcndQ&utm_campaign=yelp_api_v3&utm_medium=api_v3_business_search&utm_source=-1a8ZLzJ76_AvFzvJVcndQ", "review_count": 80, "categories": [{"alias": "mexican", "title": "Mexican"}], "rating": 3.0, "coordinates": {"latitude": 36.99927, "longitude": -121.56594}, "transactions": [], "price": "$", "location": {"address1": "6951 Monterey Rd", "address2": "", "address3": "", "city": "Gilroy", "zip_code": "95020", "country": "US", "state": "CA", "display_address": ["6951 Monterey Rd", "Gilroy, CA 95020"]}, "phone": "+14088472505", "display_phone": "(408) 847-2505", "distance": 1737.437071865816}, {"id": "esG-808uix98vnN7xo09nw", "alias": "chilis-gilroy", "name": "Chili's", "image_url": "https://s3-media2.fl.yelpcdn.com/bphoto/DzZarv4CKB_xl0TM41-Img/o.jpg", "is_closed": false, "url": "https://www.yelp.com/biz/chilis-gilroy?adjust_creative=-1a8ZLzJ76_AvFzvJVcndQ&utm_campaign=yelp_api_v3&utm_medium=api_v3_business_search&utm_source=-1a8ZLzJ76_AvFzvJVcndQ", "review_count": 197, "categories": [{"alias": "tex-mex", "title": "Tex-Mex"}, {"alias": "tradamerican", "title": "American (Traditional)"}, {"alias": "bars", "title": "Bars"}], "rating": 2.0, "coordinates": {"latitude": 37.0052521, "longitude": -121.5528602}, "transactions": [], "price": "$$", "location": {"address1": "850 Renz Ln", "address2": "", "address3": "", "city": "Gilroy", "zip_code": "95020", "country": "US", "state": "CA", "display_address": ["850 Renz Ln", "Gilroy, CA 95020"]}, "phone": "+14088424000", "display_phone": "(408) 842-4000", "distance": 2502.8741367390594}, {"id": "fBBBl_9DGDAAl9duTSadWA", "alias": "eriks-delicaf\u00e9-gilroy-5", "name": "Erik's DeliCaf\u00e9", "image_url": "https://s3-media2.fl.yelpcdn.com/bphoto/I9Wg2nc5jn-H8cqZH9qzSg/o.jpg", "is_closed": false, "url": "https://www.yelp.com/biz/eriks-delicaf%C3%A9-gilroy-5?adjust_creative=-1a8ZLzJ76_AvFzvJVcndQ&utm_campaign=yelp_api_v3&utm_medium=api_v3_business_search&utm_source=-1a8ZLzJ76_AvFzvJVcndQ", "review_count": 68, "categories": [{"alias": "delis", "title": "Delis"}, {"alias": "sandwiches", "title": "Sandwiches"}, {"alias": "soup", "title": "Soup"}], "rating": 3.5, "coordinates": {"latitude": 37.0214439, "longitude": -121.5606134}, "transactions": ["delivery", "pickup"], "price": "$", "location": {"address1": "8300 Arroyo Cir", "address2": "Ste 320", "address3": "", "city": "Gilroy", "zip_code": "95020", "country": "US", "state": "CA", "display_address": ["8300 Arroyo Cir", "Ste 320", "Gilroy, CA 95020"]}, "phone": "+14088475252", "display_phone": "(408) 847-5252", "distance": 2264.4157400102113}, {"id": "0miLskT4cL1SKwQNSl1wmQ", "alias": "round-table-pizza-gilroy", "name": "Round Table Pizza", "image_url": "https://s3-media1.fl.yelpcdn.com/bphoto/SeRye4AfNM2iM3Hr6-Ereg/o.jpg", "is_closed": false, "url": "https://www.yelp.com/biz/round-table-pizza-gilroy?adjust_creative=-1a8ZLzJ76_AvFzvJVcndQ&utm_campaign=yelp_api_v3&utm_medium=api_v3_business_search&utm_source=-1a8ZLzJ76_AvFzvJVcndQ", "review_count": 108, "categories": [{"alias": "pizza", "title": "Pizza"}], "rating": 2.0, "coordinates": {"latitude": 37.0144, "longitude": -121.58732}, "transactions": ["delivery", "pickup"], "price": "$$", "location": {"address1": "815 1st St", "address2": "", "address3": "", "city": "Gilroy", "zip_code": "95020", "country": "US", "state": "CA", "display_address": ["815 1st St", "Gilroy, CA 95020"]}, "phone": "+14088420321", "display_phone": "(408) 842-0321", "distance": 847.3226838275122}, {"id": "maoiSuoKAcp3yiaA_Sr1nQ", "alias": "panda-express-gilroy", "name": "Panda Express", "image_url": "https://s3-media4.fl.yelpcdn.com/bphoto/azmv4opc4b21eGxQUfBlug/o.jpg", "is_closed": false, "url": "https://www.yelp.com/biz/panda-express-gilroy?adjust_creative=-1a8ZLzJ76_AvFzvJVcndQ&utm_campaign=yelp_api_v3&utm_medium=api_v3_business_search&utm_source=-1a8ZLzJ76_AvFzvJVcndQ", "review_count": 110, "categories": [{"alias": "chinese", "title": "Chinese"}, {"alias": "hotdogs", "title": "Fast Food"}], "rating": 2.0, "coordinates": {"latitude": 37.0038337, "longitude": -121.5510197}, "transactions": [], "price": "$", "location": {"address1": "6975 Camino Arroyo", "address2": "", "address3": "", "city": "Gilroy", "zip_code": "95020", "country": "US", "state": "CA", "display_address": ["6975 Camino Arroyo", "Gilroy, CA 95020"]}, "phone": "+14088426203", "display_phone": "(408) 842-6203", "distance": 2689.19960632261}, {"id": "AvC0zJeXiHjhJyXcx5l1Cw", "alias": "panera-bread-gilroy", "name": "Panera Bread", "image_url": "https://s3-media2.fl.yelpcdn.com/bphoto/Xh-x1PFLNmEvc6D-mziqmw/o.jpg", "is_closed": false, "url": "https://www.yelp.com/biz/panera-bread-gilroy?adjust_creative=-1a8ZLzJ76_AvFzvJVcndQ&utm_campaign=yelp_api_v3&utm_medium=api_v3_business_search&utm_source=-1a8ZLzJ76_AvFzvJVcndQ", "review_count": 158, "categories": [{"alias": "sandwiches", "title": "Sandwiches"}, {"alias": "salad", "title": "Salad"}, {"alias": "soup", "title": "Soup"}], "rating": 3.0, "coordinates": {"latitude": 37.002279, "longitude": -121.551156}, "transactions": [], "price": "$$", "location": {"address1": "6865 Camino Arroyo", "address2": "", "address3": "", "city": "Gilroy", "zip_code": "95020", "country": "US", "state": "CA", "display_address": ["6865 Camino Arroyo", "Gilroy, CA 95020"]}, "phone": "+14088467430", "display_phone": "(408) 846-7430", "distance": 2746.452527565327}, {"id": "AoKajushTunQPSDsxqR4lQ", "alias": "jersey-mikes-subs-gilroy-2", "name": "Jersey Mike's Subs", "image_url": "https://s3-media1.fl.yelpcdn.com/bphoto/y0TKe2VynHwE5XwvDYaqyA/o.jpg", "is_closed": false, "url": "https://www.yelp.com/biz/jersey-mikes-subs-gilroy-2?adjust_creative=-1a8ZLzJ76_AvFzvJVcndQ&utm_campaign=yelp_api_v3&utm_medium=api_v3_business_search&utm_source=-1a8ZLzJ76_AvFzvJVcndQ", "review_count": 61, "categories": [{"alias": "hotdogs", "title": "Fast Food"}, {"alias": "delis", "title": "Delis"}, {"alias": "sandwiches", "title": "Sandwiches"}], "rating": 3.5, "coordinates": {"latitude": 37.001805, "longitude": -121.552}, "transactions": [], "price": "$", "location": {"address1": "6845 Camino Arroyo", "address2": "Ste 60", "address3": null, "city": "Gilroy", "zip_code": "95020", "country": "US", "state": "CA", "display_address": ["6845 Camino Arroyo", "Ste 60", "Gilroy, CA 95020"]}, "phone": "+14082167853", "display_phone": "(408) 216-7853", "distance": 2689.895334023858}, {"id": "aL-pz1jDETPnrn4sp9da4w", "alias": "chipotle-mexican-grill-gilroy", "name": "Chipotle Mexican Grill", "image_url": "https://s3-media4.fl.yelpcdn.com/bphoto/uoebmdOHVfpoPwjSrscykQ/o.jpg", "is_closed": false, "url": "https://www.yelp.com/biz/chipotle-mexican-grill-gilroy?adjust_creative=-1a8ZLzJ76_AvFzvJVcndQ&utm_campaign=yelp_api_v3&utm_medium=api_v3_business_search&utm_source=-1a8ZLzJ76_AvFzvJVcndQ", "review_count": 100, "categories": [{"alias": "mexican", "title": "Mexican"}, {"alias": "hotdogs", "title": "Fast Food"}], "rating": 2.5, "coordinates": {"latitude": 37.0029774861898, "longitude": -121.551997153687}, "transactions": [], "price": "$", "location": {"address1": "6955 Camino Arroyo", "address2": "Ste 70", "address3": "", "city": "Gilroy", "zip_code": "95020", "country": "US", "state": "CA", "display_address": ["6955 Camino Arroyo", "Ste 70", "Gilroy, CA 95020"]}, "phone": "+14088484079", "display_phone": "(408) 848-4079", "distance": 2653.7823094447567}, {"id": "cLkR9pfRxRmVu2nLqXLNtw", "alias": "kfc-gilroy", "name": "KFC", "image_url": "https://s3-media2.fl.yelpcdn.com/bphoto/EP_AVF0eY0SlqRuIHHCUVg/o.jpg", "is_closed": false, "url": "https://www.yelp.com/biz/kfc-gilroy?adjust_creative=-1a8ZLzJ76_AvFzvJVcndQ&utm_campaign=yelp_api_v3&utm_medium=api_v3_business_search&utm_source=-1a8ZLzJ76_AvFzvJVcndQ", "review_count": 65, "categories": [{"alias": "hotdogs", "title": "Fast Food"}, {"alias": "chicken_wings", "title": "Chicken Wings"}, {"alias": "chickenshop", "title": "Chicken Shop"}], "rating": 1.5, "coordinates": {"latitude": 37.0145233037003, "longitude": -121.586417167315}, "transactions": ["delivery"], "price": "$", "location": {"address1": "8080 Wren Ave", "address2": "", "address3": null, "city": "Gilroy", "zip_code": "95020", "country": "US", "state": "CA", "display_address": ["8080 Wren Ave", "Gilroy, CA 95020"]}, "phone": "+14088424550", "display_phone": "(408) 842-4550", "distance": 778.6926155113314}, {"id": "KDUNZvJGbI4yhGa6Iw_J0g", "alias": "wienerschnitzel-gilroy", "name": "Wienerschnitzel", "image_url": "https://s3-media2.fl.yelpcdn.com/bphoto/Z9juFlT2hhPu7HqKQa1faQ/o.jpg", "is_closed": false, "url": "https://www.yelp.com/biz/wienerschnitzel-gilroy?adjust_creative=-1a8ZLzJ76_AvFzvJVcndQ&utm_campaign=yelp_api_v3&utm_medium=api_v3_business_search&utm_source=-1a8ZLzJ76_AvFzvJVcndQ", "review_count": 35, "categories": [{"alias": "hotdogs", "title": "Fast Food"}, {"alias": "hotdog", "title": "Hot Dogs"}, {"alias": "sandwiches", "title": "Sandwiches"}], "rating": 3.0, "coordinates": {"latitude": 37.01421, "longitude": -121.58295}, "transactions": [], "price": "$", "location": {"address1": "711 First St", "address2": "", "address3": "", "city": "Gilroy", "zip_code": "95020", "country": "US", "state": "CA", "display_address": ["711 First St", "Gilroy, CA 95020"]}, "phone": "+14088466361", "display_phone": "(408) 846-6361", "distance": 538.7408977550862}, {"id": "Gc9LxVAeLAX_Jgfei6xjjQ", "alias": "pizza-hut-gilroy", "name": "Pizza Hut", "image_url": "https://s3-media2.fl.yelpcdn.com/bphoto/rgC011VBdeimHfjGIuC4Ng/o.jpg", "is_closed": false, "url": "https://www.yelp.com/biz/pizza-hut-gilroy?adjust_creative=-1a8ZLzJ76_AvFzvJVcndQ&utm_campaign=yelp_api_v3&utm_medium=api_v3_business_search&utm_source=-1a8ZLzJ76_AvFzvJVcndQ", "review_count": 47, "categories": [{"alias": "pizza", "title": "Pizza"}, {"alias": "italian", "title": "Italian"}, {"alias": "chicken_wings", "title": "Chicken Wings"}], "rating": 2.5, "coordinates": {"latitude": 37.0139570341773, "longitude": -121.592909131611}, "transactions": [], "price": "$", "location": {"address1": "1171 1st St", "address2": "", "address3": "", "city": "Gilroy", "zip_code": "95020", "country": "US", "state": "CA", "display_address": ["1171 1st St", "Gilroy, CA 95020"]}, "phone": "+14088422424", "display_phone": "(408) 842-2424", "distance": 1196.906657940432}, {"id": "LzsaIQOniKwp7fNi9bCfDw", "alias": "mcdonalds-gilroy-5", "name": "McDonald's", "image_url": "https://s3-media3.fl.yelpcdn.com/bphoto/MHRF5vTtOEEK68RfgcTwOA/o.jpg", "is_closed": false, "url": "https://www.yelp.com/biz/mcdonalds-gilroy-5?adjust_creative=-1a8ZLzJ76_AvFzvJVcndQ&utm_campaign=yelp_api_v3&utm_medium=api_v3_business_search&utm_source=-1a8ZLzJ76_AvFzvJVcndQ", "review_count": 79, "categories": [{"alias": "hotdogs", "title": "Fast Food"}, {"alias": "burgers", "title": "Burgers"}, {"alias": "coffee", "title": "Coffee & Tea"}], "rating": 1.5, "coordinates": {"latitude": 37.0138082350988, "longitude": -121.586353182793}, "transactions": [], "price": "$", "location": {"address1": "797 1st St", "address2": "", "address3": "", "city": "Gilroy", "zip_code": "95020", "country": "US", "state": "CA", "display_address": ["797 1st St", "Gilroy, CA 95020"]}, "phone": "+14088422524", "display_phone": "(408) 842-2524", "distance": 714.865670503599}, {"id": "VgJc_ci7X7twwsZdnuSIGQ", "alias": "taqueria-cancun-gilroy", "name": "Taqueria Cancun", "image_url": "https://s3-media4.fl.yelpcdn.com/bphoto/sGj4T-11CSV4qvFC3NCHsg/o.jpg", "is_closed": false, "url": "https://www.yelp.com/biz/taqueria-cancun-gilroy?adjust_creative=-1a8ZLzJ76_AvFzvJVcndQ&utm_campaign=yelp_api_v3&utm_medium=api_v3_business_search&utm_source=-1a8ZLzJ76_AvFzvJVcndQ", "review_count": 207, "categories": [{"alias": "mexican", "title": "Mexican"}, {"alias": "breakfast_brunch", "title": "Breakfast & Brunch"}], "rating": 3.5, "coordinates": {"latitude": 37.00548, "longitude": -121.55199}, "transactions": [], "price": "$$", "location": {"address1": "890 Renz Ln", "address2": "Ste 105", "address3": "", "city": "Gilroy", "zip_code": "95020", "country": "US", "state": "CA", "display_address": ["890 Renz Ln", "Ste 105", "Gilroy, CA 95020"]}, "phone": "+14088468285", "display_phone": "(408) 846-8285", "distance": 2593.4933728656197}, {"id": "WBPqIqbnX9CQg0ppdUOr7Q", "alias": "super-taqueria-gilroy-2", "name": "Super Taqueria", "image_url": "https://s3-media4.fl.yelpcdn.com/bphoto/I6DrxT8r306W45ORqmP-xA/o.jpg", "is_closed": false, "url": "https://www.yelp.com/biz/super-taqueria-gilroy-2?adjust_creative=-1a8ZLzJ76_AvFzvJVcndQ&utm_campaign=yelp_api_v3&utm_medium=api_v3_business_search&utm_source=-1a8ZLzJ76_AvFzvJVcndQ", "review_count": 96, "categories": [{"alias": "mexican", "title": "Mexican"}], "rating": 3.5, "coordinates": {"latitude": 37.0019618, "longitude": -121.5605364}, "transactions": [], "price": "$", "location": {"address1": "401 E 10th St", "address2": null, "address3": "", "city": "Gilroy", "zip_code": "95020", "country": "US", "state": "CA", "display_address": ["401 E 10th St", "Gilroy, CA 95020"]}, "phone": "+14088488543", "display_phone": "(408) 848-8543", "distance": 1978.8543981633434}, {"id": "LlplXuAUm4Mh8jtSO6uwAA", "alias": "el-compa-gilroy-2", "name": "El Compa", "image_url": "", "is_closed": false, "url": "https://www.yelp.com/biz/el-compa-gilroy-2?adjust_creative=-1a8ZLzJ76_AvFzvJVcndQ&utm_campaign=yelp_api_v3&utm_medium=api_v3_business_search&utm_source=-1a8ZLzJ76_AvFzvJVcndQ", "review_count": 1, "categories": [{"alias": "mexican", "title": "Mexican"}], "rating": 5.0, "coordinates": {"latitude": 37.02405, "longitude": -121.56298}, "transactions": [], "location": {"address1": "681 Leavesley Rd", "address2": "", "address3": null, "city": "Gilroy", "zip_code": "95020", "country": "US", "state": "CA", "display_address": ["681 Leavesley Rd", "Gilroy, CA 95020"]}, "phone": "", "display_phone": "", "distance": 2390.457336406688}, {"id": "3ppLtD_YVWXU0jNL0mnDfw", "alias": "dutchmans-pizza-gilroy", "name": "Dutchman's Pizza", "image_url": "https://s3-media4.fl.yelpcdn.com/bphoto/0eOiwwzjR8jKbis3LZAUYQ/o.jpg", "is_closed": false, "url": "https://www.yelp.com/biz/dutchmans-pizza-gilroy?adjust_creative=-1a8ZLzJ76_AvFzvJVcndQ&utm_campaign=yelp_api_v3&utm_medium=api_v3_business_search&utm_source=-1a8ZLzJ76_AvFzvJVcndQ", "review_count": 94, "categories": [{"alias": "pizza", "title": "Pizza"}, {"alias": "italian", "title": "Italian"}, {"alias": "beerbar", "title": "Beer Bar"}], "rating": 3.5, "coordinates": {"latitude": 37.0010497, "longitude": -121.5592412}, "transactions": ["delivery", "pickup"], "price": "$$", "location": {"address1": "6940 Automall Pkwy", "address2": "", "address3": "", "city": "Gilroy", "zip_code": "95020", "country": "US", "state": "CA", "display_address": ["6940 Automall Pkwy", "Gilroy, CA 95020"]}, "phone": "+14088483322", "display_phone": "(408) 848-3322", "distance": 2119.7637002004453}, {"id": "BbcSxgkg49AhBuASyOpvQA", "alias": "el-pollo-loco-gilroy-3", "name": "El Pollo Loco", "image_url": "https://s3-media3.fl.yelpcdn.com/bphoto/an2cS9VZAD4KDbdbIsRSzA/o.jpg", "is_closed": false, "url": "https://www.yelp.com/biz/el-pollo-loco-gilroy-3?adjust_creative=-1a8ZLzJ76_AvFzvJVcndQ&utm_campaign=yelp_api_v3&utm_medium=api_v3_business_search&utm_source=-1a8ZLzJ76_AvFzvJVcndQ", "review_count": 69, "categories": [{"alias": "hotdogs", "title": "Fast Food"}, {"alias": "mexican", "title": "Mexican"}], "rating": 3.0, "coordinates": {"latitude": 37.0017063988439, "longitude": -121.559389181137}, "transactions": ["delivery", "pickup"], "price": "$", "location": {"address1": "6986 Chestnut St", "address2": "", "address3": "", "city": "Gilroy", "zip_code": "95021", "country": "US", "state": "CA", "display_address": ["6986 Chestnut St", "Gilroy, CA 95021"]}, "phone": "+14088427253", "display_phone": "(408) 842-7253", "distance": 2077.935934597453}, {"id": "lStiDMzP6A0lbmcg2rde5w", "alias": "togo-s-sandwiches-gilroy", "name": "Togo\u2019s Sandwiches", "image_url": "https://s3-media2.fl.yelpcdn.com/bphoto/vTN6HhXaQS8lWdQArLPxug/o.jpg", "is_closed": false, "url": "https://www.yelp.com/biz/togo-s-sandwiches-gilroy?adjust_creative=-1a8ZLzJ76_AvFzvJVcndQ&utm_campaign=yelp_api_v3&utm_medium=api_v3_business_search&utm_source=-1a8ZLzJ76_AvFzvJVcndQ", "review_count": 81, "categories": [{"alias": "sandwiches", "title": "Sandwiches"}, {"alias": "delis", "title": "Delis"}, {"alias": "hotdogs", "title": "Fast Food"}], "rating": 3.0, "coordinates": {"latitude": 37.0137467484291, "longitude": -121.595190931244}, "transactions": [], "price": "$", "location": {"address1": "1331 1st St", "address2": "", "address3": "", "city": "Gilroy", "zip_code": "95020", "country": "US", "state": "CA", "display_address": ["1331 1st St", "Gilroy, CA 95020"]}, "phone": "+14088472288", "display_phone": "(408) 847-2288", "distance": 1371.6447729712202}, {"id": "ytHYhFua7Gwgvu1Sne-OuQ", "alias": "dennys-gilroy", "name": "Denny's", "image_url": "https://s3-media3.fl.yelpcdn.com/bphoto/n37FG7NwSyNaXMyaJuqPpw/o.jpg", "is_closed": false, "url": "https://www.yelp.com/biz/dennys-gilroy?adjust_creative=-1a8ZLzJ76_AvFzvJVcndQ&utm_campaign=yelp_api_v3&utm_medium=api_v3_business_search&utm_source=-1a8ZLzJ76_AvFzvJVcndQ", "review_count": 178, "categories": [{"alias": "tradamerican", "title": "American (Traditional)"}, {"alias": "diners", "title": "Diners"}, {"alias": "breakfast_brunch", "title": "Breakfast & Brunch"}], "rating": 2.0, "coordinates": {"latitude": 37.0234131979945, "longitude": -121.565532268633}, "transactions": [], "price": "$", "location": {"address1": "8425 San Ysidro Ave", "address2": "", "address3": "", "city": "Gilroy", "zip_code": "95020", "country": "US", "state": "CA", "display_address": ["8425 San Ysidro Ave", "Gilroy, CA 95020"]}, "phone": "+14088427678", "display_phone": "(408) 842-7678", "distance": 2096.5886534929205}, {"id": "KjKoZWjgYNGyyqtge9V0VQ", "alias": "little-caesars-pizza-gilroy", "name": "Little Caesars Pizza", "image_url": "https://s3-media1.fl.yelpcdn.com/bphoto/tIvi59KWYpe2XqDk2odghA/o.jpg", "is_closed": false, "url": "https://www.yelp.com/biz/little-caesars-pizza-gilroy?adjust_creative=-1a8ZLzJ76_AvFzvJVcndQ&utm_campaign=yelp_api_v3&utm_medium=api_v3_business_search&utm_source=-1a8ZLzJ76_AvFzvJVcndQ", "review_count": 24, "categories": [{"alias": "pizza", "title": "Pizza"}], "rating": 2.5, "coordinates": {"latitude": 37.0125659955424, "longitude": -121.595934757321}, "transactions": [], "price": "$", "location": {"address1": "1340 1st St", "address2": "", "address3": "", "city": "Gilroy", "zip_code": "95020", "country": "US", "state": "CA", "display_address": ["1340 1st St", "Gilroy, CA 95020"]}, "phone": "+14088478818", "display_phone": "(408) 847-8818", "distance": 1390.963452875052}, {"id": "tmfKNqaeuUqpkEPqBtUGAg", "alias": "arteagas-food-center-gilroy", "name": "Arteaga's Food Center", "image_url": "https://s3-media3.fl.yelpcdn.com/bphoto/TztMMkLQMgBA5BwMcnBR3g/o.jpg", "is_closed": false, "url": "https://www.yelp.com/biz/arteagas-food-center-gilroy?adjust_creative=-1a8ZLzJ76_AvFzvJVcndQ&utm_campaign=yelp_api_v3&utm_medium=api_v3_business_search&utm_source=-1a8ZLzJ76_AvFzvJVcndQ", "review_count": 27, "categories": [{"alias": "grocery", "title": "Grocery"}, {"alias": "mexican", "title": "Mexican"}, {"alias": "bakeries", "title": "Bakeries"}], "rating": 3.5, "coordinates": {"latitude": 37.00038, "longitude": -121.56009}, "transactions": [], "price": "$", "location": {"address1": "6906 Chestnut St", "address2": "", "address3": "", "city": "Gilroy", "zip_code": "95020", "country": "US", "state": "CA", "display_address": ["6906 Chestnut St", "Gilroy, CA 95020"]}, "phone": "+14088477542", "display_phone": "(408) 847-7542", "distance": 2243.419593351418}, {"id": "A_fyd2jk3LuXEv1jjbO4EA", "alias": "dominos-pizza-gilroy-2", "name": "Domino's Pizza", "image_url": "https://s3-media1.fl.yelpcdn.com/bphoto/1-Q-qmrPvM0eIqRfCjjaZw/o.jpg", "is_closed": false, "url": "https://www.yelp.com/biz/dominos-pizza-gilroy-2?adjust_creative=-1a8ZLzJ76_AvFzvJVcndQ&utm_campaign=yelp_api_v3&utm_medium=api_v3_business_search&utm_source=-1a8ZLzJ76_AvFzvJVcndQ", "review_count": 83, "categories": [{"alias": "pizza", "title": "Pizza"}, {"alias": "chicken_wings", "title": "Chicken Wings"}, {"alias": "sandwiches", "title": "Sandwiches"}], "rating": 2.0, "coordinates": {"latitude": 37.01405, "longitude": -121.59475}, "transactions": [], "price": "$", "location": {"address1": "1245 1st St", "address2": null, "address3": null, "city": "Gilroy", "zip_code": "95020", "country": "US", "state": "CA", "display_address": ["1245 1st St", "Gilroy, CA 95020"]}, "phone": "+14088426970", "display_phone": "(408) 842-6970", "distance": 1359.8128165339895}, {"id": "4e-dzJ7QHdtIZu5M7UU7ww", "alias": "tacos-el-jalisciense-gilroy-2", "name": "Tacos El Jalisciense", "image_url": "https://s3-media1.fl.yelpcdn.com/bphoto/yJqQrchG2GJIzcMZ5G6atA/o.jpg", "is_closed": false, "url": "https://www.yelp.com/biz/tacos-el-jalisciense-gilroy-2?adjust_creative=-1a8ZLzJ76_AvFzvJVcndQ&utm_campaign=yelp_api_v3&utm_medium=api_v3_business_search&utm_source=-1a8ZLzJ76_AvFzvJVcndQ", "review_count": 27, "categories": [{"alias": "mexican", "title": "Mexican"}], "rating": 3.0, "coordinates": {"latitude": 37.0016332, "longitude": -121.5615986}, "transactions": [], "price": "$", "location": {"address1": "353 E 10th St", "address2": "", "address3": "", "city": "Gilroy", "zip_code": "95020", "country": "US", "state": "CA", "display_address": ["353 E 10th St", "Gilroy, CA 95020"]}, "phone": "+14088483204", "display_phone": "(408) 848-3204", "distance": 1846.624587833691}, {"id": "3uucG5PomrOdEm7z_nk4UQ", "alias": "wendys-gilroy-2", "name": "Wendy's", "image_url": "https://s3-media2.fl.yelpcdn.com/bphoto/TCFt-qjv-51GVXQ48pST-w/o.jpg", "is_closed": false, "url": "https://www.yelp.com/biz/wendys-gilroy-2?adjust_creative=-1a8ZLzJ76_AvFzvJVcndQ&utm_campaign=yelp_api_v3&utm_medium=api_v3_business_search&utm_source=-1a8ZLzJ76_AvFzvJVcndQ", "review_count": 61, "categories": [{"alias": "hotdogs", "title": "Fast Food"}, {"alias": "burgers", "title": "Burgers"}], "rating": 2.0, "coordinates": {"latitude": 37.00206, "longitude": -121.56121}, "transactions": ["delivery", "pickup"], "price": "$", "location": {"address1": "393 E 10Th St", "address2": "", "address3": "", "city": "Gilroy", "zip_code": "95020", "country": "US", "state": "CA", "display_address": ["393 E 10Th St", "Gilroy, CA 95020"]}, "phone": "+14088421036", "display_phone": "(408) 842-1036", "distance": 1911.9360659249012}, {"id": "1OOlw5gAhMOLWk3sJoGEMw", "alias": "taco-bell-gilroy-4", "name": "Taco Bell", "image_url": "https://s3-media1.fl.yelpcdn.com/bphoto/XT9eUPEWqqwWNpmdN13Nng/o.jpg", "is_closed": false, "url": "https://www.yelp.com/biz/taco-bell-gilroy-4?adjust_creative=-1a8ZLzJ76_AvFzvJVcndQ&utm_campaign=yelp_api_v3&utm_medium=api_v3_business_search&utm_source=-1a8ZLzJ76_AvFzvJVcndQ", "review_count": 24, "categories": [{"alias": "hotdogs", "title": "Fast Food"}, {"alias": "tacos", "title": "Tacos"}], "rating": 2.5, "coordinates": {"latitude": 37.002288, "longitude": -121.55949}, "transactions": ["delivery"], "price": "$", "location": {"address1": "380 East 10th St", "address2": "", "address3": "", "city": "Gilroy", "zip_code": "95020", "country": "US", "state": "CA", "display_address": ["380 East 10th St", "Gilroy, CA 95020"]}, "phone": "+14088474565", "display_phone": "(408) 847-4565", "distance": 2044.9220987187896}, {"id": "pfBcNjrNPi48IT3hT0N3eg", "alias": "taco-bell-gilroy-3", "name": "Taco Bell", "image_url": "https://s3-media3.fl.yelpcdn.com/bphoto/qz-vH_i7in1y2zf7ylOP2Q/o.jpg", "is_closed": false, "url": "https://www.yelp.com/biz/taco-bell-gilroy-3?adjust_creative=-1a8ZLzJ76_AvFzvJVcndQ&utm_campaign=yelp_api_v3&utm_medium=api_v3_business_search&utm_source=-1a8ZLzJ76_AvFzvJVcndQ", "review_count": 13, "categories": [{"alias": "hotdogs", "title": "Fast Food"}, {"alias": "tacos", "title": "Tacos"}], "rating": 1.5, "coordinates": {"latitude": 37.013467, "longitude": -121.588076}, "transactions": ["delivery"], "price": "$", "location": {"address1": "995 First Street", "address2": null, "address3": null, "city": "Gilroy", "zip_code": "95020", "country": "US", "state": "CA", "display_address": ["995 First Street", "Gilroy, CA 95020"]}, "phone": "+14088461188", "display_phone": "(408) 846-1188", "distance": 802.830688696993}, {"id": "Te1V2d4lXXu5HXo2x2-Scw", "alias": "taqueria-del-sol-gilroy", "name": "Taqueria Del Sol", "image_url": "", "is_closed": false, "url": "https://www.yelp.com/biz/taqueria-del-sol-gilroy?adjust_creative=-1a8ZLzJ76_AvFzvJVcndQ&utm_campaign=yelp_api_v3&utm_medium=api_v3_business_search&utm_source=-1a8ZLzJ76_AvFzvJVcndQ", "review_count": 1, "categories": [{"alias": "mexican", "title": "Mexican"}], "rating": 5.0, "coordinates": {"latitude": 37.01366, "longitude": -121.578}, "transactions": [], "location": {"address1": "433 1st St", "address2": null, "address3": null, "city": "Gilroy", "zip_code": "95020", "country": "US", "state": "CA", "display_address": ["433 1st St", "Gilroy, CA 95020"]}, "phone": "+14088471955", "display_phone": "(408) 847-1955", "distance": 569.0435844506625}, {"id": "zfnOlABtVtMz15M8a8lfRg", "alias": "the-district-theater-gilroy", "name": "The District Theater", "image_url": "https://s3-media3.fl.yelpcdn.com/bphoto/0eOwB4b9oMcZZ_iazFCtJQ/o.jpg", "is_closed": false, "url": "https://www.yelp.com/biz/the-district-theater-gilroy?adjust_creative=-1a8ZLzJ76_AvFzvJVcndQ&utm_campaign=yelp_api_v3&utm_medium=api_v3_business_search&utm_source=-1a8ZLzJ76_AvFzvJVcndQ", "review_count": 6, "categories": [{"alias": "venues", "title": "Venues & Event Spaces"}, {"alias": "musicvenues", "title": "Music Venues"}, {"alias": "tradamerican", "title": "American (Traditional)"}], "rating": 2.5, "coordinates": {"latitude": 37.00739, "longitude": -121.56845}, "transactions": [], "price": "$$", "location": {"address1": "7430 Monterey St", "address2": "", "address3": "", "city": "Gilroy", "zip_code": "95020", "country": "US", "state": "CA", "display_address": ["7430 Monterey St", "Gilroy, CA 95020"]}, "phone": "", "display_phone": "", "distance": 1117.1008580514654}, {"id": "aYHKnw1xW9yWO87sq2w7Yg", "alias": "centenario-night-club-de-gilroy-gilroy-ca-2", "name": "Centenario Night Club de gilroy", "image_url": "https://s3-media1.fl.yelpcdn.com/bphoto/xzOqs-MF3SBJM0JHz2Y4fQ/o.jpg", "is_closed": false, "url": "https://www.yelp.com/biz/centenario-night-club-de-gilroy-gilroy-ca-2?adjust_creative=-1a8ZLzJ76_AvFzvJVcndQ&utm_campaign=yelp_api_v3&utm_medium=api_v3_business_search&utm_source=-1a8ZLzJ76_AvFzvJVcndQ", "review_count": 2, "categories": [{"alias": "mexican", "title": "Mexican"}, {"alias": "bars", "title": "Bars"}], "rating": 1.5, "coordinates": {"latitude": 37.0152207572694, "longitude": -121.572438761638}, "transactions": [], "location": {"address1": "7990 Montrrey St", "address2": "", "address3": "", "city": "Gilroy Ca", "zip_code": "95120", "country": "US", "state": "CA", "display_address": ["7990 Montrrey St", "Gilroy Ca, CA 95120"]}, "phone": "+14089151973", "display_phone": "(408) 915-1973", "distance": 1013.7318872644038}, {"id": "ic8yj4NyQkccgCEgO_mMJw", "alias": "burger-king-gilroy", "name": "Burger King", "image_url": "https://s3-media2.fl.yelpcdn.com/bphoto/QknC7DhzR1LMjZlk_Gmz7w/o.jpg", "is_closed": false, "url": "https://www.yelp.com/biz/burger-king-gilroy?adjust_creative=-1a8ZLzJ76_AvFzvJVcndQ&utm_campaign=yelp_api_v3&utm_medium=api_v3_business_search&utm_source=-1a8ZLzJ76_AvFzvJVcndQ", "review_count": 64, "categories": [{"alias": "hotdogs", "title": "Fast Food"}, {"alias": "burgers", "title": "Burgers"}], "rating": 1.5, "coordinates": {"latitude": 37.02134, "longitude": -121.56808}, "transactions": [], "price": "$", "location": {"address1": "450 Leavesley Rd", "address2": "", "address3": "", "city": "Gilroy", "zip_code": "95020", "country": "US", "state": "CA", "display_address": ["450 Leavesley Rd", "Gilroy, CA 95020"]}, "phone": "+14088473993", "display_phone": "(408) 847-3993", "distance": 1776.3657080608536}, {"id": "vBjOW-lT4BDiorGZqfO8Fg", "alias": "mariscos-la-palmitas-gilroy", "name": "Mariscos La Palmitas", "image_url": "https://s3-media1.fl.yelpcdn.com/bphoto/qpeYnwtFEqCYnclC4by7Uw/o.jpg", "is_closed": false, "url": "https://www.yelp.com/biz/mariscos-la-palmitas-gilroy?adjust_creative=-1a8ZLzJ76_AvFzvJVcndQ&utm_campaign=yelp_api_v3&utm_medium=api_v3_business_search&utm_source=-1a8ZLzJ76_AvFzvJVcndQ", "review_count": 4, "categories": [{"alias": "seafood", "title": "Seafood"}, {"alias": "tacos", "title": "Tacos"}], "rating": 2.5, "coordinates": {"latitude": 37.00219, "longitude": -121.56686}, "transactions": [], "location": {"address1": "7121 Monterey St", "address2": null, "address3": null, "city": "Gilroy", "zip_code": "95020", "country": "US", "state": "CA", "display_address": ["7121 Monterey St", "Gilroy, CA 95020"]}, "phone": "+14088467268", "display_phone": "(408) 846-7268", "distance": 1452.5426571526605}, {"id": "5Sleai-9NyMAb5AQmVe5XQ", "alias": "taco-bell-gilroy-2", "name": "Taco Bell", "image_url": "https://s3-media2.fl.yelpcdn.com/bphoto/uN6kCE7ajSTzTAQokDn2WA/o.jpg", "is_closed": false, "url": "https://www.yelp.com/biz/taco-bell-gilroy-2?adjust_creative=-1a8ZLzJ76_AvFzvJVcndQ&utm_campaign=yelp_api_v3&utm_medium=api_v3_business_search&utm_source=-1a8ZLzJ76_AvFzvJVcndQ", "review_count": 23, "categories": [{"alias": "hotdogs", "title": "Fast Food"}, {"alias": "mexican", "title": "Mexican"}], "rating": 2.5, "coordinates": {"latitude": 37.0141051435308, "longitude": -121.591474042073}, "transactions": [], "price": "$", "location": {"address1": "8000-8198 Kern Ave", "address2": "", "address3": "", "city": "Gilroy", "zip_code": "95020", "country": "US", "state": "CA", "display_address": ["8000-8198 Kern Ave", "Gilroy, CA 95020"]}, "phone": "", "display_phone": "", "distance": 1093.107948542584}, {"id": "1Fp17bNHjSF_O232LK_0kQ", "alias": "the-gilroy-pizza-company-gilroy", "name": "The Gilroy Pizza Company", "image_url": "https://s3-media2.fl.yelpcdn.com/bphoto/1lMD2UElqHgZ32xVIp-aQw/o.jpg", "is_closed": false, "url": "https://www.yelp.com/biz/the-gilroy-pizza-company-gilroy?adjust_creative=-1a8ZLzJ76_AvFzvJVcndQ&utm_campaign=yelp_api_v3&utm_medium=api_v3_business_search&utm_source=-1a8ZLzJ76_AvFzvJVcndQ", "review_count": 7, "categories": [{"alias": "pizza", "title": "Pizza"}], "rating": 1.5, "coordinates": {"latitude": 37.0259789710469, "longitude": -121.564043899675}, "transactions": [], "price": "$", "location": {"address1": "681 Leavesley Rd", "address2": "", "address3": "", "city": "Gilroy", "zip_code": "95020", "country": "US", "state": "CA", "display_address": ["681 Leavesley Rd", "Gilroy, CA 95020"]}, "phone": "+14088482264", "display_phone": "(408) 848-2264", "distance": 2400.7607763930846}, {"id": "8Z8aTRyNfeb7pdcwSFImFw", "alias": "subway-restaurants-gilroy-3", "name": "Subway Restaurants", "image_url": "https://s3-media3.fl.yelpcdn.com/bphoto/NK1j65tvqusX3CrECyvR2w/o.jpg", "is_closed": false, "url": "https://www.yelp.com/biz/subway-restaurants-gilroy-3?adjust_creative=-1a8ZLzJ76_AvFzvJVcndQ&utm_campaign=yelp_api_v3&utm_medium=api_v3_business_search&utm_source=-1a8ZLzJ76_AvFzvJVcndQ", "review_count": 12, "categories": [{"alias": "sandwiches", "title": "Sandwiches"}], "rating": 2.5, "coordinates": {"latitude": 37.0144709707811, "longitude": -121.588381499898}, "transactions": [], "price": "$", "location": {"address1": "875 First St.", "address2": "Unit 1", "address3": "", "city": "Gilroy", "zip_code": "95020", "country": "US", "state": "CA", "display_address": ["875 First St.", "Unit 1", "Gilroy, CA 95020"]}, "phone": "+14088423010", "display_phone": "(408) 842-3010", "distance": 895.0256620297943}, {"id": "6PZrfaj1hXeo6i7V5SxZgQ", "alias": "mcdonalds-gilroy-2", "name": "McDonald's", "image_url": "https://s3-media3.fl.yelpcdn.com/bphoto/76vhPwa_0AljqdwJ1aMR8A/o.jpg", "is_closed": false, "url": "https://www.yelp.com/biz/mcdonalds-gilroy-2?adjust_creative=-1a8ZLzJ76_AvFzvJVcndQ&utm_campaign=yelp_api_v3&utm_medium=api_v3_business_search&utm_source=-1a8ZLzJ76_AvFzvJVcndQ", "review_count": 122, "categories": [{"alias": "hotdogs", "title": "Fast Food"}, {"alias": "burgers", "title": "Burgers"}, {"alias": "coffee", "title": "Coffee & Tea"}], "rating": 1.5, "coordinates": {"latitude": 37.0236392359803, "longitude": -121.562451595339}, "transactions": [], "price": "$", "location": {"address1": "8390 Arroyo Cir", "address2": "", "address3": "", "city": "Gilroy", "zip_code": "95020", "country": "US", "state": "CA", "display_address": ["8390 Arroyo Cir", "Gilroy, CA 95020"]}, "phone": "+14088475446", "display_phone": "(408) 847-5446", "distance": 2301.508571204336}, {"id": "4I_CBgATpssfQmfBvwol9g", "alias": "subway-restaurants-gilroy-2", "name": "Subway Restaurants", "image_url": "https://s3-media3.fl.yelpcdn.com/bphoto/a3xRSsC7MeE1lPDO5QsEAg/o.jpg", "is_closed": false, "url": "https://www.yelp.com/biz/subway-restaurants-gilroy-2?adjust_creative=-1a8ZLzJ76_AvFzvJVcndQ&utm_campaign=yelp_api_v3&utm_medium=api_v3_business_search&utm_source=-1a8ZLzJ76_AvFzvJVcndQ", "review_count": 14, "categories": [{"alias": "sandwiches", "title": "Sandwiches"}], "rating": 3.0, "coordinates": {"latitude": 37.019813, "longitude": -121.576668}, "transactions": [], "price": "$", "location": {"address1": "197 Welburn Ave", "address2": "Suite C", "address3": "", "city": "Gilroy", "zip_code": "95020", "country": "US", "state": "CA", "display_address": ["197 Welburn Ave", "Suite C", "Gilroy, CA 95020"]}, "phone": "+14088468757", "display_phone": "(408) 846-8757", "distance": 1249.0738413869249}, {"id": "sOnQ-tf46gW3ba9DznH4aQ", "alias": "china-garden-gilroy", "name": "China Garden", "image_url": "", "is_closed": false, "url": "https://www.yelp.com/biz/china-garden-gilroy?adjust_creative=-1a8ZLzJ76_AvFzvJVcndQ&utm_campaign=yelp_api_v3&utm_medium=api_v3_business_search&utm_source=-1a8ZLzJ76_AvFzvJVcndQ", "review_count": 3, "categories": [{"alias": "chinese", "title": "Chinese"}], "rating": 1.5, "coordinates": {"latitude": 37.002163, "longitude": -121.566986}, "transactions": [], "location": {"address1": "7121 Monterey St", "address2": "", "address3": "", "city": "Gilroy", "zip_code": "95020", "country": "US", "state": "CA", "display_address": ["7121 Monterey St", "Gilroy, CA 95020"]}, "phone": "+14088427600", "display_phone": "(408) 842-7600", "distance": 1454.7858117048577}, {"id": "PIOCcUHkL1GxDWT68X14Tw", "alias": "jack-in-the-box-gilroy-4", "name": "Jack in the Box", "image_url": "https://s3-media1.fl.yelpcdn.com/bphoto/m3Plchi1u9QSE0GCBt-2fA/o.jpg", "is_closed": false, "url": "https://www.yelp.com/biz/jack-in-the-box-gilroy-4?adjust_creative=-1a8ZLzJ76_AvFzvJVcndQ&utm_campaign=yelp_api_v3&utm_medium=api_v3_business_search&utm_source=-1a8ZLzJ76_AvFzvJVcndQ", "review_count": 40, "categories": [{"alias": "hotdogs", "title": "Fast Food"}, {"alias": "burgers", "title": "Burgers"}, {"alias": "tacos", "title": "Tacos"}], "rating": 1.5, "coordinates": {"latitude": 37.0142933327416, "longitude": -121.572518348694}, "transactions": [], "price": "$", "location": {"address1": "7895 Monterey Rd", "address2": "", "address3": "", "city": "Gilroy", "zip_code": "95020", "country": "US", "state": "CA", "display_address": ["7895 Monterey Rd", "Gilroy, CA 95020"]}, "phone": "+14088482395", "display_phone": "(408) 848-2395", "distance": 941.8596642814389}, {"id": "nlIeg6N3Eozv0Ey7qsU0fg", "alias": "chuck-e-cheese-gilroy", "name": "Chuck E. Cheese", "image_url": "https://s3-media1.fl.yelpcdn.com/bphoto/JcKjwWpoSKTNoevI4gLDvQ/o.jpg", "is_closed": false, "url": "https://www.yelp.com/biz/chuck-e-cheese-gilroy?adjust_creative=-1a8ZLzJ76_AvFzvJVcndQ&utm_campaign=yelp_api_v3&utm_medium=api_v3_business_search&utm_source=-1a8ZLzJ76_AvFzvJVcndQ", "review_count": 58, "categories": [{"alias": "pizza", "title": "Pizza"}, {"alias": "arcades", "title": "Arcades"}, {"alias": "kids_activities", "title": "Kids Activities"}], "rating": 3.0, "coordinates": {"latitude": 37.00632, "longitude": -121.55132}, "transactions": [], "price": "$$", "location": {"address1": "910 Renz Ln", "address2": "", "address3": "", "city": "Gilroy", "zip_code": "95020", "country": "US", "state": "CA", "display_address": ["910 Renz Ln", "Gilroy, CA 95020"]}, "phone": "+14088461313", "display_phone": "(408) 846-1313", "distance": 2643.9270061423695}, {"id": "pzK0SQR46lFXgzbkj9VA9Q", "alias": "carls-jr-gilroy", "name": "Carl's Jr.", "image_url": "https://s3-media2.fl.yelpcdn.com/bphoto/TYJVX3YQszP_3TkijJwtxw/o.jpg", "is_closed": false, "url": "https://www.yelp.com/biz/carls-jr-gilroy?adjust_creative=-1a8ZLzJ76_AvFzvJVcndQ&utm_campaign=yelp_api_v3&utm_medium=api_v3_business_search&utm_source=-1a8ZLzJ76_AvFzvJVcndQ", "review_count": 43, "categories": [{"alias": "hotdogs", "title": "Fast Food"}, {"alias": "burgers", "title": "Burgers"}], "rating": 1.5, "coordinates": {"latitude": 36.98336, "longitude": -121.5574}, "transactions": [], "price": "$", "location": {"address1": "5880 Monterey Rd", "address2": "", "address3": "", "city": "Gilroy", "zip_code": "95020", "country": "US", "state": "CA", "display_address": ["5880 Monterey Rd", "Gilroy, CA 95020"]}, "phone": "+14088485295", "display_phone": "(408) 848-5295", "distance": 3541.3007075125583}, {"id": "CJqtjiW92P4X1i7AR1gxjw", "alias": "gilroy-marketplace-gilroy", "name": "Gilroy Marketplace", "image_url": "https://s3-media3.fl.yelpcdn.com/bphoto/VsXCLCl805mbQbgKI69agA/o.jpg", "is_closed": false, "url": "https://www.yelp.com/biz/gilroy-marketplace-gilroy?adjust_creative=-1a8ZLzJ76_AvFzvJVcndQ&utm_campaign=yelp_api_v3&utm_medium=api_v3_business_search&utm_source=-1a8ZLzJ76_AvFzvJVcndQ", "review_count": 15, "categories": [{"alias": "cafes", "title": "Cafes"}], "rating": 2.0, "coordinates": {"latitude": 37.0255758, "longitude": -121.5637826}, "transactions": [], "price": "$", "location": {"address1": "681 Leavesley Rd", "address2": "Ste C170", "address3": "", "city": "Gilroy", "zip_code": "95020", "country": "US", "state": "CA", "display_address": ["681 Leavesley Rd", "Ste C170", "Gilroy, CA 95020"]}, "phone": "+14088423115", "display_phone": "(408) 842-3115", "distance": 2380.5876023698142}, {"id": "Thi2HBoiR2spGrNLBjvB9g", "alias": "mcdonalds-gilroy-9", "name": "McDonald's", "image_url": "https://s3-media3.fl.yelpcdn.com/bphoto/O_a9yoJbChKk353KKr5lQg/o.jpg", "is_closed": false, "url": "https://www.yelp.com/biz/mcdonalds-gilroy-9?adjust_creative=-1a8ZLzJ76_AvFzvJVcndQ&utm_campaign=yelp_api_v3&utm_medium=api_v3_business_search&utm_source=-1a8ZLzJ76_AvFzvJVcndQ", "review_count": 89, "categories": [{"alias": "coffee", "title": "Coffee & Tea"}, {"alias": "burgers", "title": "Burgers"}, {"alias": "hotdogs", "title": "Fast Food"}], "rating": 1.5, "coordinates": {"latitude": 37.0015, "longitude": -121.56006}, "transactions": [], "price": "$", "location": {"address1": "6990 Automall Pkwy", "address2": null, "address3": null, "city": "Gilroy", "zip_code": "95020", "country": "US", "state": "CA", "display_address": ["6990 Automall Pkwy", "Gilroy, CA 95020"]}, "phone": "+14088427775", "display_phone": "(408) 842-7775", "distance": 2034.9025286648584}, {"id": "Jz8TISDIXoRUlrs-g3bMpg", "alias": "subway-restaurants-gilroy-4", "name": "Subway Restaurants", "image_url": "https://s3-media2.fl.yelpcdn.com/bphoto/qhhZneWCfOmm1vdBQuDE2w/o.jpg", "is_closed": false, "url": "https://www.yelp.com/biz/subway-restaurants-gilroy-4?adjust_creative=-1a8ZLzJ76_AvFzvJVcndQ&utm_campaign=yelp_api_v3&utm_medium=api_v3_business_search&utm_source=-1a8ZLzJ76_AvFzvJVcndQ", "review_count": 14, "categories": [{"alias": "sandwiches", "title": "Sandwiches"}], "rating": 2.0, "coordinates": {"latitude": 37.00111, "longitude": -121.5616}, "transactions": [], "price": "$", "location": {"address1": "340 E 10th Street", "address2": "Unit H", "address3": "", "city": "Gilroy", "zip_code": "95020", "country": "US", "state": "CA", "display_address": ["340 E 10th Street", "Unit H", "Gilroy, CA 95020"]}, "phone": "+14088485588", "display_phone": "(408) 848-5588", "distance": 1933.450211704637}, {"id": "4GFeyx3N8RT1Q0eJBCG9WA", "alias": "kfc-gilroy-3", "name": "KFC", "image_url": "https://s3-media2.fl.yelpcdn.com/bphoto/0Dbc4_aou18cX9fnqOuchA/o.jpg", "is_closed": false, "url": "https://www.yelp.com/biz/kfc-gilroy-3?adjust_creative=-1a8ZLzJ76_AvFzvJVcndQ&utm_campaign=yelp_api_v3&utm_medium=api_v3_business_search&utm_source=-1a8ZLzJ76_AvFzvJVcndQ", "review_count": 79, "categories": [{"alias": "hotdogs", "title": "Fast Food"}, {"alias": "chicken_wings", "title": "Chicken Wings"}, {"alias": "chickenshop", "title": "Chicken Shop"}], "rating": 1.5, "coordinates": {"latitude": 36.9840531427754, "longitude": -121.557170058284}, "transactions": ["pickup"], "price": "$", "location": {"address1": "5884 Monterey Rd", "address2": "", "address3": "", "city": "Gilroy", "zip_code": "95020", "country": "US", "state": "CA", "display_address": ["5884 Monterey Rd", "Gilroy, CA 95020"]}, "phone": "+14088461970", "display_phone": "(408) 846-1970", "distance": 3490.7933702180717}, {"id": "XD6nTcqrMdKfG1MgSPxZDw", "alias": "togo-s-sandwiches-gilroy-2", "name": "Togo\u2019s Sandwiches", "image_url": "https://s3-media1.fl.yelpcdn.com/bphoto/V3mHEv-c7-S1GniCMtqRhw/o.jpg", "is_closed": false, "url": "https://www.yelp.com/biz/togo-s-sandwiches-gilroy-2?adjust_creative=-1a8ZLzJ76_AvFzvJVcndQ&utm_campaign=yelp_api_v3&utm_medium=api_v3_business_search&utm_source=-1a8ZLzJ76_AvFzvJVcndQ", "review_count": 83, "categories": [{"alias": "sandwiches", "title": "Sandwiches"}, {"alias": "delis", "title": "Delis"}, {"alias": "hotdogs", "title": "Fast Food"}], "rating": 2.0, "coordinates": {"latitude": 37.00288475894, "longitude": -121.5513944647}, "transactions": [], "price": "$", "location": {"address1": "6965 Camino Arroyo", "address2": "Ste 30", "address3": "", "city": "Gilroy", "zip_code": "95020", "country": "US", "state": "CA", "display_address": ["6965 Camino Arroyo", "Ste 30", "Gilroy, CA 95020"]}, "phone": "+14088473020", "display_phone": "(408) 847-3020", "distance": 2708.1594838656056}, {"id": "kodIGmKDnlp4mISBgQOGVw", "alias": "a-and-w-gilroy-gilroy-2", "name": "A&W Restaurant", "image_url": "https://s3-media1.fl.yelpcdn.com/bphoto/iqiHkgD2ClVJBsVyZNjIZQ/o.jpg", "is_closed": false, "url": "https://www.yelp.com/biz/a-and-w-gilroy-gilroy-2?adjust_creative=-1a8ZLzJ76_AvFzvJVcndQ&utm_campaign=yelp_api_v3&utm_medium=api_v3_business_search&utm_source=-1a8ZLzJ76_AvFzvJVcndQ", "review_count": 50, "categories": [{"alias": "burgers", "title": "Burgers"}, {"alias": "hotdogs", "title": "Fast Food"}, {"alias": "hotdog", "title": "Hot Dogs"}], "rating": 1.5, "coordinates": {"latitude": 36.98406, "longitude": -121.55716}, "transactions": [], "price": "$", "location": {"address1": "5884 Monterey Rd", "address2": null, "address3": null, "city": "Gilroy", "zip_code": "95020", "country": "US", "state": "CA", "display_address": ["5884 Monterey Rd", "Gilroy, CA 95020"]}, "phone": "+14088471970", "display_phone": "(408) 847-1970", "distance": 3492.7326217279815}, {"id": "ZxSsIrvs_ajSn6Mck2pJfg", "alias": "mcdonalds-gilroy-8", "name": "McDonald's", "image_url": "https://s3-media2.fl.yelpcdn.com/bphoto/OCaz0dYJ4tizKc_xkLk0uA/o.jpg", "is_closed": false, "url": "https://www.yelp.com/biz/mcdonalds-gilroy-8?adjust_creative=-1a8ZLzJ76_AvFzvJVcndQ&utm_campaign=yelp_api_v3&utm_medium=api_v3_business_search&utm_source=-1a8ZLzJ76_AvFzvJVcndQ", "review_count": 9, "categories": [{"alias": "coffee", "title": "Coffee & Tea"}, {"alias": "burgers", "title": "Burgers"}, {"alias": "hotdogs", "title": "Fast Food"}], "rating": 3.0, "coordinates": {"latitude": 37.00822, "longitude": -121.55129}, "transactions": [], "price": "$", "location": {"address1": "7150 Camino Arroyo", "address2": null, "address3": null, "city": "Gilroy", "zip_code": "95020", "country": "US", "state": "CA", "display_address": ["7150 Camino Arroyo", "Gilroy, CA 95020"]}, "phone": "+14088483820", "display_phone": "(408) 848-3820", "distance": 2646.1793391711226}, {"id": "4lNLLgFxzsnCLf9jIOKyrw", "alias": "garlic-farm-annex-gilroy", "name": "Garlic Farm Annex", "image_url": "https://s3-media3.fl.yelpcdn.com/bphoto/mx99kja_9U-48IFkJ143yg/o.jpg", "is_closed": false, "url": "https://www.yelp.com/biz/garlic-farm-annex-gilroy?adjust_creative=-1a8ZLzJ76_AvFzvJVcndQ&utm_campaign=yelp_api_v3&utm_medium=api_v3_business_search&utm_source=-1a8ZLzJ76_AvFzvJVcndQ", "review_count": 11, "categories": [{"alias": "hotels", "title": "Hotels"}, {"alias": "servicestations", "title": "Gas Stations"}, {"alias": "hotdogs", "title": "Fast Food"}], "rating": 2.0, "coordinates": {"latitude": 36.98371, "longitude": -121.55448}, "transactions": [], "price": "$$", "location": {"address1": "5870 Monterey Rd", "address2": "", "address3": "", "city": "Gilroy", "zip_code": "95020", "country": "US", "state": "CA", "display_address": ["5870 Monterey Rd", "Gilroy, CA 95020"]}, "phone": "+14088423733", "display_phone": "(408) 842-3733", "distance": 3587.1455246905434}, {"id": "45lZgW7VQdcTjF_yzOhUCQ", "alias": "jack-in-the-box-gilroy", "name": "Jack in the Box", "image_url": "https://s3-media2.fl.yelpcdn.com/bphoto/MNmbrgQEhyH1QYd75JCV6g/o.jpg", "is_closed": false, "url": "https://www.yelp.com/biz/jack-in-the-box-gilroy?adjust_creative=-1a8ZLzJ76_AvFzvJVcndQ&utm_campaign=yelp_api_v3&utm_medium=api_v3_business_search&utm_source=-1a8ZLzJ76_AvFzvJVcndQ", "review_count": 28, "categories": [{"alias": "hotdogs", "title": "Fast Food"}, {"alias": "burgers", "title": "Burgers"}, {"alias": "tacos", "title": "Tacos"}], "rating": 2.5, "coordinates": {"latitude": 36.9846817127073, "longitude": -121.556894481182}, "transactions": [], "price": "$", "location": {"address1": "5900 Travel Park Cir", "address2": "", "address3": "", "city": "Gilroy", "zip_code": "95020", "country": "US", "state": "CA", "display_address": ["5900 Travel Park Cir", "Gilroy, CA 95020"]}, "phone": "+14088464898", "display_phone": "(408) 846-4898", "distance": 3450.3685316837473}, {"id": "L8p2Lq-3Cm_hxbQAqNYpXw", "alias": "tacos-el-grullense-jal-gilroy-2", "name": "Tacos El Grullense Jal", "image_url": "", "is_closed": false, "url": "https://www.yelp.com/biz/tacos-el-grullense-jal-gilroy-2?adjust_creative=-1a8ZLzJ76_AvFzvJVcndQ&utm_campaign=yelp_api_v3&utm_medium=api_v3_business_search&utm_source=-1a8ZLzJ76_AvFzvJVcndQ", "review_count": 2, "categories": [{"alias": "mexican", "title": "Mexican"}], "rating": 1.0, "coordinates": {"latitude": 37.0021629333496, "longitude": -121.566986083984}, "transactions": [], "price": "$$", "location": {"address1": "7121 Monterey St", "address2": "", "address3": "", "city": "Gilroy", "zip_code": "95020", "country": "US", "state": "CA", "display_address": ["7121 Monterey St", "Gilroy, CA 95020"]}, "phone": "+14088467268", "display_phone": "(408) 846-7268", "distance": 1452.5426571526605}, {"id": "-xccQy8G5ryjUqBBEmjBew", "alias": "jack-in-the-box-gilroy-3", "name": "Jack in the Box", "image_url": "https://s3-media2.fl.yelpcdn.com/bphoto/w3_MCtJzKXfJjd0mkxhDNw/o.jpg", "is_closed": false, "url": "https://www.yelp.com/biz/jack-in-the-box-gilroy-3?adjust_creative=-1a8ZLzJ76_AvFzvJVcndQ&utm_campaign=yelp_api_v3&utm_medium=api_v3_business_search&utm_source=-1a8ZLzJ76_AvFzvJVcndQ", "review_count": 15, "categories": [{"alias": "hotdogs", "title": "Fast Food"}, {"alias": "burgers", "title": "Burgers"}, {"alias": "tacos", "title": "Tacos"}], "rating": 2.0, "coordinates": {"latitude": 37.0067937840409, "longitude": -121.551806330681}, "transactions": [], "price": "$", "location": {"address1": "7110 Camino Arroyo", "address2": "", "address3": "", "city": "Gilroy", "zip_code": "95020", "country": "US", "state": "CA", "display_address": ["7110 Camino Arroyo", "Gilroy, CA 95020"]}, "phone": "+14088478131", "display_phone": "(408) 847-8131", "distance": 2594.772515384592}, {"id": "XoYfxkBf3GX-9nGUi3NEVA", "alias": "togo-s-sandwiches-gilroy-3", "name": "Togo\u2019s Sandwiches", "image_url": "https://s3-media1.fl.yelpcdn.com/bphoto/jdZj1yWCcwXTsp-Bgd86yg/o.jpg", "is_closed": false, "url": "https://www.yelp.com/biz/togo-s-sandwiches-gilroy-3?adjust_creative=-1a8ZLzJ76_AvFzvJVcndQ&utm_campaign=yelp_api_v3&utm_medium=api_v3_business_search&utm_source=-1a8ZLzJ76_AvFzvJVcndQ", "review_count": 10, "categories": [{"alias": "sandwiches", "title": "Sandwiches"}, {"alias": "delis", "title": "Delis"}, {"alias": "hotdogs", "title": "Fast Food"}], "rating": 1.5, "coordinates": {"latitude": 36.985146, "longitude": -121.555378}, "transactions": [], "price": "$", "location": {"address1": "5920 Travel Park Cir", "address2": null, "address3": null, "city": "Gilroy", "zip_code": "95020", "country": "US", "state": "CA", "display_address": ["5920 Travel Park Cir", "Gilroy, CA 95020"]}, "phone": "+14088479702", "display_phone": "(408) 847-9702", "distance": 3492.2037226576313}, {"id": "xQhx3WEz9V4vHRIyaOkXSQ", "alias": "jack-in-the-box-gilroy-5", "name": "Jack In The Box", "image_url": "https://s3-media4.fl.yelpcdn.com/bphoto/Y0txkZ8HtKbO3BRNYb4W8w/o.jpg", "is_closed": false, "url": "https://www.yelp.com/biz/jack-in-the-box-gilroy-5?adjust_creative=-1a8ZLzJ76_AvFzvJVcndQ&utm_campaign=yelp_api_v3&utm_medium=api_v3_business_search&utm_source=-1a8ZLzJ76_AvFzvJVcndQ", "review_count": 8, "categories": [{"alias": "hotdogs", "title": "Fast Food"}], "rating": 1.5, "coordinates": {"latitude": 37.0068247606691, "longitude": -121.551763000892}, "transactions": [], "price": "$", "location": {"address1": "3349 Renz Ln", "address2": "", "address3": "", "city": "Gilroy", "zip_code": "95020", "country": "US", "state": "CA", "display_address": ["3349 Renz Ln", "Gilroy, CA 95020"]}, "phone": "", "display_phone": "", "distance": 2598.2649244941076}, {"id": "y7jjHpDrYUI7YGpE8e31-g", "alias": "pita-and-salt-santa-clara-2", "name": "Pita & Salt", "image_url": "https://s3-media4.fl.yelpcdn.com/bphoto/OzeFWYEgK2L4rl5VOSyEHQ/o.jpg", "is_closed": false, "url": "https://www.yelp.com/biz/pita-and-salt-santa-clara-2?adjust_creative=-1a8ZLzJ76_AvFzvJVcndQ&utm_campaign=yelp_api_v3&utm_medium=api_v3_business_search&utm_source=-1a8ZLzJ76_AvFzvJVcndQ", "review_count": 74, "categories": [{"alias": "mediterranean", "title": "Mediterranean"}, {"alias": "halal", "title": "Halal"}, {"alias": "foodtrucks", "title": "Food Trucks"}], "rating": 4.5, "coordinates": {"latitude": 37.3400871, "longitude": -121.987255}, "transactions": ["delivery", "pickup"], "price": "$", "location": {"address1": null, "address2": null, "address3": "", "city": "Santa Clara", "zip_code": "95051", "country": "US", "state": "CA", "display_address": ["Santa Clara, CA 95051"]}, "phone": "+16128765509", "display_phone": "(612) 876-5509", "distance": 51487.08756181458}, {"id": "GcfdjsPGaXrY02Q3bsKvew", "alias": "el-diferente-san-jose-4", "name": "El Diferente", "image_url": "https://s3-media4.fl.yelpcdn.com/bphoto/bTeYqqJp0YrJkkfM5OiPZg/o.jpg", "is_closed": false, "url": "https://www.yelp.com/biz/el-diferente-san-jose-4?adjust_creative=-1a8ZLzJ76_AvFzvJVcndQ&utm_campaign=yelp_api_v3&utm_medium=api_v3_business_search&utm_source=-1a8ZLzJ76_AvFzvJVcndQ", "review_count": 41, "categories": [{"alias": "foodtrucks", "title": "Food Trucks"}, {"alias": "tacos", "title": "Tacos"}, {"alias": "catering", "title": "Caterers"}], "rating": 5.0, "coordinates": {"latitude": 37.324611, "longitude": -121.880933}, "transactions": [], "price": "$", "location": {"address1": "795 S 2nd St", "address2": "", "address3": null, "city": "San Jose", "zip_code": "95112", "country": "US", "state": "CA", "display_address": ["795 S 2nd St", "San Jose, CA 95112"]}, "phone": "+14086651936", "display_phone": "(408) 665-1936", "distance": 44020.12659709033}, {"id": "uuouQQIFQ1B9mkmcxaAKFA", "alias": "tacos-el-rey-oakland", "name": "Tacos El Rey", "image_url": "https://s3-media2.fl.yelpcdn.com/bphoto/DblyFrtT9uyPCQAUfPbYbQ/o.jpg", "is_closed": false, "url": "https://www.yelp.com/biz/tacos-el-rey-oakland?adjust_creative=-1a8ZLzJ76_AvFzvJVcndQ&utm_campaign=yelp_api_v3&utm_medium=api_v3_business_search&utm_source=-1a8ZLzJ76_AvFzvJVcndQ", "review_count": 9, "categories": [{"alias": "foodtrucks", "title": "Food Trucks"}, {"alias": "mexican", "title": "Mexican"}], "rating": 4.0, "coordinates": {"latitude": 37.8294034, "longitude": -122.2875758}, "transactions": [], "price": "$", "location": {"address1": "40th & Horton", "address2": "", "address3": null, "city": "Oakland", "zip_code": "94608", "country": "US", "state": "CA", "display_address": ["40th & Horton", "Oakland, CA 94608"]}, "phone": "+15108130232", "display_phone": "(510) 813-0232", "distance": 110520.77046692945}, {"id": "XTJJ_PUQoJKIh31ZIzsFzw", "alias": "cochinita-food-truck-san-francisco-6", "name": "Cochinita Food Truck", "image_url": "https://s3-media2.fl.yelpcdn.com/bphoto/w77SOd2jVJjOh1lwuYQ42w/o.jpg", "is_closed": false, "url": "https://www.yelp.com/biz/cochinita-food-truck-san-francisco-6?adjust_creative=-1a8ZLzJ76_AvFzvJVcndQ&utm_campaign=yelp_api_v3&utm_medium=api_v3_business_search&utm_source=-1a8ZLzJ76_AvFzvJVcndQ", "review_count": 49, "categories": [{"alias": "foodtrucks", "title": "Food Trucks"}, {"alias": "mexican", "title": "Mexican"}], "rating": 4.5, "coordinates": {"latitude": 37.770753, "longitude": -122.3916722}, "transactions": [], "price": "$", "location": {"address1": "601 Mission Blvd N", "address2": null, "address3": "", "city": "San Francisco", "zip_code": "94103", "country": "US", "state": "CA", "display_address": ["601 Mission Blvd N", "San Francisco, CA 94103"]}, "phone": "+14159883663", "display_phone": "(415) 988-3663", "distance": 110921.48044523987}, {"id": "rM6pPB_qmQ3de5yGpfLT1g", "alias": "lomo-libre-san-francisco-2", "name": "Lomo Libre", "image_url": "https://s3-media1.fl.yelpcdn.com/bphoto/vjnO-EUjFHKoLMy2_JQYvg/o.jpg", "is_closed": false, "url": "https://www.yelp.com/biz/lomo-libre-san-francisco-2?adjust_creative=-1a8ZLzJ76_AvFzvJVcndQ&utm_campaign=yelp_api_v3&utm_medium=api_v3_business_search&utm_source=-1a8ZLzJ76_AvFzvJVcndQ", "review_count": 8, "categories": [{"alias": "foodtrucks", "title": "Food Trucks"}, {"alias": "peruvian", "title": "Peruvian"}], "rating": 5.0, "coordinates": {"latitude": 37.799634, "longitude": -122.436301}, "transactions": [], "location": {"address1": "2101 Lombard St", "address2": "", "address3": null, "city": "San Francisco", "zip_code": "94123", "country": "US", "state": "CA", "display_address": ["2101 Lombard St", "San Francisco, CA 94123"]}, "phone": "+14156198149", "display_phone": "(415) 619-8149", "distance": 115914.38346340867}]}