{"location": "Healdsburg, CA", "term": "restaurant", "radius": 1922, "businesses": [{"id": "jaX7ZGvnZyLQ-geFtTCcIw", "alias": "bravas-healdsburg-2", "name": "Bravas", "image_url": "https://s3-media1.fl.yelpcdn.com/bphoto/m8L7ugydBfsg9rAxwLiS5w/o.jpg", "is_closed": false, "url": "https://www.yelp.com/biz/bravas-healdsburg-2?adjust_creative=-1a8ZLzJ76_AvFzvJVcndQ&utm_campaign=yelp_api_v3&utm_medium=api_v3_business_search&utm_source=-1a8ZLzJ76_AvFzvJVcndQ", "review_count": 878, "categories": [{"alias": "spanish", "title": "Spanish"}, {"alias": "tapas", "title": "Tapas Bars"}, {"alias": "tapasmallplates", "title": "Tapas/Small Plates"}], "rating": 4.0, "coordinates": {"latitude": 38.6129, "longitude": -122.86972}, "transactions": [], "price": "$$", "location": {"address1": "420 Center St", "address2": "", "address3": "", "city": "Healdsburg", "zip_code": "95448", "country": "US", "state": "CA", "display_address": ["420 Center St", "Healdsburg, CA 95448"]}, "phone": "+17074337700", "display_phone": "(707) 433-7700", "distance": 929.8651761817397}, {"id": "koNsWVTzEbJwNH14fD_iWA", "alias": "guiso-latin-fusion-healdsburg", "name": "Guiso Latin Fusion", "image_url": "https://s3-media4.fl.yelpcdn.com/bphoto/FkXzPGus87mljBVlVMCiKw/o.jpg", "is_closed": false, "url": "https://www.yelp.com/biz/guiso-latin-fusion-healdsburg?adjust_creative=-1a8ZLzJ76_AvFzvJVcndQ&utm_campaign=yelp_api_v3&utm_medium=api_v3_business_search&utm_source=-1a8ZLzJ76_AvFzvJVcndQ", "review_count": 278, "categories": [{"alias": "latin", "title": "Latin American"}, {"alias": "caribbean", "title": "Caribbean"}], "rating": 5.0, "coordinates": {"latitude": 38.6121751083293, "longitude": -122.870353402698}, "transactions": [], "price": "$$", "location": {"address1": "117 N St", "address2": "", "address3": "", "city": "Healdsburg", "zip_code": "95448", "country": "US", "state": "CA", "display_address": ["117 N St", "Healdsburg, CA 95448"]}, "phone": "+17074311302", "display_phone": "(707) 431-1302", "distance": 1024.1546483728696}, {"id": "1h4jRE-ZbEwf5lKs2OeIRA", "alias": "campo-fina-healdsburg", "name": "Campo Fina", "image_url": "https://s3-media1.fl.yelpcdn.com/bphoto/yxgGI-dG4ttIcJeWSFAzGg/o.jpg", "is_closed": false, "url": "https://www.yelp.com/biz/campo-fina-healdsburg?adjust_creative=-1a8ZLzJ76_AvFzvJVcndQ&utm_campaign=yelp_api_v3&utm_medium=api_v3_business_search&utm_source=-1a8ZLzJ76_AvFzvJVcndQ", "review_count": 487, "categories": [{"alias": "italian", "title": "Italian"}, {"alias": "tapasmallplates", "title": "Tapas/Small Plates"}], "rating": 4.0, "coordinates": {"latitude": 38.61163, "longitude": -122.87036}, "transactions": [], "price": "$$", "location": {"address1": "330 Healdsburg Ave", "address2": "", "address3": "", "city": "Healdsburg", "zip_code": "95448", "country": "US", "state": "CA", "display_address": ["330 Healdsburg Ave", "Healdsburg, CA 95448"]}, "phone": "+17073954640", "display_phone": "(707) 395-4640", "distance": 1094.287325659587}, {"id": "Gk_pQpfKBou7Wu453rbDYg", "alias": "chalkboard-healdsburg-2", "name": "Chalkboard", "image_url": "https://s3-media3.fl.yelpcdn.com/bphoto/LYMBZXJzIqGM4deHCXStvg/o.jpg", "is_closed": false, "url": "https://www.yelp.com/biz/chalkboard-healdsburg-2?adjust_creative=-1a8ZLzJ76_AvFzvJVcndQ&utm_campaign=yelp_api_v3&utm_medium=api_v3_business_search&utm_source=-1a8ZLzJ76_AvFzvJVcndQ", "review_count": 599, "categories": [{"alias": "tapasmallplates", "title": "Tapas/Small Plates"}, {"alias": "wine_bars", "title": "Wine Bars"}], "rating": 4.0, "coordinates": {"latitude": 38.6121293, "longitude": -122.8715561}, "transactions": [], "price": "$$$", "location": {"address1": "29 North St", "address2": "", "address3": "", "city": "Healdsburg", "zip_code": "95448", "country": "US", "state": "CA", "display_address": ["29 North St", "Healdsburg, CA 95448"]}, "phone": "+17074738030", "display_phone": "(707) 473-8030", "distance": 1080.6742534974348}, {"id": "J-L3eAwagbxVkzPkDBMpog", "alias": "barndiva-healdsburg", "name": "Barndiva", "image_url": "https://s3-media2.fl.yelpcdn.com/bphoto/_Xc5qTDkqgCh_UjEpllExg/o.jpg", "is_closed": false, "url": "https://www.yelp.com/biz/barndiva-healdsburg?adjust_creative=-1a8ZLzJ76_AvFzvJVcndQ&utm_campaign=yelp_api_v3&utm_medium=api_v3_business_search&utm_source=-1a8ZLzJ76_AvFzvJVcndQ", "review_count": 802, "categories": [{"alias": "newamerican", "title": "American (New)"}], "rating": 4.0, "coordinates": {"latitude": 38.6096038818359, "longitude": -122.869529724121}, "transactions": [], "price": "$$$", "location": {"address1": "231 Center St", "address2": "", "address3": "", "city": "Healdsburg", "zip_code": "95448", "country": "US", "state": "CA", "display_address": ["231 Center St", "Healdsburg, CA 95448"]}, "phone": "+17074310100", "display_phone": "(707) 431-0100", "distance": 1255.9439076259077}, {"id": "tbWui-WrCQs0Yw5CJShtJQ", "alias": "willis-seafood-and-raw-bar-healdsburg", "name": "Willi's Seafood & Raw Bar", "image_url": "https://s3-media4.fl.yelpcdn.com/bphoto/zxgjGoJQjGxsbSx7YPFtSQ/o.jpg", "is_closed": false, "url": "https://www.yelp.com/biz/willis-seafood-and-raw-bar-healdsburg?adjust_creative=-1a8ZLzJ76_AvFzvJVcndQ&utm_campaign=yelp_api_v3&utm_medium=api_v3_business_search&utm_source=-1a8ZLzJ76_AvFzvJVcndQ", "review_count": 1202, "categories": [{"alias": "seafood", "title": "Seafood"}, {"alias": "bars", "title": "Bars"}, {"alias": "tapasmallplates", "title": "Tapas/Small Plates"}], "rating": 4.0, "coordinates": {"latitude": 38.6120736, "longitude": -122.87121}, "transactions": [], "price": "$$$", "location": {"address1": "403 Healdsburg Ave", "address2": null, "address3": "", "city": "Healdsburg", "zip_code": "95448", "country": "US", "state": "CA", "display_address": ["403 Healdsburg Ave", "Healdsburg, CA 95448"]}, "phone": "+17074339191", "display_phone": "(707) 433-9191", "distance": 1069.04126913318}, {"id": "PqsxJdUmNWxZyh9BLV6Jew", "alias": "valette-restaurant-healdsburg", "name": "Valette Restaurant", "image_url": "https://s3-media3.fl.yelpcdn.com/bphoto/ZjgzRJ_qKWK9YQXbG8sRNA/o.jpg", "is_closed": false, "url": "https://www.yelp.com/biz/valette-restaurant-healdsburg?adjust_creative=-1a8ZLzJ76_AvFzvJVcndQ&utm_campaign=yelp_api_v3&utm_medium=api_v3_business_search&utm_source=-1a8ZLzJ76_AvFzvJVcndQ", "review_count": 378, "categories": [{"alias": "newamerican", "title": "American (New)"}, {"alias": "desserts", "title": "Desserts"}, {"alias": "steak", "title": "Steakhouses"}], "rating": 4.5, "coordinates": {"latitude": 38.61205, "longitude": -122.86951}, "transactions": [], "price": "$$$", "location": {"address1": "344 Center St", "address2": null, "address3": "", "city": "Healdsburg", "zip_code": "95448", "country": "US", "state": "CA", "display_address": ["344 Center St", "Healdsburg, CA 95448"]}, "phone": "+17074730946", "display_phone": "(707) 473-0946", "distance": 1005.9131493261054}, {"id": "XRKoiF7uJR725alkQ0OTIA", "alias": "the-brass-rabbit-healdsburg", "name": "The Brass Rabbit", "image_url": "https://s3-media1.fl.yelpcdn.com/bphoto/IjYpUrZwqwqrSR-4QeaZHQ/o.jpg", "is_closed": false, "url": "https://www.yelp.com/biz/the-brass-rabbit-healdsburg?adjust_creative=-1a8ZLzJ76_AvFzvJVcndQ&utm_campaign=yelp_api_v3&utm_medium=api_v3_business_search&utm_source=-1a8ZLzJ76_AvFzvJVcndQ", "review_count": 117, "categories": [{"alias": "newamerican", "title": "American (New)"}, {"alias": "cocktailbars", "title": "Cocktail Bars"}], "rating": 4.0, "coordinates": {"latitude": 38.61137, "longitude": -122.87018}, "transactions": [], "price": "$$$", "location": {"address1": "109 Plaza St", "address2": "", "address3": null, "city": "Healdsburg", "zip_code": "95448", "country": "US", "state": "CA", "display_address": ["109 Plaza St", "Healdsburg, CA 95448"]}, "phone": "+17074738580", "display_phone": "(707) 473-8580", "distance": 1097.9889867852498}, {"id": "Afed6Mayiia8QoiP9cAIUw", "alias": "singlethread-farm-restaurant-inn-healdsburg-7", "name": "SingleThread Farm - Restaurant- Inn", "image_url": "https://s3-media1.fl.yelpcdn.com/bphoto/VxVJkVIFP4dQ-HHe8ORNzg/o.jpg", "is_closed": false, "url": "https://www.yelp.com/biz/singlethread-farm-restaurant-inn-healdsburg-7?adjust_creative=-1a8ZLzJ76_AvFzvJVcndQ&utm_campaign=yelp_api_v3&utm_medium=api_v3_business_search&utm_source=-1a8ZLzJ76_AvFzvJVcndQ", "review_count": 211, "categories": [{"alias": "newamerican", "title": "American (New)"}, {"alias": "bedbreakfast", "title": "Bed & Breakfast"}], "rating": 4.5, "coordinates": {"latitude": 38.6124, "longitude": -122.8699}, "transactions": [], "price": "$$$$", "location": {"address1": "131 North St", "address2": null, "address3": null, "city": "Healdsburg", "zip_code": "95448", "country": "US", "state": "CA", "display_address": ["131 North St", "Healdsburg, CA 95448"]}, "phone": "+17077234646", "display_phone": "(707) 723-4646", "distance": 986.0931192871537}, {"id": "7eu0hBSadLFsPKEOvK-_zA", "alias": "barrels-brews-and-bites-healdsburg-2", "name": "Barrels Brews & Bites", "image_url": "https://s3-media3.fl.yelpcdn.com/bphoto/v6bUjoWpBaZtWUOJxHRhrA/o.jpg", "is_closed": false, "url": "https://www.yelp.com/biz/barrels-brews-and-bites-healdsburg-2?adjust_creative=-1a8ZLzJ76_AvFzvJVcndQ&utm_campaign=yelp_api_v3&utm_medium=api_v3_business_search&utm_source=-1a8ZLzJ76_AvFzvJVcndQ", "review_count": 83, "categories": [{"alias": "tapasmallplates", "title": "Tapas/Small Plates"}, {"alias": "coffee", "title": "Coffee & Tea"}, {"alias": "bars", "title": "Bars"}], "rating": 4.5, "coordinates": {"latitude": 38.611183, "longitude": -122.870981}, "transactions": [], "price": "$$", "location": {"address1": "335 Healdsburg Ave", "address2": null, "address3": "", "city": "Healdsburg", "zip_code": "95448", "country": "US", "state": "CA", "display_address": ["335 Healdsburg Ave", "Healdsburg, CA 95448"]}, "phone": "+17073950487", "display_phone": "(707) 395-0487", "distance": 1147.1901576572427}, {"id": "vGTDBVj4m1-ZvtxgckUl2w", "alias": "baci-cafe-and-wine-bar-healdsburg", "name": "Baci Cafe and Wine Bar", "image_url": "https://s3-media2.fl.yelpcdn.com/bphoto/d79Np9Az8AkfFI8htuShRg/o.jpg", "is_closed": false, "url": "https://www.yelp.com/biz/baci-cafe-and-wine-bar-healdsburg?adjust_creative=-1a8ZLzJ76_AvFzvJVcndQ&utm_campaign=yelp_api_v3&utm_medium=api_v3_business_search&utm_source=-1a8ZLzJ76_AvFzvJVcndQ", "review_count": 325, "categories": [{"alias": "italian", "title": "Italian"}, {"alias": "wine_bars", "title": "Wine Bars"}], "rating": 4.0, "coordinates": {"latitude": 38.61175, "longitude": -122.87058}, "transactions": [], "price": "$$$", "location": {"address1": "336 Healdsburg Ave", "address2": "", "address3": "", "city": "Healdsburg", "zip_code": "95448", "country": "US", "state": "CA", "display_address": ["336 Healdsburg Ave", "Healdsburg, CA 95448"]}, "phone": "+17074338111", "display_phone": "(707) 433-8111", "distance": 1078.742693869451}, {"id": "EIKjGLbbXstxUVBcLnLfeA", "alias": "kinsmoke-healdsburg", "name": "KINSmoke", "image_url": "https://s3-media2.fl.yelpcdn.com/bphoto/B8uIkgMLSrSvFLGSPDxCRw/o.jpg", "is_closed": false, "url": "https://www.yelp.com/biz/kinsmoke-healdsburg?adjust_creative=-1a8ZLzJ76_AvFzvJVcndQ&utm_campaign=yelp_api_v3&utm_medium=api_v3_business_search&utm_source=-1a8ZLzJ76_AvFzvJVcndQ", "review_count": 420, "categories": [{"alias": "bbq", "title": "Barbeque"}, {"alias": "tradamerican", "title": "American (Traditional)"}, {"alias": "bars", "title": "Bars"}], "rating": 4.0, "coordinates": {"latitude": 38.6108, "longitude": -122.86909}, "transactions": [], "price": "$$", "location": {"address1": "304 Center St", "address2": "", "address3": "", "city": "Healdsburg", "zip_code": "95448", "country": "US", "state": "CA", "display_address": ["304 Center St", "Healdsburg, CA 95448"]}, "phone": "+17074738440", "display_phone": "(707) 473-8440", "distance": 1126.369988388503}, {"id": "PFWFUm6yiMZmwwTtP1Vv9A", "alias": "otoro-healdsburg", "name": "OTORO", "image_url": "https://s3-media1.fl.yelpcdn.com/bphoto/xFRuUHBlLCdkHgvZm9O7HQ/o.jpg", "is_closed": false, "url": "https://www.yelp.com/biz/otoro-healdsburg?adjust_creative=-1a8ZLzJ76_AvFzvJVcndQ&utm_campaign=yelp_api_v3&utm_medium=api_v3_business_search&utm_source=-1a8ZLzJ76_AvFzvJVcndQ", "review_count": 66, "categories": [{"alias": "sushi", "title": "Sushi Bars"}, {"alias": "japanese", "title": "Japanese"}], "rating": 4.5, "coordinates": {"latitude": 38.6260632238124, "longitude": -122.872408032417}, "transactions": [], "price": "$$", "location": {"address1": "1280 Healdsburg Ave", "address2": "Ste 101", "address3": null, "city": "Healdsburg", "zip_code": "95448", "country": "US", "state": "CA", "display_address": ["1280 Healdsburg Ave", "Ste 101", "Healdsburg, CA 95448"]}, "phone": "+17077563932", "display_phone": "(707) 756-3932", "distance": 909.9131872095621}, {"id": "dfQ670Aoi-7DGJJUQJv2SA", "alias": "el-farolito-healdsburg", "name": "El Farolito", "image_url": "https://s3-media3.fl.yelpcdn.com/bphoto/m3vFcqSAGkEyTl7jWKC4Xw/o.jpg", "is_closed": false, "url": "https://www.yelp.com/biz/el-farolito-healdsburg?adjust_creative=-1a8ZLzJ76_AvFzvJVcndQ&utm_campaign=yelp_api_v3&utm_medium=api_v3_business_search&utm_source=-1a8ZLzJ76_AvFzvJVcndQ", "review_count": 240, "categories": [{"alias": "mexican", "title": "Mexican"}], "rating": 4.0, "coordinates": {"latitude": 38.61116, "longitude": -122.86916}, "transactions": [], "price": "$$", "location": {"address1": "128 Plaza St", "address2": "", "address3": "", "city": "Healdsburg", "zip_code": "95448", "country": "US", "state": "CA", "display_address": ["128 Plaza St", "Healdsburg, CA 95448"]}, "phone": "+17074332807", "display_phone": "(707) 433-2807", "distance": 1085.0000185764713}, {"id": "HNWlZ2e0RDaV5i2i8X2c8Q", "alias": "the-parish-cafe-healdsburg", "name": "The Parish Cafe", "image_url": "https://s3-media2.fl.yelpcdn.com/bphoto/dNQc9HOVetATctwydUmKXA/o.jpg", "is_closed": false, "url": "https://www.yelp.com/biz/the-parish-cafe-healdsburg?adjust_creative=-1a8ZLzJ76_AvFzvJVcndQ&utm_campaign=yelp_api_v3&utm_medium=api_v3_business_search&utm_source=-1a8ZLzJ76_AvFzvJVcndQ", "review_count": 522, "categories": [{"alias": "cajun", "title": "Cajun/Creole"}, {"alias": "breakfast_brunch", "title": "Breakfast & Brunch"}, {"alias": "seafood", "title": "Seafood"}], "rating": 4.0, "coordinates": {"latitude": 38.6071701049805, "longitude": -122.870338439941}, "transactions": [], "price": "$$", "location": {"address1": "60 Mill St", "address2": "", "address3": "", "city": "Healdsburg", "zip_code": "95448", "country": "US", "state": "CA", "display_address": ["60 Mill St", "Healdsburg, CA 95448"]}, "phone": "+17074318474", "display_phone": "(707) 431-8474", "distance": 1462.5885783547137}, {"id": "AHWNvNzGJG6Ty9GpWjhMbQ", "alias": "spoonbar-healdsburg", "name": "Spoonbar", "image_url": "https://s3-media3.fl.yelpcdn.com/bphoto/ptSN8xCVVbOjkeK5WsIZmA/o.jpg", "is_closed": false, "url": "https://www.yelp.com/biz/spoonbar-healdsburg?adjust_creative=-1a8ZLzJ76_AvFzvJVcndQ&utm_campaign=yelp_api_v3&utm_medium=api_v3_business_search&utm_source=-1a8ZLzJ76_AvFzvJVcndQ", "review_count": 510, "categories": [{"alias": "seafood", "title": "Seafood"}, {"alias": "cocktailbars", "title": "Cocktail Bars"}, {"alias": "newamerican", "title": "American (New)"}], "rating": 3.5, "coordinates": {"latitude": 38.60906, "longitude": -122.87058}, "transactions": [], "price": "$$$", "location": {"address1": "219 Healdsburg Ave", "address2": "", "address3": "", "city": "Healdsburg", "zip_code": "95448", "country": "US", "state": "CA", "display_address": ["219 Healdsburg Ave", "Healdsburg, CA 95448"]}, "phone": "+17074337222", "display_phone": "(707) 433-7222", "distance": 1347.2288456570247}, {"id": "zF1Ts9n9dJPMo27XnypNhw", "alias": "the-rooftop-healdsburg-2", "name": "The Rooftop", "image_url": "https://s3-media4.fl.yelpcdn.com/bphoto/ekMP2kVI_WiwNRKQfGPHLg/o.jpg", "is_closed": false, "url": "https://www.yelp.com/biz/the-rooftop-healdsburg-2?adjust_creative=-1a8ZLzJ76_AvFzvJVcndQ&utm_campaign=yelp_api_v3&utm_medium=api_v3_business_search&utm_source=-1a8ZLzJ76_AvFzvJVcndQ", "review_count": 19, "categories": [{"alias": "newamerican", "title": "American (New)"}, {"alias": "bars", "title": "Bars"}, {"alias": "venues", "title": "Venues & Event Spaces"}], "rating": 3.5, "coordinates": {"latitude": 38.6094, "longitude": -122.8709}, "transactions": [], "location": {"address1": "227 Healdsburg Ave", "address2": null, "address3": "", "city": "Healdsburg", "zip_code": "95448", "country": "US", "state": "CA", "display_address": ["227 Healdsburg Ave", "Healdsburg, CA 95448"]}, "phone": "+17079225442", "display_phone": "(707) 922-5442", "distance": 1323.7386003527638}, {"id": "jDsT7OxH08Ly6SPDzPykbw", "alias": "dry-creek-kitchen-healdsburg-2", "name": "Dry Creek Kitchen", "image_url": "https://s3-media3.fl.yelpcdn.com/bphoto/xVxWxAk9c2-U9whA7R8_RA/o.jpg", "is_closed": false, "url": "https://www.yelp.com/biz/dry-creek-kitchen-healdsburg-2?adjust_creative=-1a8ZLzJ76_AvFzvJVcndQ&utm_campaign=yelp_api_v3&utm_medium=api_v3_business_search&utm_source=-1a8ZLzJ76_AvFzvJVcndQ", "review_count": 610, "categories": [{"alias": "newamerican", "title": "American (New)"}], "rating": 3.5, "coordinates": {"latitude": 38.6107621, "longitude": -122.8708414}, "transactions": [], "price": "$$$$", "location": {"address1": "317 Healdsburg Avenue", "address2": "", "address3": "", "city": "Healdsburg", "zip_code": "95448", "country": "US", "state": "CA", "display_address": ["317 Healdsburg Avenue", "Healdsburg, CA 95448"]}, "phone": "+17074310330", "display_phone": "(707) 431-0330", "distance": 1189.359808085974}, {"id": "i7CmLtEWrbQRTmfM7_eUUw", "alias": "the-wurst-restaurant-healdsburg", "name": "The Wurst Restaurant", "image_url": "https://s3-media2.fl.yelpcdn.com/bphoto/u7XsnN74nrcjq9iyJtpG8w/o.jpg", "is_closed": false, "url": "https://www.yelp.com/biz/the-wurst-restaurant-healdsburg?adjust_creative=-1a8ZLzJ76_AvFzvJVcndQ&utm_campaign=yelp_api_v3&utm_medium=api_v3_business_search&utm_source=-1a8ZLzJ76_AvFzvJVcndQ", "review_count": 522, "categories": [{"alias": "newamerican", "title": "American (New)"}, {"alias": "icecream", "title": "Ice Cream & Frozen Yogurt"}, {"alias": "beergardens", "title": "Beer Gardens"}], "rating": 4.0, "coordinates": {"latitude": 38.6100309, "longitude": -122.8714253}, "transactions": ["pickup", "delivery"], "price": "$$", "location": {"address1": "22 Matheson St", "address2": "", "address3": "", "city": "Healdsburg", "zip_code": "95448", "country": "US", "state": "CA", "display_address": ["22 Matheson St", "Healdsburg, CA 95448"]}, "phone": "+17073950214", "display_phone": "(707) 395-0214", "distance": 1276.3168456825242}, {"id": "YKNK8G3GHmp51rYbiCkTlg", "alias": "journeyman-meat-company-healdsburg", "name": "Journeyman Meat Company", "image_url": "https://s3-media1.fl.yelpcdn.com/bphoto/Rxkg16ZBC5bFuEKqhX5pww/o.jpg", "is_closed": false, "url": "https://www.yelp.com/biz/journeyman-meat-company-healdsburg?adjust_creative=-1a8ZLzJ76_AvFzvJVcndQ&utm_campaign=yelp_api_v3&utm_medium=api_v3_business_search&utm_source=-1a8ZLzJ76_AvFzvJVcndQ", "review_count": 73, "categories": [{"alias": "meats", "title": "Meat Shops"}, {"alias": "wine_bars", "title": "Wine Bars"}, {"alias": "sandwiches", "title": "Sandwiches"}], "rating": 4.5, "coordinates": {"latitude": 38.6124038462415, "longitude": -122.869757004082}, "transactions": [], "price": "$$", "location": {"address1": "404 Center St", "address2": "", "address3": null, "city": "Healdsburg", "zip_code": "95448", "country": "US", "state": "CA", "display_address": ["404 Center St", "Healdsburg, CA 95448"]}, "phone": "+17073956328", "display_phone": "(707) 395-6328", "distance": 978.2787749710935}, {"id": "JTMIkRaWcbxbwWcngv9ajA", "alias": "the-taste-of-tea-healdsburg", "name": "The Taste of Tea", "image_url": "https://s3-media2.fl.yelpcdn.com/bphoto/-GlN_bKUwsXbarli6pgyQw/o.jpg", "is_closed": false, "url": "https://www.yelp.com/biz/the-taste-of-tea-healdsburg?adjust_creative=-1a8ZLzJ76_AvFzvJVcndQ&utm_campaign=yelp_api_v3&utm_medium=api_v3_business_search&utm_source=-1a8ZLzJ76_AvFzvJVcndQ", "review_count": 132, "categories": [{"alias": "ramen", "title": "Ramen"}, {"alias": "izakaya", "title": "Izakaya"}], "rating": 4.5, "coordinates": {"latitude": 38.6121049, "longitude": -122.8707307}, "transactions": [], "price": "$$", "location": {"address1": "109 North St", "address2": "", "address3": "", "city": "Healdsburg", "zip_code": "95448", "country": "US", "state": "CA", "display_address": ["109 North St", "Healdsburg, CA 95448"]}, "phone": "+17074311995", "display_phone": "(707) 431-1995", "distance": 1022.3959026245441}, {"id": "UDGG7mOEEZW7iwVaFcYbRA", "alias": "healdsburg-bar-and-grill-healdsburg", "name": "Healdsburg Bar & Grill", "image_url": "https://s3-media1.fl.yelpcdn.com/bphoto/1T4ofw9auzoSTwYxS2gkzA/o.jpg", "is_closed": false, "url": "https://www.yelp.com/biz/healdsburg-bar-and-grill-healdsburg?adjust_creative=-1a8ZLzJ76_AvFzvJVcndQ&utm_campaign=yelp_api_v3&utm_medium=api_v3_business_search&utm_source=-1a8ZLzJ76_AvFzvJVcndQ", "review_count": 665, "categories": [{"alias": "burgers", "title": "Burgers"}, {"alias": "sportsbars", "title": "Sports Bars"}, {"alias": "tradamerican", "title": "American (Traditional)"}], "rating": 3.5, "coordinates": {"latitude": 38.610003, "longitude": -122.870693}, "transactions": ["pickup", "delivery"], "price": "$$", "location": {"address1": "245 Healdsburg Ave", "address2": "", "address3": "", "city": "Healdsburg", "zip_code": "95448", "country": "US", "state": "CA", "display_address": ["245 Healdsburg Ave", "Healdsburg, CA 95448"]}, "phone": "+17074333333", "display_phone": "(707) 433-3333", "distance": 1254.9487697875447}, {"id": "8EKfY_O9dfAIIGz8vP72GQ", "alias": "the-gallery-bar-and-bistro-at-studio-barndiva-healdsburg", "name": "The Gallery  Bar & Bistro at Studio Barndiva", "image_url": "https://s3-media2.fl.yelpcdn.com/bphoto/Dpta12S-FSu5Gj2Wh_yqtA/o.jpg", "is_closed": false, "url": "https://www.yelp.com/biz/the-gallery-bar-and-bistro-at-studio-barndiva-healdsburg?adjust_creative=-1a8ZLzJ76_AvFzvJVcndQ&utm_campaign=yelp_api_v3&utm_medium=api_v3_business_search&utm_source=-1a8ZLzJ76_AvFzvJVcndQ", "review_count": 13, "categories": [{"alias": "bars", "title": "Bars"}, {"alias": "mediterranean", "title": "Mediterranean"}, {"alias": "newamerican", "title": "American (New)"}], "rating": 4.5, "coordinates": {"latitude": 38.60978, "longitude": -122.86956}, "transactions": [], "price": "$$$", "location": {"address1": "237 Center St", "address2": "", "address3": null, "city": "Healdsburg", "zip_code": "95448", "country": "US", "state": "CA", "display_address": ["237 Center St", "Healdsburg, CA 95448"]}, "phone": "+17074317404", "display_phone": "(707) 431-7404", "distance": 1238.4130936129507}, {"id": "7fM-dg-HmkxkSauBswPGqg", "alias": "summers-market-and-deli-healdsburg", "name": "Summer's Market & Deli", "image_url": "https://s3-media2.fl.yelpcdn.com/bphoto/SSvu2LjGZQ9s_oXKg8tGfg/o.jpg", "is_closed": false, "url": "https://www.yelp.com/biz/summers-market-and-deli-healdsburg?adjust_creative=-1a8ZLzJ76_AvFzvJVcndQ&utm_campaign=yelp_api_v3&utm_medium=api_v3_business_search&utm_source=-1a8ZLzJ76_AvFzvJVcndQ", "review_count": 77, "categories": [{"alias": "grocery", "title": "Grocery"}, {"alias": "delis", "title": "Delis"}, {"alias": "coffee", "title": "Coffee & Tea"}], "rating": 4.5, "coordinates": {"latitude": 38.6206868, "longitude": -122.8610471}, "transactions": [], "price": "$$", "location": {"address1": "557 Powell Ave", "address2": "", "address3": "", "city": "Healdsburg", "zip_code": "95448", "country": "US", "state": "CA", "display_address": ["557 Powell Ave", "Healdsburg, CA 95448"]}, "phone": "+17077565004", "display_phone": "(707) 756-5004", "distance": 338.062519210242}, {"id": "2Dl2PEW-0gLIpP0dm83IiA", "alias": "costeaux-french-bakery-and-cafe-healdsburg", "name": "Costeaux French Bakery & Cafe", "image_url": "https://s3-media1.fl.yelpcdn.com/bphoto/GziG4lhJXSFSchsgyEgQQQ/o.jpg", "is_closed": false, "url": "https://www.yelp.com/biz/costeaux-french-bakery-and-cafe-healdsburg?adjust_creative=-1a8ZLzJ76_AvFzvJVcndQ&utm_campaign=yelp_api_v3&utm_medium=api_v3_business_search&utm_source=-1a8ZLzJ76_AvFzvJVcndQ", "review_count": 660, "categories": [{"alias": "bakeries", "title": "Bakeries"}, {"alias": "french", "title": "French"}, {"alias": "coffee", "title": "Coffee & Tea"}], "rating": 4.0, "coordinates": {"latitude": 38.61254, "longitude": -122.87156}, "transactions": [], "price": "$$", "location": {"address1": "417 Healdsburg Ave", "address2": "", "address3": "", "city": "Healdsburg", "zip_code": "95448", "country": "US", "state": "CA", "display_address": ["417 Healdsburg Ave", "Healdsburg, CA 95448"]}, "phone": "+17074331913", "display_phone": "(707) 433-1913", "distance": 1045.2165618451822}, {"id": "EYXoG2W2Pl11SrjDVGrRhA", "alias": "agave-mexican-restaurant-healdsburg", "name": "Agave Mexican Restaurant", "image_url": "https://s3-media1.fl.yelpcdn.com/bphoto/xeROdeZ-4doWrU4zw_hzQA/o.jpg", "is_closed": false, "url": "https://www.yelp.com/biz/agave-mexican-restaurant-healdsburg?adjust_creative=-1a8ZLzJ76_AvFzvJVcndQ&utm_campaign=yelp_api_v3&utm_medium=api_v3_business_search&utm_source=-1a8ZLzJ76_AvFzvJVcndQ", "review_count": 295, "categories": [{"alias": "mexican", "title": "Mexican"}, {"alias": "wine_bars", "title": "Wine Bars"}, {"alias": "beerbar", "title": "Beer Bar"}], "rating": 4.0, "coordinates": {"latitude": 38.608296647445, "longitude": -122.87264092872}, "transactions": ["pickup", "delivery"], "price": "$$", "location": {"address1": "1063 Vine St", "address2": "", "address3": "", "city": "Healdsburg", "zip_code": "95448", "country": "US", "state": "CA", "display_address": ["1063 Vine St", "Healdsburg, CA 95448"]}, "phone": "+17074332411", "display_phone": "(707) 433-2411", "distance": 1498.6482398164462}, {"id": "XIr74FwAMI97guJobZvhBw", "alias": "thai-orchid-cuisine-healdsburg", "name": "Thai Orchid Cuisine", "image_url": "https://s3-media3.fl.yelpcdn.com/bphoto/U7K89BmwsoXoxPpKXt0xOg/o.jpg", "is_closed": false, "url": "https://www.yelp.com/biz/thai-orchid-cuisine-healdsburg?adjust_creative=-1a8ZLzJ76_AvFzvJVcndQ&utm_campaign=yelp_api_v3&utm_medium=api_v3_business_search&utm_source=-1a8ZLzJ76_AvFzvJVcndQ", "review_count": 116, "categories": [{"alias": "thai", "title": "Thai"}], "rating": 4.0, "coordinates": {"latitude": 38.6089522324838, "longitude": -122.872169624537}, "transactions": [], "price": "$$", "location": {"address1": "1005 Vine St", "address2": "", "address3": "", "city": "Healdsburg", "zip_code": "95448", "country": "US", "state": "CA", "display_address": ["1005 Vine St", "Healdsburg, CA 95448"]}, "phone": "+17074330515", "display_phone": "(707) 433-0515", "distance": 1415.1346800639787}, {"id": "8HyQjbPVr8c-44rSmOvzvA", "alias": "taqueria-guadalajara-healdsburg", "name": "Taqueria Guadalajara", "image_url": "https://s3-media3.fl.yelpcdn.com/bphoto/f97n-qbZFY0vECnNGxmM9w/o.jpg", "is_closed": false, "url": "https://www.yelp.com/biz/taqueria-guadalajara-healdsburg?adjust_creative=-1a8ZLzJ76_AvFzvJVcndQ&utm_campaign=yelp_api_v3&utm_medium=api_v3_business_search&utm_source=-1a8ZLzJ76_AvFzvJVcndQ", "review_count": 124, "categories": [{"alias": "mexican", "title": "Mexican"}], "rating": 4.0, "coordinates": {"latitude": 38.6056175231934, "longitude": -122.869407653809}, "transactions": [], "price": "$", "location": {"address1": "125 Healdsburg Ave", "address2": "", "address3": "", "city": "Healdsburg", "zip_code": "95448", "country": "US", "state": "CA", "display_address": ["125 Healdsburg Ave", "Healdsburg, CA 95448"]}, "phone": "+17074331052", "display_phone": "(707) 433-1052", "distance": 1683.228697281824}, {"id": "__7lzpKRHtpKsMolHwonCQ", "alias": "mateos-cocina-latina-healdsburg", "name": "Mateo's Cocina Latina", "image_url": "https://s3-media3.fl.yelpcdn.com/bphoto/dNQriWlb3DJSXX--ftrowA/o.jpg", "is_closed": false, "url": "https://www.yelp.com/biz/mateos-cocina-latina-healdsburg?adjust_creative=-1a8ZLzJ76_AvFzvJVcndQ&utm_campaign=yelp_api_v3&utm_medium=api_v3_business_search&utm_source=-1a8ZLzJ76_AvFzvJVcndQ", "review_count": 373, "categories": [{"alias": "french", "title": "French"}, {"alias": "latin", "title": "Latin American"}], "rating": 3.5, "coordinates": {"latitude": 38.609292, "longitude": -122.869978}, "transactions": [], "price": "$$", "location": {"address1": "214 Healdsburg Ave", "address2": "", "address3": "", "city": "Healdsburg", "zip_code": "95448", "country": "US", "state": "CA", "display_address": ["214 Healdsburg Ave", "Healdsburg, CA 95448"]}, "phone": "+17074331520", "display_phone": "(707) 433-1520", "distance": 1305.5583934789643}, {"id": "qGrfBev4crtPOIGlGfOivw", "alias": "pizzando-healdsburg", "name": "Pizzando", "image_url": "https://s3-media2.fl.yelpcdn.com/bphoto/adhxbE0omL6cGSj-4jdhTg/o.jpg", "is_closed": false, "url": "https://www.yelp.com/biz/pizzando-healdsburg?adjust_creative=-1a8ZLzJ76_AvFzvJVcndQ&utm_campaign=yelp_api_v3&utm_medium=api_v3_business_search&utm_source=-1a8ZLzJ76_AvFzvJVcndQ", "review_count": 240, "categories": [{"alias": "pizza", "title": "Pizza"}], "rating": 3.5, "coordinates": {"latitude": 38.6111259, "longitude": -122.8709412}, "transactions": [], "price": "$$", "location": {"address1": "301 Healdsburg Ave", "address2": "", "address3": "", "city": "Healdsburg", "zip_code": "95448", "country": "US", "state": "CA", "display_address": ["301 Healdsburg Ave", "Healdsburg, CA 95448"]}, "phone": "+17079225233", "display_phone": "(707) 922-5233", "distance": 1216.347348754316}, {"id": "Ysu9h8CzYzS3-yP-RRQ_xg", "alias": "8-dragons-restaurant-healdsburg", "name": "8 Dragons Restaurant", "image_url": "https://s3-media2.fl.yelpcdn.com/bphoto/hU8kqWjP_DO2t469zCWNrQ/o.jpg", "is_closed": false, "url": "https://www.yelp.com/biz/8-dragons-restaurant-healdsburg?adjust_creative=-1a8ZLzJ76_AvFzvJVcndQ&utm_campaign=yelp_api_v3&utm_medium=api_v3_business_search&utm_source=-1a8ZLzJ76_AvFzvJVcndQ", "review_count": 150, "categories": [{"alias": "chinese", "title": "Chinese"}, {"alias": "wine_bars", "title": "Wine Bars"}], "rating": 3.5, "coordinates": {"latitude": 38.608079, "longitude": -122.872562}, "transactions": ["pickup", "delivery"], "price": "$$", "location": {"address1": "1047 Vine St", "address2": "", "address3": "Vineyard Plz", "city": "Healdsburg", "zip_code": "95448", "country": "US", "state": "CA", "display_address": ["1047 Vine St", "Vineyard Plz", "Healdsburg, CA 95448"]}, "phone": "+17073950023", "display_phone": "(707) 395-0023", "distance": 1517.3087147695746}, {"id": "suMdppMx9ybpsuhEKYcUOw", "alias": "downtown-bakery-and-creamery-healdsburg", "name": "Downtown Bakery & Creamery", "image_url": "https://s3-media4.fl.yelpcdn.com/bphoto/ULW0cn3Hlau7VvmiGW93yw/o.jpg", "is_closed": false, "url": "https://www.yelp.com/biz/downtown-bakery-and-creamery-healdsburg?adjust_creative=-1a8ZLzJ76_AvFzvJVcndQ&utm_campaign=yelp_api_v3&utm_medium=api_v3_business_search&utm_source=-1a8ZLzJ76_AvFzvJVcndQ", "review_count": 364, "categories": [{"alias": "bakeries", "title": "Bakeries"}, {"alias": "icecream", "title": "Ice Cream & Frozen Yogurt"}, {"alias": "breakfast_brunch", "title": "Breakfast & Brunch"}], "rating": 4.0, "coordinates": {"latitude": 38.610994, "longitude": -122.869091}, "transactions": [], "price": "$", "location": {"address1": "308 Center St", "address2": "Ste A", "address3": "", "city": "Healdsburg", "zip_code": "95448", "country": "US", "state": "CA", "display_address": ["308 Center St", "Ste A", "Healdsburg, CA 95448"]}, "phone": "+17074312719", "display_phone": "(707) 431-2719", "distance": 1101.4377926329325}, {"id": "ud0yeyVsIpHTKsduqqs6Zw", "alias": "sake-o-healdsburg", "name": "Sake O", "image_url": "https://s3-media1.fl.yelpcdn.com/bphoto/Z7OjYTglmXJ2YlKJ3QmQRA/o.jpg", "is_closed": false, "url": "https://www.yelp.com/biz/sake-o-healdsburg?adjust_creative=-1a8ZLzJ76_AvFzvJVcndQ&utm_campaign=yelp_api_v3&utm_medium=api_v3_business_search&utm_source=-1a8ZLzJ76_AvFzvJVcndQ", "review_count": 111, "categories": [{"alias": "japanese", "title": "Japanese"}, {"alias": "sushi", "title": "Sushi Bars"}], "rating": 3.5, "coordinates": {"latitude": 38.61426, "longitude": -122.87283}, "transactions": [], "price": "$$", "location": {"address1": "505 Healdsburg Ave", "address2": "", "address3": "", "city": "Healdsburg", "zip_code": "95448", "country": "US", "state": "CA", "display_address": ["505 Healdsburg Ave", "Healdsburg, CA 95448"]}, "phone": "+17074332669", "display_phone": "(707) 433-2669", "distance": 953.4146437245869}, {"id": "Mk9hPp4D83GHY0oRE4W2JQ", "alias": "adels-healdsburg", "name": "Adel's", "image_url": "https://s3-media2.fl.yelpcdn.com/bphoto/vKSBpnbZIAODmm8smtUNpw/o.jpg", "is_closed": false, "url": "https://www.yelp.com/biz/adels-healdsburg?adjust_creative=-1a8ZLzJ76_AvFzvJVcndQ&utm_campaign=yelp_api_v3&utm_medium=api_v3_business_search&utm_source=-1a8ZLzJ76_AvFzvJVcndQ", "review_count": 107, "categories": [{"alias": "desserts", "title": "Desserts"}, {"alias": "tradamerican", "title": "American (Traditional)"}, {"alias": "diners", "title": "Diners"}], "rating": 3.0, "coordinates": {"latitude": 38.62556, "longitude": -122.87668}, "transactions": ["delivery", "pickup"], "price": "$$", "location": {"address1": "200 Dry Creek Rd", "address2": "", "address3": "", "city": "Healdsburg", "zip_code": "95448", "country": "US", "state": "CA", "display_address": ["200 Dry Creek Rd", "Healdsburg, CA 95448"]}, "phone": "+17074336422", "display_phone": "(707) 433-6422", "distance": 1197.3566294617885}, {"id": "r-Ml_3Wpq3hCCVcjZi3NtQ", "alias": "healdsburger-healdsburg", "name": "Healdsburger", "image_url": "https://s3-media2.fl.yelpcdn.com/bphoto/A91w34VGfOo43Fkhbd_AqQ/o.jpg", "is_closed": false, "url": "https://www.yelp.com/biz/healdsburger-healdsburg?adjust_creative=-1a8ZLzJ76_AvFzvJVcndQ&utm_campaign=yelp_api_v3&utm_medium=api_v3_business_search&utm_source=-1a8ZLzJ76_AvFzvJVcndQ", "review_count": 246, "categories": [{"alias": "burgers", "title": "Burgers"}, {"alias": "hotdog", "title": "Hot Dogs"}, {"alias": "sandwiches", "title": "Sandwiches"}], "rating": 3.5, "coordinates": {"latitude": 38.6040749, "longitude": -122.865225}, "transactions": ["pickup", "delivery"], "price": "$$", "location": {"address1": "48 Healdsburg Ave", "address2": "", "address3": "", "city": "Healdsburg", "zip_code": "95448", "country": "US", "state": "CA", "display_address": ["48 Healdsburg Ave", "Healdsburg, CA 95448"]}, "phone": "+17074739604", "display_phone": "(707) 473-9604", "distance": 1808.6124738002923}, {"id": "Ic6qFb0sAIQs8SsJyp8BYw", "alias": "the-nectary-healdsburg-2", "name": "The Nectary", "image_url": "https://s3-media1.fl.yelpcdn.com/bphoto/EJI9SRhUVpeoLfgB2laZBQ/o.jpg", "is_closed": false, "url": "https://www.yelp.com/biz/the-nectary-healdsburg-2?adjust_creative=-1a8ZLzJ76_AvFzvJVcndQ&utm_campaign=yelp_api_v3&utm_medium=api_v3_business_search&utm_source=-1a8ZLzJ76_AvFzvJVcndQ", "review_count": 13, "categories": [{"alias": "juicebars", "title": "Juice Bars & Smoothies"}, {"alias": "raw_food", "title": "Live/Raw Food"}, {"alias": "vegetarian", "title": "Vegetarian"}], "rating": 4.0, "coordinates": {"latitude": 38.6111, "longitude": -122.86929}, "transactions": [], "price": "$$", "location": {"address1": "312 Center St", "address2": "", "address3": null, "city": "Healdsburg", "zip_code": "95448", "country": "US", "state": "CA", "display_address": ["312 Center St", "Healdsburg, CA 95448"]}, "phone": "+17074730677", "display_phone": "(707) 473-0677", "distance": 1095.7919290329019}, {"id": "iSU64FRPESenz7bwksBdZQ", "alias": "flakey-cream-do-nuts-and-coffee-shop-healdsburg", "name": "Flakey Cream Do-Nuts & Coffee Shop", "image_url": "https://s3-media2.fl.yelpcdn.com/bphoto/8enMi0ijep7fSoAUG3lAug/o.jpg", "is_closed": false, "url": "https://www.yelp.com/biz/flakey-cream-do-nuts-and-coffee-shop-healdsburg?adjust_creative=-1a8ZLzJ76_AvFzvJVcndQ&utm_campaign=yelp_api_v3&utm_medium=api_v3_business_search&utm_source=-1a8ZLzJ76_AvFzvJVcndQ", "review_count": 80, "categories": [{"alias": "donuts", "title": "Donuts"}, {"alias": "coffee", "title": "Coffee & Tea"}, {"alias": "breakfast_brunch", "title": "Breakfast & Brunch"}], "rating": 4.0, "coordinates": {"latitude": 38.6134967, "longitude": -122.8702697}, "transactions": [], "price": "$", "location": {"address1": "441 Center St", "address2": "", "address3": "", "city": "Healdsburg", "zip_code": "95448", "country": "US", "state": "CA", "display_address": ["441 Center St", "Healdsburg, CA 95448"]}, "phone": "+17074333895", "display_phone": "(707) 433-3895", "distance": 892.53496610759}, {"id": "8THUhK-Qm8q70xSZkJPRPA", "alias": "oakville-grocery-healdsburg", "name": "Oakville Grocery", "image_url": "https://s3-media3.fl.yelpcdn.com/bphoto/hqh4xgP6Gw6jo4ViCaJrQA/o.jpg", "is_closed": false, "url": "https://www.yelp.com/biz/oakville-grocery-healdsburg?adjust_creative=-1a8ZLzJ76_AvFzvJVcndQ&utm_campaign=yelp_api_v3&utm_medium=api_v3_business_search&utm_source=-1a8ZLzJ76_AvFzvJVcndQ", "review_count": 261, "categories": [{"alias": "cheese", "title": "Cheese Shops"}, {"alias": "beer_and_wine", "title": "Beer, Wine & Spirits"}, {"alias": "delis", "title": "Delis"}], "rating": 3.5, "coordinates": {"latitude": 38.6104364, "longitude": -122.8692167}, "transactions": [], "price": "$$", "location": {"address1": "124 Matheson St", "address2": "", "address3": "", "city": "Healdsburg", "zip_code": "95448", "country": "US", "state": "CA", "display_address": ["124 Matheson St", "Healdsburg, CA 95448"]}, "phone": "+17074333200", "display_phone": "(707) 433-3200", "distance": 1168.7484428831208}, {"id": "dytbAzmDae90pfZHwB4mLw", "alias": "hartford-family-winery-tasting-room-healdsburg", "name": "Hartford Family Winery Tasting Room", "image_url": "https://s3-media3.fl.yelpcdn.com/bphoto/SjsF619mgBydznfznuQD1Q/o.jpg", "is_closed": false, "url": "https://www.yelp.com/biz/hartford-family-winery-tasting-room-healdsburg?adjust_creative=-1a8ZLzJ76_AvFzvJVcndQ&utm_campaign=yelp_api_v3&utm_medium=api_v3_business_search&utm_source=-1a8ZLzJ76_AvFzvJVcndQ", "review_count": 12, "categories": [{"alias": "wineries", "title": "Wineries"}, {"alias": "tapasmallplates", "title": "Tapas/Small Plates"}], "rating": 4.5, "coordinates": {"latitude": 38.6110848, "longitude": -122.870882}, "transactions": [], "price": "$$$", "location": {"address1": "331 Healdsburg Ave", "address2": "", "address3": null, "city": "Healdsburg", "zip_code": "95448", "country": "US", "state": "CA", "display_address": ["331 Healdsburg Ave", "Healdsburg, CA 95448"]}, "phone": "+17078878031", "display_phone": "(707) 887-8031", "distance": 1153.0059912679037}, {"id": "INvIaBFnAvGxzTXFWHzGvA", "alias": "taqueria-el-sombrero-healdsburg-3", "name": "Taqueria El Sombrero", "image_url": "https://s3-media4.fl.yelpcdn.com/bphoto/bRnU9sG_8NOKLTzHrlGR-A/o.jpg", "is_closed": false, "url": "https://www.yelp.com/biz/taqueria-el-sombrero-healdsburg-3?adjust_creative=-1a8ZLzJ76_AvFzvJVcndQ&utm_campaign=yelp_api_v3&utm_medium=api_v3_business_search&utm_source=-1a8ZLzJ76_AvFzvJVcndQ", "review_count": 182, "categories": [{"alias": "mexican", "title": "Mexican"}], "rating": 3.5, "coordinates": {"latitude": 38.6101699, "longitude": -122.86958}, "transactions": ["pickup", "delivery"], "price": "$", "location": {"address1": "245 Center St", "address2": "", "address3": "", "city": "Healdsburg", "zip_code": "95448", "country": "US", "state": "CA", "display_address": ["245 Center St", "Healdsburg, CA 95448"]}, "phone": "+17074333818", "display_phone": "(707) 433-3818", "distance": 1198.8615790997017}, {"id": "S0yn9cIPKWRa8GFKuZSfYQ", "alias": "memorial-beach-market-healdsburg", "name": "Memorial Beach Market", "image_url": "https://s3-media2.fl.yelpcdn.com/bphoto/0Z8OHvVBlfhXghjtsNFsLQ/o.jpg", "is_closed": false, "url": "https://www.yelp.com/biz/memorial-beach-market-healdsburg?adjust_creative=-1a8ZLzJ76_AvFzvJVcndQ&utm_campaign=yelp_api_v3&utm_medium=api_v3_business_search&utm_source=-1a8ZLzJ76_AvFzvJVcndQ", "review_count": 4, "categories": [{"alias": "delis", "title": "Delis"}, {"alias": "grocery", "title": "Grocery"}, {"alias": "convenience", "title": "Convenience Stores"}], "rating": 5.0, "coordinates": {"latitude": null, "longitude": null}, "transactions": [], "location": {"address1": "28 Healdsburg Ave", "address2": "", "address3": "", "city": "Healdsburg", "zip_code": "95448", "country": "US", "state": "CA", "display_address": ["28 Healdsburg Ave", "Healdsburg, CA 95448"]}, "phone": "+17074339073", "display_phone": "(707) 433-9073", "distance": 1814.345970309635}, {"id": "N20Nx9h8EQ8BzEISCjVAPw", "alias": "casa-del-mole-healdsburg-2", "name": "Casa Del Mole", "image_url": "https://s3-media2.fl.yelpcdn.com/bphoto/Kp4qUjGqkeTvm99ts7irUg/o.jpg", "is_closed": false, "url": "https://www.yelp.com/biz/casa-del-mole-healdsburg-2?adjust_creative=-1a8ZLzJ76_AvFzvJVcndQ&utm_campaign=yelp_api_v3&utm_medium=api_v3_business_search&utm_source=-1a8ZLzJ76_AvFzvJVcndQ", "review_count": 21, "categories": [{"alias": "mexican", "title": "Mexican"}], "rating": 3.5, "coordinates": {"latitude": 38.6134796142578, "longitude": -122.86994934082}, "transactions": [], "price": "$", "location": {"address1": "434 Center St", "address2": "", "address3": "", "city": "Healdsburg", "zip_code": "95448", "country": "US", "state": "CA", "display_address": ["434 Center St", "Healdsburg, CA 95448"]}, "phone": "+17074334138", "display_phone": "(707) 433-4138", "distance": 878.999947012954}, {"id": "kxGSfYWuSuFBplI48mOztw", "alias": "el-taco-grande-healdsburg-2", "name": "El Taco Grande", "image_url": "https://s3-media1.fl.yelpcdn.com/bphoto/KxuLJnXRvlg9PCUXJugysg/o.jpg", "is_closed": false, "url": "https://www.yelp.com/biz/el-taco-grande-healdsburg-2?adjust_creative=-1a8ZLzJ76_AvFzvJVcndQ&utm_campaign=yelp_api_v3&utm_medium=api_v3_business_search&utm_source=-1a8ZLzJ76_AvFzvJVcndQ", "review_count": 54, "categories": [{"alias": "mexican", "title": "Mexican"}], "rating": 3.5, "coordinates": {"latitude": 38.6129715, "longitude": -122.8702509}, "transactions": [], "price": "$", "location": {"address1": "425 Center St", "address2": "", "address3": "", "city": "Healdsburg", "zip_code": "95448", "country": "US", "state": "CA", "display_address": ["425 Center St", "Healdsburg, CA 95448"]}, "phone": "+17074311464", "display_phone": "(707) 431-1464", "distance": 947.5393149522171}, {"id": "KHwukk3_pJwIXFw0k5-9Ng", "alias": "singletree-cafe-healdsburg", "name": "Singletree Cafe", "image_url": "https://s3-media1.fl.yelpcdn.com/bphoto/NcGnxCuY1lBsozPv3rrqvQ/o.jpg", "is_closed": false, "url": "https://www.yelp.com/biz/singletree-cafe-healdsburg?adjust_creative=-1a8ZLzJ76_AvFzvJVcndQ&utm_campaign=yelp_api_v3&utm_medium=api_v3_business_search&utm_source=-1a8ZLzJ76_AvFzvJVcndQ", "review_count": 228, "categories": [{"alias": "breakfast_brunch", "title": "Breakfast & Brunch"}, {"alias": "tradamerican", "title": "American (Traditional)"}, {"alias": "diners", "title": "Diners"}], "rating": 3.5, "coordinates": {"latitude": 38.6072269, "longitude": -122.8696681}, "transactions": [], "price": "$$", "location": {"address1": "165 Healdsburg Ave", "address2": "", "address3": "", "city": "Healdsburg", "zip_code": "95448", "country": "US", "state": "CA", "display_address": ["165 Healdsburg Ave", "Healdsburg, CA 95448"]}, "phone": "+17074338263", "display_phone": "(707) 433-8263", "distance": 1523.5821490985857}, {"id": "8uu3N8AZtEThuAaTrqaN3A", "alias": "round-table-pizza-healdsburg", "name": "Round Table Pizza", "image_url": "https://s3-media2.fl.yelpcdn.com/bphoto/Zu8ZLUY6YMlax5dSUFGW2A/o.jpg", "is_closed": false, "url": "https://www.yelp.com/biz/round-table-pizza-healdsburg?adjust_creative=-1a8ZLzJ76_AvFzvJVcndQ&utm_campaign=yelp_api_v3&utm_medium=api_v3_business_search&utm_source=-1a8ZLzJ76_AvFzvJVcndQ", "review_count": 25, "categories": [{"alias": "pizza", "title": "Pizza"}], "rating": 2.5, "coordinates": {"latitude": 38.62874, "longitude": -122.87061}, "transactions": [], "price": "$$", "location": {"address1": "1351 Healdsburg Ave", "address2": "", "address3": "", "city": "Healdsburg", "zip_code": "95448", "country": "US", "state": "CA", "display_address": ["1351 Healdsburg Ave", "Healdsburg, CA 95448"]}, "phone": "+17074338877", "display_phone": "(707) 433-8877", "distance": 1056.3881046788526}, {"id": "_6vspS_AVXTZWn0cknPj7w", "alias": "mountain-mikes-pizza-healdsburg", "name": "Mountain Mike's Pizza", "image_url": "https://s3-media2.fl.yelpcdn.com/bphoto/2xm0AbXoQVCnDcMUIPZw4A/o.jpg", "is_closed": false, "url": "https://www.yelp.com/biz/mountain-mikes-pizza-healdsburg?adjust_creative=-1a8ZLzJ76_AvFzvJVcndQ&utm_campaign=yelp_api_v3&utm_medium=api_v3_business_search&utm_source=-1a8ZLzJ76_AvFzvJVcndQ", "review_count": 59, "categories": [{"alias": "pizza", "title": "Pizza"}], "rating": 3.0, "coordinates": {"latitude": 38.60838, "longitude": -122.872976}, "transactions": ["pickup", "delivery"], "price": "$$", "location": {"address1": "1051 Vine Street", "address2": "", "address3": "", "city": "Healdsburg", "zip_code": "94301", "country": "US", "state": "CA", "display_address": ["1051 Vine Street", "Healdsburg, CA 94301"]}, "phone": "+17074332911", "display_phone": "(707) 433-2911", "distance": 1503.7059582163351}, {"id": "oZj-fybNC1o0KhRgL_IFHg", "alias": "mcdonalds-healdsburg-2", "name": "McDonald's", "image_url": "https://s3-media4.fl.yelpcdn.com/bphoto/TJKjCD4Qd91Pd10MYBLUVw/o.jpg", "is_closed": false, "url": "https://www.yelp.com/biz/mcdonalds-healdsburg-2?adjust_creative=-1a8ZLzJ76_AvFzvJVcndQ&utm_campaign=yelp_api_v3&utm_medium=api_v3_business_search&utm_source=-1a8ZLzJ76_AvFzvJVcndQ", "review_count": 32, "categories": [{"alias": "hotdogs", "title": "Fast Food"}, {"alias": "burgers", "title": "Burgers"}, {"alias": "coffee", "title": "Coffee & Tea"}], "rating": 2.0, "coordinates": {"latitude": 38.6055263, "longitude": -122.868411}, "transactions": [], "price": "$", "location": {"address1": "110 Healdsburg Ave", "address2": "", "address3": "", "city": "Healdsburg", "zip_code": "95448", "country": "US", "state": "CA", "display_address": ["110 Healdsburg Ave", "Healdsburg, CA 95448"]}, "phone": "+17074318846", "display_phone": "(707) 431-8846", "distance": 1675.6900528317824}, {"id": "23Qd5RMNmP3o1uvJWmaLjg", "alias": "mateo-granados-healdsburg", "name": "Mateo Granados", "image_url": "", "is_closed": false, "url": "https://www.yelp.com/biz/mateo-granados-healdsburg?adjust_creative=-1a8ZLzJ76_AvFzvJVcndQ&utm_campaign=yelp_api_v3&utm_medium=api_v3_business_search&utm_source=-1a8ZLzJ76_AvFzvJVcndQ", "review_count": 4, "categories": [{"alias": "latin", "title": "Latin American"}], "rating": 2.5, "coordinates": {"latitude": 38.6148867756128, "longitude": -122.867313176394}, "transactions": [], "location": {"address1": "541 Fitch St", "address2": "", "address3": "", "city": "Healdsburg", "zip_code": "95448", "country": "US", "state": "CA", "display_address": ["541 Fitch St", "Healdsburg, CA 95448"]}, "phone": "+17074332338", "display_phone": "(707) 433-2338", "distance": 559.8830305989702}, {"id": "d7YCAbl8qb0PqX6w5kxKfA", "alias": "the-green-grocer-healdsburg", "name": "The Green Grocer", "image_url": "https://s3-media3.fl.yelpcdn.com/bphoto/poL626kCLBjacmQQNlKUnw/o.jpg", "is_closed": false, "url": "https://www.yelp.com/biz/the-green-grocer-healdsburg?adjust_creative=-1a8ZLzJ76_AvFzvJVcndQ&utm_campaign=yelp_api_v3&utm_medium=api_v3_business_search&utm_source=-1a8ZLzJ76_AvFzvJVcndQ", "review_count": 20, "categories": [{"alias": "popuprestaurants", "title": "Pop-Up Restaurants"}], "rating": 2.0, "coordinates": {"latitude": 38.6150360107422, "longitude": -122.869651794434}, "transactions": [], "price": "$$", "location": {"address1": "", "address2": null, "address3": null, "city": "Healdsburg", "zip_code": "95448", "country": "US", "state": "CA", "display_address": ["Healdsburg, CA 95448"]}, "phone": "+17078378113", "display_phone": "(707) 837-8113", "distance": 1158.9726454136223}, {"id": "srCb1cIWx_rTK7u4PIpKQQ", "alias": "carls-jr-healdsburg", "name": "Carls Jr", "image_url": "https://s3-media4.fl.yelpcdn.com/bphoto/ea8g2C5Xp0lRpVNS7y0iGg/o.jpg", "is_closed": false, "url": "https://www.yelp.com/biz/carls-jr-healdsburg?adjust_creative=-1a8ZLzJ76_AvFzvJVcndQ&utm_campaign=yelp_api_v3&utm_medium=api_v3_business_search&utm_source=-1a8ZLzJ76_AvFzvJVcndQ", "review_count": 22, "categories": [{"alias": "hotdogs", "title": "Fast Food"}, {"alias": "burgers", "title": "Burgers"}], "rating": 1.5, "coordinates": {"latitude": 38.6087061, "longitude": -122.8713565}, "transactions": [], "price": "$", "location": {"address1": "1037 Vine St", "address2": "", "address3": "", "city": "Healdsburg", "zip_code": "95448", "country": "US", "state": "CA", "display_address": ["1037 Vine St", "Healdsburg, CA 95448"]}, "phone": "+17074318762", "display_phone": "(707) 431-8762", "distance": 1481.370788306329}, {"id": "KBtNOYTcgo5jDOnaiyg5sw", "alias": "subway-restaurants-healdsburg", "name": "Subway Restaurants", "image_url": "https://s3-media4.fl.yelpcdn.com/bphoto/XggFy6Qz1zcyJpeSp3d2zg/o.jpg", "is_closed": false, "url": "https://www.yelp.com/biz/subway-restaurants-healdsburg?adjust_creative=-1a8ZLzJ76_AvFzvJVcndQ&utm_campaign=yelp_api_v3&utm_medium=api_v3_business_search&utm_source=-1a8ZLzJ76_AvFzvJVcndQ", "review_count": 9, "categories": [{"alias": "sandwiches", "title": "Sandwiches"}], "rating": 1.0, "coordinates": {"latitude": 38.608684, "longitude": -122.872892}, "transactions": [], "price": "$", "location": {"address1": "1101 Vine Street", "address2": "", "address3": "Vine Street Shopping Center", "city": "Healdsburg", "zip_code": "95448", "country": "US", "state": "CA", "display_address": ["1101 Vine Street", "Vine Street Shopping Center", "Healdsburg, CA 95448"]}, "phone": "+17074311391", "display_phone": "(707) 431-1391", "distance": 1470.4231989706982}, {"id": "eacYYjLaDFAAaM_k6LdUwQ", "alias": "pizza-gourmet-healdsburg", "name": "Pizza Gourmet", "image_url": "", "is_closed": false, "url": "https://www.yelp.com/biz/pizza-gourmet-healdsburg?adjust_creative=-1a8ZLzJ76_AvFzvJVcndQ&utm_campaign=yelp_api_v3&utm_medium=api_v3_business_search&utm_source=-1a8ZLzJ76_AvFzvJVcndQ", "review_count": 1, "categories": [{"alias": "pizza", "title": "Pizza"}], "rating": 2.0, "coordinates": {"latitude": 38.6088624, "longitude": -122.8716152}, "transactions": [], "location": {"address1": "1051 Vine St", "address2": "", "address3": "Vine Street Plaza", "city": "Healdsburg", "zip_code": "94558", "country": "US", "state": "CA", "display_address": ["1051 Vine St", "Vine Street Plaza", "Healdsburg, CA 94558"]}, "phone": "+17074730108", "display_phone": "(707) 473-0108", "distance": 1503.7059582163351}, {"id": "noqlnoOOQg5CCXJGP3of-Q", "alias": "mendocino-bbq-catering-ukiah", "name": "Mendocino BBQ Catering", "image_url": "https://s3-media4.fl.yelpcdn.com/bphoto/OZUrirzQcPOLuDRcjkJh0Q/o.jpg", "is_closed": false, "url": "https://www.yelp.com/biz/mendocino-bbq-catering-ukiah?adjust_creative=-1a8ZLzJ76_AvFzvJVcndQ&utm_campaign=yelp_api_v3&utm_medium=api_v3_business_search&utm_source=-1a8ZLzJ76_AvFzvJVcndQ", "review_count": 7, "categories": [{"alias": "catering", "title": "Caterers"}, {"alias": "bbq", "title": "Barbeque"}, {"alias": "foodtrucks", "title": "Food Trucks"}], "rating": 5.0, "coordinates": {"latitude": 39.1549905, "longitude": -123.2078366}, "transactions": [], "location": {"address1": "585 N State St", "address2": null, "address3": "", "city": "Ukiah", "zip_code": "95482", "country": "US", "state": "CA", "display_address": ["585 N State St", "Ukiah, CA 95482"]}, "phone": "+17073917647", "display_phone": "(707) 391-7647", "distance": 66446.77471923397}, {"id": "i6ZwMjYIbmFZ8EGYz6x5Bw", "alias": "phat-salads-and-wraps-napa", "name": "Phat Salads and Wraps", "image_url": "https://s3-media2.fl.yelpcdn.com/bphoto/FbrUwtrVIx2cLXiPdBhHkw/o.jpg", "is_closed": false, "url": "https://www.yelp.com/biz/phat-salads-and-wraps-napa?adjust_creative=-1a8ZLzJ76_AvFzvJVcndQ&utm_campaign=yelp_api_v3&utm_medium=api_v3_business_search&utm_source=-1a8ZLzJ76_AvFzvJVcndQ", "review_count": 48, "categories": [{"alias": "foodtrucks", "title": "Food Trucks"}, {"alias": "wraps", "title": "Wraps"}], "rating": 4.0, "coordinates": {"latitude": 38.3234491, "longitude": -122.3023962}, "transactions": [], "price": "$", "location": {"address1": "", "address2": "", "address3": "", "city": "Napa", "zip_code": "94558", "country": "US", "state": "CA", "display_address": ["Napa, CA 94558"]}, "phone": "+17073639658", "display_phone": "(707) 363-9658", "distance": 59059.05874455936}]}