{"location": "Los Gatos, CA", "term": "restaurant", "radius": 3022, "businesses": [{"id": "WUi5FGO9GllvkR83HEfMqw", "alias": "nicks-next-door-los-gatos", "name": "Nick's Next Door", "image_url": "https://s3-media2.fl.yelpcdn.com/bphoto/6PCm5DkpLCotd0mIoR-ngQ/o.jpg", "is_closed": false, "url": "https://www.yelp.com/biz/nicks-next-door-los-gatos?adjust_creative=-1a8ZLzJ76_AvFzvJVcndQ&utm_campaign=yelp_api_v3&utm_medium=api_v3_business_search&utm_source=-1a8ZLzJ76_AvFzvJVcndQ", "review_count": 1220, "categories": [{"alias": "newamerican", "title": "American (New)"}], "rating": 4.5, "coordinates": {"latitude": 37.22084, "longitude": -121.98072}, "transactions": [], "price": "$$$", "location": {"address1": "11 College Ave", "address2": "", "address3": "", "city": "Los Gatos", "zip_code": "95030", "country": "US", "state": "CA", "display_address": ["11 College Ave", "Los Gatos, CA 95030"]}, "phone": "+14084025053", "display_phone": "(408) 402-5053", "distance": 3102.353429891305}, {"id": "hhhXPjZKa2uRJOCAR_XOSg", "alias": "enoteca-la-storia-los-gatos-los-gatos", "name": "Enoteca La Storia - Los Gatos", "image_url": "https://s3-media2.fl.yelpcdn.com/bphoto/w-ik4yJFozSkXo07VEDYig/o.jpg", "is_closed": false, "url": "https://www.yelp.com/biz/enoteca-la-storia-los-gatos-los-gatos?adjust_creative=-1a8ZLzJ76_AvFzvJVcndQ&utm_campaign=yelp_api_v3&utm_medium=api_v3_business_search&utm_source=-1a8ZLzJ76_AvFzvJVcndQ", "review_count": 581, "categories": [{"alias": "italian", "title": "Italian"}, {"alias": "wine_bars", "title": "Wine Bars"}, {"alias": "tapasmallplates", "title": "Tapas/Small Plates"}], "rating": 4.0, "coordinates": {"latitude": 37.229679, "longitude": -121.979853}, "transactions": ["restaurant_reservation"], "price": "$$", "location": {"address1": "416 N Santa Cruz Ave", "address2": "", "address3": "", "city": "Los Gatos", "zip_code": "95030", "country": "US", "state": "CA", "display_address": ["416 N Santa Cruz Ave", "Los Gatos, CA 95030"]}, "phone": "+14086257272", "display_phone": "(408) 625-7272", "distance": 2480.411492039696}, {"id": "ffXhYBOyw778TAe5oFRYEw", "alias": "pintxopote-los-gatos", "name": "PintxoPote", "image_url": "https://s3-media2.fl.yelpcdn.com/bphoto/VNKUjLKcU_aYcgsA0Wiieg/o.jpg", "is_closed": false, "url": "https://www.yelp.com/biz/pintxopote-los-gatos?adjust_creative=-1a8ZLzJ76_AvFzvJVcndQ&utm_campaign=yelp_api_v3&utm_medium=api_v3_business_search&utm_source=-1a8ZLzJ76_AvFzvJVcndQ", "review_count": 238, "categories": [{"alias": "spanish", "title": "Spanish"}, {"alias": "tapas", "title": "Tapas Bars"}, {"alias": "basque", "title": "Basque"}], "rating": 4.0, "coordinates": {"latitude": 37.22988, "longitude": -121.97997}, "transactions": ["restaurant_reservation"], "price": "$$", "location": {"address1": "424 N Santa Cruz Ave", "address2": "", "address3": "", "city": "Los Gatos", "zip_code": "95030", "country": "US", "state": "CA", "display_address": ["424 N Santa Cruz Ave", "Los Gatos, CA 95030"]}, "phone": "+14087978688", "display_phone": "(408) 797-8688", "distance": 2477.543222628885}, {"id": "2oIjson-Zzz7Tn7ZMI0nug", "alias": "sidecar-los-gatos", "name": "Sidecar", "image_url": "https://s3-media1.fl.yelpcdn.com/bphoto/1t6yfBfuIee9k5I-69KuUQ/o.jpg", "is_closed": false, "url": "https://www.yelp.com/biz/sidecar-los-gatos?adjust_creative=-1a8ZLzJ76_AvFzvJVcndQ&utm_campaign=yelp_api_v3&utm_medium=api_v3_business_search&utm_source=-1a8ZLzJ76_AvFzvJVcndQ", "review_count": 16, "categories": [{"alias": "tradamerican", "title": "American (Traditional)"}, {"alias": "cocktailbars", "title": "Cocktail Bars"}], "rating": 5.0, "coordinates": {"latitude": 37.221513, "longitude": -121.98102}, "transactions": [], "location": {"address1": "25 East Main St", "address2": null, "address3": "", "city": "Los Gatos", "zip_code": "95030", "country": "US", "state": "CA", "display_address": ["25 East Main St", "Los Gatos, CA 95030"]}, "phone": "+14083995180", "display_phone": "(408) 399-5180", "distance": 3074.801424283427}, {"id": "z0wcq5E8GgIUgc-O9JDEGQ", "alias": "billys-boston-chowder-house-los-gatos", "name": "Billy's Boston Chowder House", "image_url": "https://s3-media2.fl.yelpcdn.com/bphoto/MWziXKtWIOEshxVO5wW2dA/o.jpg", "is_closed": false, "url": "https://www.yelp.com/biz/billys-boston-chowder-house-los-gatos?adjust_creative=-1a8ZLzJ76_AvFzvJVcndQ&utm_campaign=yelp_api_v3&utm_medium=api_v3_business_search&utm_source=-1a8ZLzJ76_AvFzvJVcndQ", "review_count": 1494, "categories": [{"alias": "seafood", "title": "Seafood"}, {"alias": "fishnchips", "title": "Fish & Chips"}, {"alias": "breakfast_brunch", "title": "Breakfast & Brunch"}], "rating": 4.0, "coordinates": {"latitude": 37.22144, "longitude": -121.98078}, "transactions": ["restaurant_reservation", "delivery", "pickup"], "price": "$$", "location": {"address1": "29 E Main St", "address2": null, "address3": "", "city": "Los Gatos", "zip_code": "95030", "country": "US", "state": "CA", "display_address": ["29 E Main St", "Los Gatos, CA 95030"]}, "phone": "+14088274005", "display_phone": "(408) 827-4005", "distance": 3063.8355802759875}, {"id": "nBVvwHd8f9MKuteQzDzJuw", "alias": "dio-deka-los-gatos", "name": "Dio Deka", "image_url": "https://s3-media2.fl.yelpcdn.com/bphoto/29YmnntLUb_64LiPJJap4w/o.jpg", "is_closed": false, "url": "https://www.yelp.com/biz/dio-deka-los-gatos?adjust_creative=-1a8ZLzJ76_AvFzvJVcndQ&utm_campaign=yelp_api_v3&utm_medium=api_v3_business_search&utm_source=-1a8ZLzJ76_AvFzvJVcndQ", "review_count": 943, "categories": [{"alias": "greek", "title": "Greek"}, {"alias": "mediterranean", "title": "Mediterranean"}, {"alias": "newamerican", "title": "American (New)"}], "rating": 4.0, "coordinates": {"latitude": 37.220908004713, "longitude": -121.97710381346}, "transactions": ["restaurant_reservation"], "price": "$$$$", "location": {"address1": "210 E Main St", "address2": null, "address3": "", "city": "Los Gatos", "zip_code": "95030", "country": "US", "state": "CA", "display_address": ["210 E Main St", "Los Gatos, CA 95030"]}, "phone": "+14083547700", "display_phone": "(408) 354-7700", "distance": 2869.9063254344746}, {"id": "B6typZhxPe9RHoHo24LjSA", "alias": "reggae-pot-los-gatos", "name": "Reggae Pot", "image_url": "https://s3-media1.fl.yelpcdn.com/bphoto/wOxxi_jifeRShg9JdsOPiw/o.jpg", "is_closed": false, "url": "https://www.yelp.com/biz/reggae-pot-los-gatos?adjust_creative=-1a8ZLzJ76_AvFzvJVcndQ&utm_campaign=yelp_api_v3&utm_medium=api_v3_business_search&utm_source=-1a8ZLzJ76_AvFzvJVcndQ", "review_count": 317, "categories": [{"alias": "caribbean", "title": "Caribbean"}], "rating": 4.5, "coordinates": {"latitude": 37.244195, "longitude": -121.960632}, "transactions": ["pickup"], "price": "$$", "location": {"address1": "15495 Los Gatos Blvd", "address2": "Ste D", "address3": "", "city": "Los Gatos", "zip_code": "95032", "country": "US", "state": "CA", "display_address": ["15495 Los Gatos Blvd", "Ste D", "Los Gatos, CA 95032"]}, "phone": "+14088274597", "display_phone": "(408) 827-4597", "distance": 727.688530271054}, {"id": "c5mRg-qUBkR0S4FwIyZo-w", "alias": "asa-south-los-gatos-los-gatos", "name": "ASA South - Los Gatos", "image_url": "https://s3-media2.fl.yelpcdn.com/bphoto/b8jgIQJz0MjUhssiHemqhw/o.jpg", "is_closed": false, "url": "https://www.yelp.com/biz/asa-south-los-gatos-los-gatos?adjust_creative=-1a8ZLzJ76_AvFzvJVcndQ&utm_campaign=yelp_api_v3&utm_medium=api_v3_business_search&utm_source=-1a8ZLzJ76_AvFzvJVcndQ", "review_count": 33, "categories": [{"alias": "newamerican", "title": "American (New)"}, {"alias": "italian", "title": "Italian"}, {"alias": "spanish", "title": "Spanish"}], "rating": 4.0, "coordinates": {"latitude": 37.226637, "longitude": -121.972125}, "transactions": [], "price": "$$$", "location": {"address1": "57 Los Gatos-Saratoga Rd", "address2": "", "address3": null, "city": "Los Gatos", "zip_code": "95032", "country": "US", "state": "CA", "display_address": ["57 Los Gatos-Saratoga Rd", "Los Gatos, CA 95032"]}, "phone": "+14085407004", "display_phone": "(408) 540-7004", "distance": 2109.163195872354}, {"id": "Sq8CeLnv4Psa7c7GEISJgQ", "alias": "manresa-los-gatos-2", "name": "Manresa", "image_url": "https://s3-media3.fl.yelpcdn.com/bphoto/AqFg3wSRbLUlZaObqdAeAw/o.jpg", "is_closed": false, "url": "https://www.yelp.com/biz/manresa-los-gatos-2?adjust_creative=-1a8ZLzJ76_AvFzvJVcndQ&utm_campaign=yelp_api_v3&utm_medium=api_v3_business_search&utm_source=-1a8ZLzJ76_AvFzvJVcndQ", "review_count": 1178, "categories": [{"alias": "newamerican", "title": "American (New)"}], "rating": 4.0, "coordinates": {"latitude": 37.22727, "longitude": -121.981}, "transactions": [], "price": "$$$$", "location": {"address1": "320 Village Ln", "address2": "", "address3": "", "city": "Los Gatos", "zip_code": "95030", "country": "US", "state": "CA", "display_address": ["320 Village Ln", "Los Gatos, CA 95030"]}, "phone": "+14083544330", "display_phone": "(408) 354-4330", "distance": 2697.661961221207}, {"id": "erXhCaDV8lBovWVvo8DcvA", "alias": "oak-and-rye-los-gatos", "name": "Oak & Rye", "image_url": "https://s3-media2.fl.yelpcdn.com/bphoto/UjW-jIVXV0YdJpndQh7YSw/o.jpg", "is_closed": false, "url": "https://www.yelp.com/biz/oak-and-rye-los-gatos?adjust_creative=-1a8ZLzJ76_AvFzvJVcndQ&utm_campaign=yelp_api_v3&utm_medium=api_v3_business_search&utm_source=-1a8ZLzJ76_AvFzvJVcndQ", "review_count": 1025, "categories": [{"alias": "pizza", "title": "Pizza"}, {"alias": "newamerican", "title": "American (New)"}], "rating": 4.0, "coordinates": {"latitude": 37.2276475, "longitude": -121.9817762}, "transactions": [], "price": "$$", "location": {"address1": "303 N Santa Cruz Ave", "address2": "", "address3": "", "city": "Los Gatos", "zip_code": "95030", "country": "US", "state": "CA", "display_address": ["303 N Santa Cruz Ave", "Los Gatos, CA 95030"]}, "phone": "+14083954441", "display_phone": "(408) 395-4441", "distance": 2736.3912621934355}, {"id": "M-ZV7RQP9fKRMRF6yLGqBA", "alias": "cin-cin-wine-bar-and-restaurant-los-gatos-2", "name": "Cin-Cin Wine Bar & Restaurant", "image_url": "https://s3-media4.fl.yelpcdn.com/bphoto/M4ZsPeab8HNOvHePRpBUfA/o.jpg", "is_closed": false, "url": "https://www.yelp.com/biz/cin-cin-wine-bar-and-restaurant-los-gatos-2?adjust_creative=-1a8ZLzJ76_AvFzvJVcndQ&utm_campaign=yelp_api_v3&utm_medium=api_v3_business_search&utm_source=-1a8ZLzJ76_AvFzvJVcndQ", "review_count": 1040, "categories": [{"alias": "newamerican", "title": "American (New)"}, {"alias": "wine_bars", "title": "Wine Bars"}], "rating": 4.0, "coordinates": {"latitude": 37.22821, "longitude": -121.98051}, "transactions": ["restaurant_reservation"], "price": "$$$", "location": {"address1": "368 Village Ln", "address2": "", "address3": "", "city": "Los Gatos", "zip_code": "95030", "country": "US", "state": "CA", "display_address": ["368 Village Ln", "Los Gatos, CA 95030"]}, "phone": "+14083548006", "display_phone": "(408) 354-8006", "distance": 2605.554227197814}, {"id": "xyf2WTndOob46_idEOLkVQ", "alias": "viets-corner-los-gatos", "name": "Viet's Corner", "image_url": "https://s3-media4.fl.yelpcdn.com/bphoto/0piY_92Ubc4L3MI_PlV9lA/o.jpg", "is_closed": false, "url": "https://www.yelp.com/biz/viets-corner-los-gatos?adjust_creative=-1a8ZLzJ76_AvFzvJVcndQ&utm_campaign=yelp_api_v3&utm_medium=api_v3_business_search&utm_source=-1a8ZLzJ76_AvFzvJVcndQ", "review_count": 23, "categories": [{"alias": "pizza", "title": "Pizza"}, {"alias": "vietnamese", "title": "Vietnamese"}, {"alias": "juicebars", "title": "Juice Bars & Smoothies"}], "rating": 4.0, "coordinates": {"latitude": 37.2443585, "longitude": -121.95779317}, "transactions": [], "price": "$", "location": {"address1": "15466 Los Gatos Blvd", "address2": "Ste 110", "address3": "", "city": "Los Gatos", "zip_code": "95032", "country": "US", "state": "CA", "display_address": ["15466 Los Gatos Blvd", "Ste 110", "Los Gatos, CA 95032"]}, "phone": "+14085609111", "display_phone": "(408) 560-9111", "distance": 574.2850335128877}, {"id": "UGan7EYnozLqvIa6QF2Pkw", "alias": "los-gatos-cafe-los-gatos-4", "name": "Los Gatos Cafe", "image_url": "https://s3-media4.fl.yelpcdn.com/bphoto/Tkj5EFA7CBt7TMHVx-9CTQ/o.jpg", "is_closed": false, "url": "https://www.yelp.com/biz/los-gatos-cafe-los-gatos-4?adjust_creative=-1a8ZLzJ76_AvFzvJVcndQ&utm_campaign=yelp_api_v3&utm_medium=api_v3_business_search&utm_source=-1a8ZLzJ76_AvFzvJVcndQ", "review_count": 1786, "categories": [{"alias": "breakfast_brunch", "title": "Breakfast & Brunch"}, {"alias": "sandwiches", "title": "Sandwiches"}, {"alias": "burgers", "title": "Burgers"}], "rating": 4.5, "coordinates": {"latitude": 37.22829, "longitude": -121.98096}, "transactions": [], "price": "$$", "location": {"address1": "340 N Santa Cruz Ave", "address2": "", "address3": "", "city": "Los Gatos", "zip_code": "95030", "country": "US", "state": "CA", "display_address": ["340 N Santa Cruz Ave", "Los Gatos, CA 95030"]}, "phone": "+14083544647", "display_phone": "(408) 354-4647", "distance": 2638.486890897661}, {"id": "HXK64q4GNY4Wp4n-XenIqw", "alias": "los-gatos-soda-works-los-gatos-2", "name": "Los Gatos Soda Works", "image_url": "https://s3-media1.fl.yelpcdn.com/bphoto/QJgscm66B14a9XcSAY8e3A/o.jpg", "is_closed": false, "url": "https://www.yelp.com/biz/los-gatos-soda-works-los-gatos-2?adjust_creative=-1a8ZLzJ76_AvFzvJVcndQ&utm_campaign=yelp_api_v3&utm_medium=api_v3_business_search&utm_source=-1a8ZLzJ76_AvFzvJVcndQ", "review_count": 32, "categories": [{"alias": "cocktailbars", "title": "Cocktail Bars"}, {"alias": "tapasmallplates", "title": "Tapas/Small Plates"}], "rating": 4.5, "coordinates": {"latitude": 37.220855, "longitude": -121.980669}, "transactions": [], "price": "$$", "location": {"address1": "21 College Ave", "address2": "", "address3": null, "city": "Los Gatos", "zip_code": "95030", "country": "US", "state": "CA", "display_address": ["21 College Ave", "Los Gatos, CA 95030"]}, "phone": "+14084025053", "display_phone": "(408) 402-5053", "distance": 3099.84704037088}, {"id": "AkQpmOS0slEVdxW5qdmP2g", "alias": "namaste-los-gatos-2", "name": "Namaste", "image_url": "https://s3-media1.fl.yelpcdn.com/bphoto/IHP08gdWkflO-w-Ij4OlkQ/o.jpg", "is_closed": false, "url": "https://www.yelp.com/biz/namaste-los-gatos-2?adjust_creative=-1a8ZLzJ76_AvFzvJVcndQ&utm_campaign=yelp_api_v3&utm_medium=api_v3_business_search&utm_source=-1a8ZLzJ76_AvFzvJVcndQ", "review_count": 64, "categories": [{"alias": "indpak", "title": "Indian"}], "rating": 4.5, "coordinates": {"latitude": 37.22162, "longitude": -121.98053}, "transactions": ["delivery", "pickup"], "price": "$$", "location": {"address1": "35 E Main St", "address2": null, "address3": "", "city": "Los Gatos", "zip_code": "95030", "country": "US", "state": "CA", "display_address": ["35 E Main St", "Los Gatos, CA 95030"]}, "phone": "+14084425794", "display_phone": "(408) 442-5794", "distance": 3049.4009170955233}, {"id": "2QQsaJKgC7nXoLziPWO2uw", "alias": "super-duper-burgers-los-gatos", "name": "Super Duper Burgers", "image_url": "https://s3-media2.fl.yelpcdn.com/bphoto/WTELw1oHJa0qsC_kHZ6HqA/o.jpg", "is_closed": false, "url": "https://www.yelp.com/biz/super-duper-burgers-los-gatos?adjust_creative=-1a8ZLzJ76_AvFzvJVcndQ&utm_campaign=yelp_api_v3&utm_medium=api_v3_business_search&utm_source=-1a8ZLzJ76_AvFzvJVcndQ", "review_count": 438, "categories": [{"alias": "burgers", "title": "Burgers"}, {"alias": "tradamerican", "title": "American (Traditional)"}], "rating": 4.0, "coordinates": {"latitude": 37.2360464063175, "longitude": -121.963329411045}, "transactions": [], "price": "$$", "location": {"address1": "15991 Los Gatos Blvd", "address2": "Bldg 3", "address3": "", "city": "Los Gatos", "zip_code": "95032", "country": "US", "state": "CA", "display_address": ["15991 Los Gatos Blvd", "Bldg 3", "Los Gatos, CA 95032"]}, "phone": "+14083560684", "display_phone": "(408) 356-0684", "distance": 855.4911388507765}, {"id": "WK3Bjw6uiIovsw53mlzYxw", "alias": "southern-kitchen-los-gatos-3", "name": "Southern Kitchen", "image_url": "https://s3-media3.fl.yelpcdn.com/bphoto/Z1QvmTp6XocW0uMqntLdiQ/o.jpg", "is_closed": false, "url": "https://www.yelp.com/biz/southern-kitchen-los-gatos-3?adjust_creative=-1a8ZLzJ76_AvFzvJVcndQ&utm_campaign=yelp_api_v3&utm_medium=api_v3_business_search&utm_source=-1a8ZLzJ76_AvFzvJVcndQ", "review_count": 762, "categories": [{"alias": "southern", "title": "Southern"}, {"alias": "newamerican", "title": "American (New)"}, {"alias": "comfortfood", "title": "Comfort Food"}], "rating": 4.0, "coordinates": {"latitude": 37.2216204105105, "longitude": -121.9807508}, "transactions": [], "price": "$$", "location": {"address1": "27 E Main St", "address2": "", "address3": "", "city": "Los Gatos", "zip_code": "95030", "country": "US", "state": "CA", "display_address": ["27 E Main St", "Los Gatos, CA 95030"]}, "phone": "+14083547515", "display_phone": "(408) 354-7515", "distance": 3048.690087444826}, {"id": "o4_ncY_Abd6nn6fbjbYlDg", "alias": "flights-los-gatos-2", "name": "Flights", "image_url": "https://s3-media4.fl.yelpcdn.com/bphoto/Q1CBoiof9CqthcuhMPUCvg/o.jpg", "is_closed": false, "url": "https://www.yelp.com/biz/flights-los-gatos-2?adjust_creative=-1a8ZLzJ76_AvFzvJVcndQ&utm_campaign=yelp_api_v3&utm_medium=api_v3_business_search&utm_source=-1a8ZLzJ76_AvFzvJVcndQ", "review_count": 614, "categories": [{"alias": "newamerican", "title": "American (New)"}, {"alias": "cocktailbars", "title": "Cocktail Bars"}, {"alias": "seafood", "title": "Seafood"}], "rating": 4.0, "coordinates": {"latitude": 37.22802, "longitude": -121.97995}, "transactions": [], "price": "$$", "location": {"address1": "165 Saratoga Los Gatos Rd", "address2": "", "address3": null, "city": "Los Gatos", "zip_code": "95030", "country": "US", "state": "CA", "display_address": ["165 Saratoga Los Gatos Rd", "Los Gatos, CA 95030"]}, "phone": "+14083543434", "display_phone": "(408) 354-3434", "distance": 2572.9813663467125}, {"id": "jw9hoVTHWsNYnFaFt9tnow", "alias": "campo-di-bocce-of-los-gatos-los-gatos", "name": "Campo Di Bocce of Los Gatos", "image_url": "https://s3-media1.fl.yelpcdn.com/bphoto/2AJaITRBIjTDLGuhwIXRHQ/o.jpg", "is_closed": false, "url": "https://www.yelp.com/biz/campo-di-bocce-of-los-gatos-los-gatos?adjust_creative=-1a8ZLzJ76_AvFzvJVcndQ&utm_campaign=yelp_api_v3&utm_medium=api_v3_business_search&utm_source=-1a8ZLzJ76_AvFzvJVcndQ", "review_count": 478, "categories": [{"alias": "italian", "title": "Italian"}, {"alias": "bocceball", "title": "Bocce Ball"}, {"alias": "venues", "title": "Venues & Event Spaces"}], "rating": 4.0, "coordinates": {"latitude": 37.23213, "longitude": -121.97803}, "transactions": [], "price": "$$", "location": {"address1": "565 University Ave", "address2": "", "address3": "", "city": "Los Gatos", "zip_code": "95032", "country": "US", "state": "CA", "display_address": ["565 University Ave", "Los Gatos, CA 95032"]}, "phone": "+14083957650", "display_phone": "(408) 395-7650", "distance": 2209.2669699495773}, {"id": "S5sQCXAWIaXODx6ONTup9g", "alias": "the-bywater-los-gatos", "name": "The Bywater", "image_url": "https://s3-media1.fl.yelpcdn.com/bphoto/ZLpJkE1ykRuu7RkldHaj_g/o.jpg", "is_closed": false, "url": "https://www.yelp.com/biz/the-bywater-los-gatos?adjust_creative=-1a8ZLzJ76_AvFzvJVcndQ&utm_campaign=yelp_api_v3&utm_medium=api_v3_business_search&utm_source=-1a8ZLzJ76_AvFzvJVcndQ", "review_count": 541, "categories": [{"alias": "cajun", "title": "Cajun/Creole"}, {"alias": "newamerican", "title": "American (New)"}, {"alias": "breakfast_brunch", "title": "Breakfast & Brunch"}], "rating": 3.5, "coordinates": {"latitude": 37.2327381, "longitude": -121.97893}, "transactions": ["restaurant_reservation", "pickup"], "price": "$$", "location": {"address1": "532 N Santa Cruz Ave", "address2": "", "address3": "", "city": "Los Gatos", "zip_code": "95030", "country": "US", "state": "CA", "display_address": ["532 N Santa Cruz Ave", "Los Gatos, CA 95030"]}, "phone": "+14085609639", "display_phone": "(408) 560-9639", "distance": 2271.642483201462}, {"id": "Tpur-hHBAdjwSlYGm85JOQ", "alias": "los-gatos-cafe-uptown-los-gatos", "name": "Los Gatos Cafe Uptown", "image_url": "https://s3-media2.fl.yelpcdn.com/bphoto/oA7u8-sqLgayDzhO-DzThQ/o.jpg", "is_closed": false, "url": "https://www.yelp.com/biz/los-gatos-cafe-uptown-los-gatos?adjust_creative=-1a8ZLzJ76_AvFzvJVcndQ&utm_campaign=yelp_api_v3&utm_medium=api_v3_business_search&utm_source=-1a8ZLzJ76_AvFzvJVcndQ", "review_count": 578, "categories": [{"alias": "breakfast_brunch", "title": "Breakfast & Brunch"}], "rating": 4.0, "coordinates": {"latitude": 37.2405787084879, "longitude": -121.959367884794}, "transactions": [], "price": "$$", "location": {"address1": "15662 Los Gatos Blvd", "address2": "", "address3": "", "city": "Los Gatos", "zip_code": "95032", "country": "US", "state": "CA", "display_address": ["15662 Los Gatos Blvd", "Los Gatos, CA 95032"]}, "phone": "+14083560600", "display_phone": "(408) 356-0600", "distance": 421.407954016482}, {"id": "uhMnag9s2KhsF8g2kNuFFg", "alias": "aldos-cafe-los-gatos", "name": "Aldo's Cafe", "image_url": "https://s3-media1.fl.yelpcdn.com/bphoto/xtvw9rwFRBcgqpSpnFDO5g/o.jpg", "is_closed": false, "url": "https://www.yelp.com/biz/aldos-cafe-los-gatos?adjust_creative=-1a8ZLzJ76_AvFzvJVcndQ&utm_campaign=yelp_api_v3&utm_medium=api_v3_business_search&utm_source=-1a8ZLzJ76_AvFzvJVcndQ", "review_count": 150, "categories": [{"alias": "italian", "title": "Italian"}], "rating": 4.0, "coordinates": {"latitude": 37.2302, "longitude": -121.97982}, "transactions": ["delivery", "pickup"], "price": "$$", "location": {"address1": "440 N Santa Cruz Ave", "address2": "", "address3": "", "city": "Los Gatos", "zip_code": "95030", "country": "US", "state": "CA", "display_address": ["440 N Santa Cruz Ave", "Los Gatos, CA 95030"]}, "phone": "+14083540700", "display_phone": "(408) 354-0700", "distance": 2446.611216535937}, {"id": "XsDxOqXlgoLSYCSgj_6Kxg", "alias": "firenza-pizza-los-gatos-2", "name": "Firenza Pizza", "image_url": "https://s3-media3.fl.yelpcdn.com/bphoto/YcCSj52aNraz2JyNIAZoaA/o.jpg", "is_closed": false, "url": "https://www.yelp.com/biz/firenza-pizza-los-gatos-2?adjust_creative=-1a8ZLzJ76_AvFzvJVcndQ&utm_campaign=yelp_api_v3&utm_medium=api_v3_business_search&utm_source=-1a8ZLzJ76_AvFzvJVcndQ", "review_count": 159, "categories": [{"alias": "pizza", "title": "Pizza"}], "rating": 4.5, "coordinates": {"latitude": 37.2359827, "longitude": -121.9635953}, "transactions": ["delivery", "pickup"], "price": "$$", "location": {"address1": "681 Blossom Hill Rd", "address2": "Ste 100", "address3": null, "city": "Los Gatos", "zip_code": "95032", "country": "US", "state": "CA", "display_address": ["681 Blossom Hill Rd", "Ste 100", "Los Gatos, CA 95032"]}, "phone": "+14084425433", "display_phone": "(408) 442-5433", "distance": 879.6449634187936}, {"id": "S8N3WyQkmUcyoapgI1UffA", "alias": "the-happy-hound-los-gatos-2", "name": "The Happy Hound", "image_url": "https://s3-media2.fl.yelpcdn.com/bphoto/Grm1XbheUSbbvsfP0prwww/o.jpg", "is_closed": false, "url": "https://www.yelp.com/biz/the-happy-hound-los-gatos-2?adjust_creative=-1a8ZLzJ76_AvFzvJVcndQ&utm_campaign=yelp_api_v3&utm_medium=api_v3_business_search&utm_source=-1a8ZLzJ76_AvFzvJVcndQ", "review_count": 502, "categories": [{"alias": "hotdog", "title": "Hot Dogs"}, {"alias": "burgers", "title": "Burgers"}], "rating": 4.0, "coordinates": {"latitude": 37.237634, "longitude": -121.962474}, "transactions": ["pickup"], "price": "$", "location": {"address1": "15899 Los Gatos Blvd", "address2": "", "address3": "", "city": "Los Gatos", "zip_code": "95032", "country": "US", "state": "CA", "display_address": ["15899 Los Gatos Blvd", "Los Gatos, CA 95032"]}, "phone": "+14083582444", "display_phone": "(408) 358-2444", "distance": 716.9361066497943}, {"id": "5dGvEcnvqJKHCePvwkzSrQ", "alias": "boulevard-bites-and-brews-los-gatos", "name": "Boulevard Bites & Brews", "image_url": "https://s3-media1.fl.yelpcdn.com/bphoto/mFPMQ5ABmpPrVoSU-zwAmQ/o.jpg", "is_closed": false, "url": "https://www.yelp.com/biz/boulevard-bites-and-brews-los-gatos?adjust_creative=-1a8ZLzJ76_AvFzvJVcndQ&utm_campaign=yelp_api_v3&utm_medium=api_v3_business_search&utm_source=-1a8ZLzJ76_AvFzvJVcndQ", "review_count": 32, "categories": [{"alias": "pizza", "title": "Pizza"}, {"alias": "sportsbars", "title": "Sports Bars"}, {"alias": "beergardens", "title": "Beer Gardens"}], "rating": 4.0, "coordinates": {"latitude": 37.243521, "longitude": -121.96048}, "transactions": [], "location": {"address1": "15525 Los Gatos Blvd", "address2": "Unit D", "address3": "", "city": "Los Gatos", "zip_code": "95032", "country": "US", "state": "CA", "display_address": ["15525 Los Gatos Blvd", "Unit D", "Los Gatos, CA 95032"]}, "phone": "+14083582000", "display_phone": "(408) 358-2000", "distance": 675.3754966653294}, {"id": "co8pku00QuwIDdAsGd8JEw", "alias": "the-sandwich-maker-los-gatos", "name": "The Sandwich Maker", "image_url": "https://s3-media1.fl.yelpcdn.com/bphoto/dL9qRpBstGhZPa3Gvf3qJg/o.jpg", "is_closed": false, "url": "https://www.yelp.com/biz/the-sandwich-maker-los-gatos?adjust_creative=-1a8ZLzJ76_AvFzvJVcndQ&utm_campaign=yelp_api_v3&utm_medium=api_v3_business_search&utm_source=-1a8ZLzJ76_AvFzvJVcndQ", "review_count": 121, "categories": [{"alias": "sandwiches", "title": "Sandwiches"}, {"alias": "vietnamese", "title": "Vietnamese"}], "rating": 4.0, "coordinates": {"latitude": 37.25235, "longitude": -121.96693}, "transactions": [], "price": "$", "location": {"address1": "987 University Ave", "address2": "", "address3": "", "city": "Los Gatos", "zip_code": "95032", "country": "US", "state": "CA", "display_address": ["987 University Ave", "Los Gatos, CA 95032"]}, "phone": "+14083956331", "display_phone": "(408) 395-6331", "distance": 1777.9586640027942}, {"id": "ciqmptRRzZVxPBtaBLStQQ", "alias": "aldos-ristorante-and-bar-los-gatos", "name": "Aldo's Ristorante & Bar", "image_url": "https://s3-media4.fl.yelpcdn.com/bphoto/xYFwKf8iQpv7nSZjpyHv7w/o.jpg", "is_closed": false, "url": "https://www.yelp.com/biz/aldos-ristorante-and-bar-los-gatos?adjust_creative=-1a8ZLzJ76_AvFzvJVcndQ&utm_campaign=yelp_api_v3&utm_medium=api_v3_business_search&utm_source=-1a8ZLzJ76_AvFzvJVcndQ", "review_count": 452, "categories": [{"alias": "italian", "title": "Italian"}], "rating": 3.5, "coordinates": {"latitude": 37.261855, "longitude": -121.9621403}, "transactions": [], "price": "$$", "location": {"address1": "14109 Winchester Blvd", "address2": "", "address3": "", "city": "Los Gatos", "zip_code": "95032", "country": "US", "state": "CA", "display_address": ["14109 Winchester Blvd", "Los Gatos, CA 95032"]}, "phone": "+14083741808", "display_phone": "(408) 374-1808", "distance": 2576.8290227160965}, {"id": "7OZVmZJV5UQ_2_IksBEi8g", "alias": "shiroi-sushi-los-gatos", "name": "Shiroi Sushi", "image_url": "https://s3-media4.fl.yelpcdn.com/bphoto/QOiIz2Sf_TgodwbhHQGDZg/o.jpg", "is_closed": false, "url": "https://www.yelp.com/biz/shiroi-sushi-los-gatos?adjust_creative=-1a8ZLzJ76_AvFzvJVcndQ&utm_campaign=yelp_api_v3&utm_medium=api_v3_business_search&utm_source=-1a8ZLzJ76_AvFzvJVcndQ", "review_count": 134, "categories": [{"alias": "sushi", "title": "Sushi Bars"}, {"alias": "japanese", "title": "Japanese"}], "rating": 4.0, "coordinates": {"latitude": 37.263014, "longitude": -121.962114}, "transactions": [], "price": "$$", "location": {"address1": "14103 Winchester Blvd", "address2": "Ste C", "address3": "", "city": "Los Gatos", "zip_code": "95032", "country": "US", "state": "CA", "display_address": ["14103 Winchester Blvd", "Ste C", "Los Gatos, CA 95032"]}, "phone": "+14083405965", "display_phone": "(408) 340-5965", "distance": 2682.3679646850705}, {"id": "wLay0tnPE8Ccj6i7sH9Thw", "alias": "cafe-dio-los-gatos", "name": "Cafe Dio", "image_url": "https://s3-media1.fl.yelpcdn.com/bphoto/Qm_8KGzhqICdYfG5b8CYrg/o.jpg", "is_closed": false, "url": "https://www.yelp.com/biz/cafe-dio-los-gatos?adjust_creative=-1a8ZLzJ76_AvFzvJVcndQ&utm_campaign=yelp_api_v3&utm_medium=api_v3_business_search&utm_source=-1a8ZLzJ76_AvFzvJVcndQ", "review_count": 84, "categories": [{"alias": "cafes", "title": "Cafes"}], "rating": 4.5, "coordinates": {"latitude": 37.2212143188385, "longitude": -121.977216352792}, "transactions": ["delivery", "pickup"], "price": "$", "location": {"address1": "151 E Main St", "address2": "", "address3": "", "city": "Los Gatos", "zip_code": "95030", "country": "US", "state": "CA", "display_address": ["151 E Main St", "Los Gatos, CA 95030"]}, "phone": "+14088279737", "display_phone": "(408) 827-9737", "distance": 2852.253145435007}, {"id": "V8eLckUBUza0a4XkYUUK0g", "alias": "urban-remedy-los-gatos", "name": "Urban Remedy", "image_url": "https://s3-media3.fl.yelpcdn.com/bphoto/y-AgA22n1w58mOWEJy-HJw/o.jpg", "is_closed": false, "url": "https://www.yelp.com/biz/urban-remedy-los-gatos?adjust_creative=-1a8ZLzJ76_AvFzvJVcndQ&utm_campaign=yelp_api_v3&utm_medium=api_v3_business_search&utm_source=-1a8ZLzJ76_AvFzvJVcndQ", "review_count": 26, "categories": [{"alias": "gluten_free", "title": "Gluten-Free"}, {"alias": "vegetarian", "title": "Vegetarian"}, {"alias": "vegan", "title": "Vegan"}], "rating": 4.5, "coordinates": {"latitude": 37.22388, "longitude": -121.98135}, "transactions": [], "location": {"address1": "104 University Ave", "address2": null, "address3": "", "city": "Los Gatos", "zip_code": "95030", "country": "US", "state": "CA", "display_address": ["104 University Ave", "Los Gatos, CA 95030"]}, "phone": "+14084789360", "display_phone": "(408) 478-9360", "distance": 2932.753848080084}, {"id": "7XX6xQpjgCkCBntNuTPE1A", "alias": "mooyah-burgers-fries-and-shakes-los-gatos-4", "name": "Mooyah Burgers Fries & Shakes", "image_url": "https://s3-media2.fl.yelpcdn.com/bphoto/_2dvJT8TaVr2goM1aKftaQ/o.jpg", "is_closed": false, "url": "https://www.yelp.com/biz/mooyah-burgers-fries-and-shakes-los-gatos-4?adjust_creative=-1a8ZLzJ76_AvFzvJVcndQ&utm_campaign=yelp_api_v3&utm_medium=api_v3_business_search&utm_source=-1a8ZLzJ76_AvFzvJVcndQ", "review_count": 262, "categories": [{"alias": "hotdog", "title": "Hot Dogs"}, {"alias": "burgers", "title": "Burgers"}, {"alias": "icecream", "title": "Ice Cream & Frozen Yogurt"}], "rating": 3.5, "coordinates": {"latitude": 37.2430022876293, "longitude": -121.932310448025}, "transactions": [], "price": "$$", "location": {"address1": "15529 Union Ave", "address2": "", "address3": "", "city": "Los Gatos", "zip_code": "95032", "country": "US", "state": "CA", "display_address": ["15529 Union Ave", "Los Gatos, CA 95032"]}, "phone": "+14089636509", "display_phone": "(408) 963-6509", "distance": 2023.1960086218628}, {"id": "XVo5TceYqOHls_lJmmeIlQ", "alias": "wine-cellar-restaurant-los-gatos", "name": "Wine Cellar Restaurant", "image_url": "https://s3-media1.fl.yelpcdn.com/bphoto/1_T7ZzfP8LxbexRvRgFyJw/o.jpg", "is_closed": false, "url": "https://www.yelp.com/biz/wine-cellar-restaurant-los-gatos?adjust_creative=-1a8ZLzJ76_AvFzvJVcndQ&utm_campaign=yelp_api_v3&utm_medium=api_v3_business_search&utm_source=-1a8ZLzJ76_AvFzvJVcndQ", "review_count": 547, "categories": [{"alias": "newamerican", "title": "American (New)"}, {"alias": "wine_bars", "title": "Wine Bars"}, {"alias": "venues", "title": "Venues & Event Spaces"}], "rating": 3.5, "coordinates": {"latitude": 37.223496, "longitude": -121.981307}, "transactions": ["delivery", "pickup"], "price": "$$$", "location": {"address1": "50 University Ave", "address2": "Ste 180", "address3": "", "city": "Los Gatos", "zip_code": "95030", "country": "US", "state": "CA", "display_address": ["50 University Ave", "Ste 180", "Los Gatos, CA 95030"]}, "phone": "+14083544808", "display_phone": "(408) 354-4808", "distance": 2955.0742170750827}, {"id": "XEyuX5k3pLQt4vxqipfXUg", "alias": "philz-coffee-los-gatos", "name": "Philz Coffee", "image_url": "https://s3-media1.fl.yelpcdn.com/bphoto/_VFMsIUW8z60nOfwJeHCCg/o.jpg", "is_closed": false, "url": "https://www.yelp.com/biz/philz-coffee-los-gatos?adjust_creative=-1a8ZLzJ76_AvFzvJVcndQ&utm_campaign=yelp_api_v3&utm_medium=api_v3_business_search&utm_source=-1a8ZLzJ76_AvFzvJVcndQ", "review_count": 378, "categories": [{"alias": "coffee", "title": "Coffee & Tea"}, {"alias": "breakfast_brunch", "title": "Breakfast & Brunch"}], "rating": 4.0, "coordinates": {"latitude": 37.2360408300587, "longitude": -121.963729299091}, "transactions": [], "price": "$", "location": {"address1": "681 Blossom Hill Rd", "address2": "Ste 102", "address3": "", "city": "Los Gatos", "zip_code": "95032", "country": "US", "state": "CA", "display_address": ["681 Blossom Hill Rd", "Ste 102", "Los Gatos, CA 95032"]}, "phone": "+14083565046", "display_phone": "(408) 356-5046", "distance": 887.291997735372}, {"id": "l_Fss-r9XKObNaQznxCPsg", "alias": "yeung-shing-restaurant-los-gatos", "name": "Yeung Shing Restaurant", "image_url": "https://s3-media1.fl.yelpcdn.com/bphoto/mUPqHYCrirzQqtI9DLh2IA/o.jpg", "is_closed": false, "url": "https://www.yelp.com/biz/yeung-shing-restaurant-los-gatos?adjust_creative=-1a8ZLzJ76_AvFzvJVcndQ&utm_campaign=yelp_api_v3&utm_medium=api_v3_business_search&utm_source=-1a8ZLzJ76_AvFzvJVcndQ", "review_count": 235, "categories": [{"alias": "chinese", "title": "Chinese"}], "rating": 3.5, "coordinates": {"latitude": 37.2625198364258, "longitude": -121.962287902832}, "transactions": ["delivery", "pickup"], "price": "$$", "location": {"address1": "14107 Winchester Blvd", "address2": "Ste S", "address3": "", "city": "Los Gatos", "zip_code": "95032", "country": "US", "state": "CA", "display_address": ["14107 Winchester Blvd", "Ste S", "Los Gatos, CA 95032"]}, "phone": "+14083702032", "display_phone": "(408) 370-2032", "distance": 2630.23999254415}, {"id": "rGJmw0_1Svxl42ZiOAkHIg", "alias": "the-garret-station-los-gatos", "name": "The Garret Station", "image_url": "https://s3-media2.fl.yelpcdn.com/bphoto/we4gkWmKlee6_f3nBhYaYg/o.jpg", "is_closed": false, "url": "https://www.yelp.com/biz/the-garret-station-los-gatos?adjust_creative=-1a8ZLzJ76_AvFzvJVcndQ&utm_campaign=yelp_api_v3&utm_medium=api_v3_business_search&utm_source=-1a8ZLzJ76_AvFzvJVcndQ", "review_count": 278, "categories": [{"alias": "tradamerican", "title": "American (Traditional)"}, {"alias": "pizza", "title": "Pizza"}], "rating": 3.5, "coordinates": {"latitude": 37.2625, "longitude": -121.96227}, "transactions": [], "price": "$$", "location": {"address1": "14101 Winchester Blvd", "address2": "", "address3": "", "city": "Los Gatos", "zip_code": "95032", "country": "US", "state": "CA", "display_address": ["14101 Winchester Blvd", "Los Gatos, CA 95032"]}, "phone": "+14088716810", "display_phone": "(408) 871-6810", "distance": 2657.1515387191557}, {"id": "ft9cEFDm5Hor46lVlgy33Q", "alias": "blvd-coffee-los-gatos", "name": "Blvd Coffee", "image_url": "https://s3-media3.fl.yelpcdn.com/bphoto/1lzmKzxju221N7XM37jeZg/o.jpg", "is_closed": false, "url": "https://www.yelp.com/biz/blvd-coffee-los-gatos?adjust_creative=-1a8ZLzJ76_AvFzvJVcndQ&utm_campaign=yelp_api_v3&utm_medium=api_v3_business_search&utm_source=-1a8ZLzJ76_AvFzvJVcndQ", "review_count": 303, "categories": [{"alias": "coffee", "title": "Coffee & Tea"}, {"alias": "breakfast_brunch", "title": "Breakfast & Brunch"}, {"alias": "creperies", "title": "Creperies"}], "rating": 4.5, "coordinates": {"latitude": 37.243495, "longitude": -121.96063}, "transactions": ["pickup"], "price": "$", "location": {"address1": "15525 Los Gatos Blvd", "address2": "Ste C", "address3": "", "city": "Los Gatos", "zip_code": "95032", "country": "US", "state": "CA", "display_address": ["15525 Los Gatos Blvd", "Ste C", "Los Gatos, CA 95032"]}, "phone": "+14083564665", "display_phone": "(408) 356-4665", "distance": 675.3186389369291}, {"id": "FrnBDuBEPeNVxkkUWed4lA", "alias": "hometown-noodle-san-jose-4", "name": "Hometown Noodle", "image_url": "https://s3-media2.fl.yelpcdn.com/bphoto/-KoyQ96IMFqEFaEZ8I3aqA/o.jpg", "is_closed": false, "url": "https://www.yelp.com/biz/hometown-noodle-san-jose-4?adjust_creative=-1a8ZLzJ76_AvFzvJVcndQ&utm_campaign=yelp_api_v3&utm_medium=api_v3_business_search&utm_source=-1a8ZLzJ76_AvFzvJVcndQ", "review_count": 334, "categories": [{"alias": "chinese", "title": "Chinese"}, {"alias": "noodles", "title": "Noodles"}], "rating": 4.0, "coordinates": {"latitude": 37.26109, "longitude": -121.9319}, "transactions": [], "price": "$$", "location": {"address1": "3617 Union Ave", "address2": "", "address3": "", "city": "San Jose", "zip_code": "95124", "country": "US", "state": "CA", "display_address": ["3617 Union Ave", "San Jose, CA 95124"]}, "phone": "+14083698868", "display_phone": "(408) 369-8868", "distance": 3136.948667112638}, {"id": "VuVq9Y7AJPiECGdpKr7-Nw", "alias": "lous-coffee-shop-los-gatos-2", "name": "Lou's Coffee Shop", "image_url": "https://s3-media2.fl.yelpcdn.com/bphoto/CwGAyzShPxdd6tG98kjEOQ/o.jpg", "is_closed": false, "url": "https://www.yelp.com/biz/lous-coffee-shop-los-gatos-2?adjust_creative=-1a8ZLzJ76_AvFzvJVcndQ&utm_campaign=yelp_api_v3&utm_medium=api_v3_business_search&utm_source=-1a8ZLzJ76_AvFzvJVcndQ", "review_count": 459, "categories": [{"alias": "diners", "title": "Diners"}, {"alias": "tradamerican", "title": "American (Traditional)"}, {"alias": "breakfast_brunch", "title": "Breakfast & Brunch"}], "rating": 4.0, "coordinates": {"latitude": 37.2402186265187, "longitude": -121.961257154945}, "transactions": [], "price": "$$", "location": {"address1": "15691 Los Gatos Blvd", "address2": "", "address3": "", "city": "Los Gatos", "zip_code": "95032", "country": "US", "state": "CA", "display_address": ["15691 Los Gatos Blvd", "Los Gatos, CA 95032"]}, "phone": "+14083568383", "display_phone": "(408) 356-8383", "distance": 578.6383430015372}, {"id": "i5cYNXlEB8UdhVctHTBUnA", "alias": "classic-burger-of-los-gatos-los-gatos", "name": "Classic Burger of Los Gatos", "image_url": "https://s3-media3.fl.yelpcdn.com/bphoto/eqaRH4yZBqmwDc23mYQUKg/o.jpg", "is_closed": false, "url": "https://www.yelp.com/biz/classic-burger-of-los-gatos-los-gatos?adjust_creative=-1a8ZLzJ76_AvFzvJVcndQ&utm_campaign=yelp_api_v3&utm_medium=api_v3_business_search&utm_source=-1a8ZLzJ76_AvFzvJVcndQ", "review_count": 199, "categories": [{"alias": "icecream", "title": "Ice Cream & Frozen Yogurt"}, {"alias": "burgers", "title": "Burgers"}, {"alias": "hotdogs", "title": "Fast Food"}], "rating": 4.0, "coordinates": {"latitude": 37.24006, "longitude": -121.96146}, "transactions": [], "price": "$", "location": {"address1": "15737 Los Gatos Blvd", "address2": "", "address3": "", "city": "Los Gatos", "zip_code": "95032", "country": "US", "state": "CA", "display_address": ["15737 Los Gatos Blvd", "Los Gatos, CA 95032"]}, "phone": "+14083566910", "display_phone": "(408) 356-6910", "distance": 591.2844435400182}, {"id": "lXpHSXs4oS4ylJFudGImPA", "alias": "thai-spice-los-gatos", "name": "Thai Spice", "image_url": "https://s3-media4.fl.yelpcdn.com/bphoto/hycytK1QED8-WDmuOtBeUw/o.jpg", "is_closed": false, "url": "https://www.yelp.com/biz/thai-spice-los-gatos?adjust_creative=-1a8ZLzJ76_AvFzvJVcndQ&utm_campaign=yelp_api_v3&utm_medium=api_v3_business_search&utm_source=-1a8ZLzJ76_AvFzvJVcndQ", "review_count": 333, "categories": [{"alias": "thai", "title": "Thai"}], "rating": 3.5, "coordinates": {"latitude": 37.2286338471153, "longitude": -121.981339690321}, "transactions": [], "price": "$$", "location": {"address1": "337 N Santa Cruz Ave", "address2": "", "address3": "", "city": "Los Gatos", "zip_code": "95030", "country": "US", "state": "CA", "display_address": ["337 N Santa Cruz Ave", "Los Gatos, CA 95030"]}, "phone": "+14083542785", "display_phone": "(408) 354-2785", "distance": 2650.40958678674}, {"id": "dia3ntvdkJGr-b4C4SfzVA", "alias": "yokohama-los-gatos", "name": "Yokohama", "image_url": "https://s3-media2.fl.yelpcdn.com/bphoto/zkHRLUmhupJXLq_za-NHXQ/o.jpg", "is_closed": false, "url": "https://www.yelp.com/biz/yokohama-los-gatos?adjust_creative=-1a8ZLzJ76_AvFzvJVcndQ&utm_campaign=yelp_api_v3&utm_medium=api_v3_business_search&utm_source=-1a8ZLzJ76_AvFzvJVcndQ", "review_count": 187, "categories": [{"alias": "japanese", "title": "Japanese"}, {"alias": "sushi", "title": "Sushi Bars"}], "rating": 3.5, "coordinates": {"latitude": 37.228214263916, "longitude": -121.981002807617}, "transactions": [], "price": "$$", "location": {"address1": "336 N Santa Cruz Ave", "address2": "", "address3": "", "city": "Los Gatos", "zip_code": "95030", "country": "US", "state": "CA", "display_address": ["336 N Santa Cruz Ave", "Los Gatos, CA 95030"]}, "phone": "+14083951990", "display_phone": "(408) 395-1990", "distance": 2645.479904006568}, {"id": "IpPMjHc-DGMGHwoCEBhH0g", "alias": "nob-hill-foods-los-gatos", "name": "Nob Hill Foods", "image_url": "https://s3-media2.fl.yelpcdn.com/bphoto/nbtB6o_LLkzQLJht7xMQsw/o.jpg", "is_closed": false, "url": "https://www.yelp.com/biz/nob-hill-foods-los-gatos?adjust_creative=-1a8ZLzJ76_AvFzvJVcndQ&utm_campaign=yelp_api_v3&utm_medium=api_v3_business_search&utm_source=-1a8ZLzJ76_AvFzvJVcndQ", "review_count": 61, "categories": [{"alias": "grocery", "title": "Grocery"}, {"alias": "delis", "title": "Delis"}, {"alias": "beer_and_wine", "title": "Beer, Wine & Spirits"}], "rating": 3.5, "coordinates": {"latitude": 37.2403101, "longitude": -121.9606112}, "transactions": [], "price": "$$", "location": {"address1": "15710 Los Gatos Blvd", "address2": "", "address3": "", "city": "Los Gatos", "zip_code": "95030", "country": "US", "state": "CA", "display_address": ["15710 Los Gatos Blvd", "Los Gatos, CA 95030"]}, "phone": "+14083560421", "display_phone": "(408) 356-0421", "distance": 523.3046652920988}, {"id": "ZDAIATD2g7611MRTku7LjA", "alias": "shangri-la-chinese-restaurant-los-gatos", "name": "Shangri-La Chinese Restaurant", "image_url": "https://s3-media3.fl.yelpcdn.com/bphoto/X68LBZBmgc2cMvvo-ucDUg/o.jpg", "is_closed": false, "url": "https://www.yelp.com/biz/shangri-la-chinese-restaurant-los-gatos?adjust_creative=-1a8ZLzJ76_AvFzvJVcndQ&utm_campaign=yelp_api_v3&utm_medium=api_v3_business_search&utm_source=-1a8ZLzJ76_AvFzvJVcndQ", "review_count": 230, "categories": [{"alias": "chinese", "title": "Chinese"}], "rating": 3.0, "coordinates": {"latitude": 37.234388, "longitude": -121.961889}, "transactions": ["delivery", "pickup"], "price": "$", "location": {"address1": "784 Blossom Hill Rd", "address2": "", "address3": "", "city": "Los Gatos", "zip_code": "95032", "country": "US", "state": "CA", "display_address": ["784 Blossom Hill Rd", "Los Gatos, CA 95032"]}, "phone": "+14083585020", "display_phone": "(408) 358-5020", "distance": 857.3032737451687}, {"id": "ZhF7--Ttw0OPazyuelddKQ", "alias": "t-birds-pizza-of-los-gatos-los-gatos", "name": "T-Birds Pizza of Los Gatos", "image_url": "https://s3-media2.fl.yelpcdn.com/bphoto/h2Q4juCHvd6yke8qThqL6w/o.jpg", "is_closed": false, "url": "https://www.yelp.com/biz/t-birds-pizza-of-los-gatos-los-gatos?adjust_creative=-1a8ZLzJ76_AvFzvJVcndQ&utm_campaign=yelp_api_v3&utm_medium=api_v3_business_search&utm_source=-1a8ZLzJ76_AvFzvJVcndQ", "review_count": 220, "categories": [{"alias": "pizza", "title": "Pizza"}, {"alias": "salad", "title": "Salad"}, {"alias": "tradamerican", "title": "American (Traditional)"}], "rating": 4.0, "coordinates": {"latitude": 37.230894706748, "longitude": -121.9798665292}, "transactions": ["delivery", "pickup"], "price": "$$", "location": {"address1": "444 N Santa Cruz Ave", "address2": "", "address3": "", "city": "Los Gatos", "zip_code": "95030", "country": "US", "state": "CA", "display_address": ["444 N Santa Cruz Ave", "Los Gatos, CA 95030"]}, "phone": "+14083952525", "display_phone": "(408) 395-2525", "distance": 2424.330913559103}, {"id": "C4OViAxTx81PO4ZfPzDYPA", "alias": "chicago-steak-and-fish-los-gatos", "name": "Chicago Steak and Fish", "image_url": "https://s3-media2.fl.yelpcdn.com/bphoto/WtOb52gIQEBEcfDlZUb2Mw/o.jpg", "is_closed": false, "url": "https://www.yelp.com/biz/chicago-steak-and-fish-los-gatos?adjust_creative=-1a8ZLzJ76_AvFzvJVcndQ&utm_campaign=yelp_api_v3&utm_medium=api_v3_business_search&utm_source=-1a8ZLzJ76_AvFzvJVcndQ", "review_count": 312, "categories": [{"alias": "steak", "title": "Steakhouses"}, {"alias": "seafood", "title": "Seafood"}], "rating": 3.0, "coordinates": {"latitude": 37.2281265258789, "longitude": -121.98104095459}, "transactions": [], "price": "$$", "location": {"address1": "330 N Santa Cruz Ave", "address2": "", "address3": "", "city": "Los Gatos", "zip_code": "95032", "country": "US", "state": "CA", "display_address": ["330 N Santa Cruz Ave", "Los Gatos, CA 95032"]}, "phone": "+14083548858", "display_phone": "(408) 354-8858", "distance": 2656.7856643555297}, {"id": "Rq_0Q6GIonya8FAnZxB0Wg", "alias": "la-esquina-los-gatos", "name": "La Esquina", "image_url": "https://s3-media3.fl.yelpcdn.com/bphoto/DM5s8AsB-oXvsaYBSEqQIg/o.jpg", "is_closed": false, "url": "https://www.yelp.com/biz/la-esquina-los-gatos?adjust_creative=-1a8ZLzJ76_AvFzvJVcndQ&utm_campaign=yelp_api_v3&utm_medium=api_v3_business_search&utm_source=-1a8ZLzJ76_AvFzvJVcndQ", "review_count": 177, "categories": [{"alias": "mexican", "title": "Mexican"}], "rating": 3.5, "coordinates": {"latitude": 37.233708, "longitude": -121.978949}, "transactions": ["delivery", "pickup"], "price": "$$", "location": {"address1": "551 N Santa Cruz Ave", "address2": "", "address3": "", "city": "Los Gatos", "zip_code": "95030", "country": "US", "state": "CA", "display_address": ["551 N Santa Cruz Ave", "Los Gatos, CA 95030"]}, "phone": "+14088848599", "display_phone": "(408) 884-8599", "distance": 2239.262065651712}, {"id": "ZWjdfOSmSoBw4ZuPRTwQgw", "alias": "dona-maria-san-jose", "name": "Dona Maria", "image_url": "https://s3-media2.fl.yelpcdn.com/bphoto/msTToSwr4UwWtpoZra7g6g/o.jpg", "is_closed": false, "url": "https://www.yelp.com/biz/dona-maria-san-jose?adjust_creative=-1a8ZLzJ76_AvFzvJVcndQ&utm_campaign=yelp_api_v3&utm_medium=api_v3_business_search&utm_source=-1a8ZLzJ76_AvFzvJVcndQ", "review_count": 454, "categories": [{"alias": "mexican", "title": "Mexican"}], "rating": 4.0, "coordinates": {"latitude": 37.2586163878441, "longitude": -121.947826445103}, "transactions": [], "price": "$$", "location": {"address1": "3974 S Bascom Ave", "address2": "", "address3": "", "city": "San Jose", "zip_code": "95124", "country": "US", "state": "CA", "display_address": ["3974 S Bascom Ave", "San Jose, CA 95124"]}, "phone": "+14085591768", "display_phone": "(408) 559-1768", "distance": 2191.4625726202316}, {"id": "56SHn-TCpnGgATAVZV4mhA", "alias": "pedros-restaurant-and-cantina-los-gatos-2", "name": "Pedro's Restaurant & Cantina", "image_url": "https://s3-media3.fl.yelpcdn.com/bphoto/jl41vSa3aGhLYCYOkKvZvg/o.jpg", "is_closed": false, "url": "https://www.yelp.com/biz/pedros-restaurant-and-cantina-los-gatos-2?adjust_creative=-1a8ZLzJ76_AvFzvJVcndQ&utm_campaign=yelp_api_v3&utm_medium=api_v3_business_search&utm_source=-1a8ZLzJ76_AvFzvJVcndQ", "review_count": 524, "categories": [{"alias": "mexican", "title": "Mexican"}, {"alias": "bars", "title": "Bars"}, {"alias": "diners", "title": "Diners"}], "rating": 3.0, "coordinates": {"latitude": 37.227697, "longitude": -121.981441}, "transactions": ["delivery"], "price": "$$", "location": {"address1": "316 N Santa Cruz Ave", "address2": "", "address3": "", "city": "Los Gatos", "zip_code": "95030", "country": "US", "state": "CA", "display_address": ["316 N Santa Cruz Ave", "Los Gatos, CA 95030"]}, "phone": "+14083547570", "display_phone": "(408) 354-7570", "distance": 2707.7990370462207}, {"id": "JwpU-7vEAJXuFcwCG825rA", "alias": "panera-bread-los-gatos-2", "name": "Panera Bread", "image_url": "https://s3-media2.fl.yelpcdn.com/bphoto/O1X8MfcAEZOQqu57u1yEew/o.jpg", "is_closed": false, "url": "https://www.yelp.com/biz/panera-bread-los-gatos-2?adjust_creative=-1a8ZLzJ76_AvFzvJVcndQ&utm_campaign=yelp_api_v3&utm_medium=api_v3_business_search&utm_source=-1a8ZLzJ76_AvFzvJVcndQ", "review_count": 222, "categories": [{"alias": "soup", "title": "Soup"}, {"alias": "sandwiches", "title": "Sandwiches"}, {"alias": "salad", "title": "Salad"}], "rating": 3.0, "coordinates": {"latitude": 37.2476646270003, "longitude": -121.956243664081}, "transactions": [], "price": "$", "location": {"address1": "15200 Los Gatos Blvd", "address2": "Ste 100", "address3": "", "city": "Los Gatos", "zip_code": "95032", "country": "US", "state": "CA", "display_address": ["15200 Los Gatos Blvd", "Ste 100", "Los Gatos, CA 95032"]}, "phone": "+14083562142", "display_phone": "(408) 356-2142", "distance": 905.0541852789765}, {"id": "V-H6NWcL0v99SbSRJRu3WA", "alias": "dona-maria-los-gatos", "name": "Dona Maria", "image_url": "https://s3-media2.fl.yelpcdn.com/bphoto/mlJhfCjh3QxdjRCwFKq4YA/o.jpg", "is_closed": false, "url": "https://www.yelp.com/biz/dona-maria-los-gatos?adjust_creative=-1a8ZLzJ76_AvFzvJVcndQ&utm_campaign=yelp_api_v3&utm_medium=api_v3_business_search&utm_source=-1a8ZLzJ76_AvFzvJVcndQ", "review_count": 112, "categories": [{"alias": "mexican", "title": "Mexican"}], "rating": 3.0, "coordinates": {"latitude": 37.2343913747328, "longitude": -121.961297137883}, "transactions": [], "price": "$$", "location": {"address1": "790 Blossom Hill Rd", "address2": "", "address3": null, "city": "Los Gatos", "zip_code": "95032", "country": "US", "state": "CA", "display_address": ["790 Blossom Hill Rd", "Los Gatos, CA 95032"]}, "phone": "+14083565677", "display_phone": "(408) 356-5677", "distance": 819.2640522133469}, {"id": "yDTUa9oEPBIjaaH3DRKE5A", "alias": "purple-onion-cafe-los-gatos", "name": "Purple Onion Cafe", "image_url": "https://s3-media4.fl.yelpcdn.com/bphoto/8qmFZroVjXnPZjmG3P4cgA/o.jpg", "is_closed": false, "url": "https://www.yelp.com/biz/purple-onion-cafe-los-gatos?adjust_creative=-1a8ZLzJ76_AvFzvJVcndQ&utm_campaign=yelp_api_v3&utm_medium=api_v3_business_search&utm_source=-1a8ZLzJ76_AvFzvJVcndQ", "review_count": 395, "categories": [{"alias": "tradamerican", "title": "American (Traditional)"}, {"alias": "breakfast_brunch", "title": "Breakfast & Brunch"}, {"alias": "cafes", "title": "Cafes"}], "rating": 3.5, "coordinates": {"latitude": 37.2212125, "longitude": -121.9806376}, "transactions": [], "price": "$$", "location": {"address1": "26 E Main St", "address2": "", "address3": "", "city": "Los Gatos", "zip_code": "95030", "country": "US", "state": "CA", "display_address": ["26 E Main St", "Los Gatos, CA 95030"]}, "phone": "+14083544125", "display_phone": "(408) 354-4125", "distance": 3071.1648832852434}, {"id": "jFfZQYQHkOonA6IU9a2Fog", "alias": "baja-fresh-los-gatos-2", "name": "Baja Fresh", "image_url": "https://s3-media3.fl.yelpcdn.com/bphoto/yxnnEzZGW2S5X7TPm8Kvew/o.jpg", "is_closed": false, "url": "https://www.yelp.com/biz/baja-fresh-los-gatos-2?adjust_creative=-1a8ZLzJ76_AvFzvJVcndQ&utm_campaign=yelp_api_v3&utm_medium=api_v3_business_search&utm_source=-1a8ZLzJ76_AvFzvJVcndQ", "review_count": 58, "categories": [{"alias": "mexican", "title": "Mexican"}, {"alias": "tex-mex", "title": "Tex-Mex"}, {"alias": "hotdogs", "title": "Fast Food"}], "rating": 4.0, "coordinates": {"latitude": 37.24443, "longitude": -121.95808}, "transactions": ["delivery", "pickup"], "price": "$", "location": {"address1": "15466 Los Gatos Blvd", "address2": "", "address3": "", "city": "Los Gatos", "zip_code": "95032", "country": "US", "state": "CA", "display_address": ["15466 Los Gatos Blvd", "Los Gatos, CA 95032"]}, "phone": "+14083562252", "display_phone": "(408) 356-2252", "distance": 574.2850335128877}, {"id": "SvRWkmRCyIeeYRMt_h8nfg", "alias": "tu-mero-mole-san-jose", "name": "Tu Mero Mole", "image_url": "https://s3-media2.fl.yelpcdn.com/bphoto/qA31V5W-Pf_7ghH7f4Lp4Q/o.jpg", "is_closed": false, "url": "https://www.yelp.com/biz/tu-mero-mole-san-jose?adjust_creative=-1a8ZLzJ76_AvFzvJVcndQ&utm_campaign=yelp_api_v3&utm_medium=api_v3_business_search&utm_source=-1a8ZLzJ76_AvFzvJVcndQ", "review_count": 839, "categories": [{"alias": "mexican", "title": "Mexican"}], "rating": 4.0, "coordinates": {"latitude": 37.2604258099066, "longitude": -121.932331323624}, "transactions": [], "price": "$", "location": {"address1": "2041 Woodard Rd", "address2": "", "address3": "", "city": "San Jose", "zip_code": "95124", "country": "US", "state": "CA", "display_address": ["2041 Woodard Rd", "San Jose, CA 95124"]}, "phone": "+14083699559", "display_phone": "(408) 369-9559", "distance": 3049.566824519661}, {"id": "uZ6dtKdsch-jJWQYPDwunA", "alias": "cleland-loft-los-gatos", "name": "Cleland Loft", "image_url": "https://s3-media4.fl.yelpcdn.com/bphoto/Oua5iLwY9uPfq2fwH9iyFw/o.jpg", "is_closed": false, "url": "https://www.yelp.com/biz/cleland-loft-los-gatos?adjust_creative=-1a8ZLzJ76_AvFzvJVcndQ&utm_campaign=yelp_api_v3&utm_medium=api_v3_business_search&utm_source=-1a8ZLzJ76_AvFzvJVcndQ", "review_count": 2, "categories": [{"alias": "gourmet", "title": "Specialty Food"}, {"alias": "italian", "title": "Italian"}], "rating": 4.5, "coordinates": {"latitude": 37.22131, "longitude": -121.97927}, "transactions": [], "price": "$$", "location": {"address1": "", "address2": "", "address3": "", "city": "Los Gatos", "zip_code": "", "country": "US", "state": "CA", "display_address": ["Los Gatos, CA"]}, "phone": "", "display_phone": "", "distance": 795.3878673139828}, {"id": "O0Cc7FAkN_0ngpPLlMax1Q", "alias": "snack-shack-los-gatos", "name": "Snack Shack", "image_url": "https://s3-media2.fl.yelpcdn.com/bphoto/wk1upyBfyOua3XuoK7NRKg/o.jpg", "is_closed": false, "url": "https://www.yelp.com/biz/snack-shack-los-gatos?adjust_creative=-1a8ZLzJ76_AvFzvJVcndQ&utm_campaign=yelp_api_v3&utm_medium=api_v3_business_search&utm_source=-1a8ZLzJ76_AvFzvJVcndQ", "review_count": 5, "categories": [{"alias": "cafes", "title": "Cafes"}], "rating": 5.0, "coordinates": {"latitude": 37.23907, "longitude": -121.9414}, "transactions": [], "price": "$", "location": {"address1": "200 Blossom Valley Dr", "address2": "", "address3": "Branham Hills Girls Softball", "city": "Los Gatos", "zip_code": "95032", "country": "US", "state": "CA", "display_address": ["200 Blossom Valley Dr", "Branham Hills Girls Softball", "Los Gatos, CA 95032"]}, "phone": "+14084398515", "display_phone": "(408) 439-8515", "distance": 1155.6326094021379}, {"id": "vXjB-tafK4xjriB6Bmg7lA", "alias": "sweet-peas-cafe-and-catering-los-gatos-3", "name": "Sweet Pea's Cafe & Catering", "image_url": "https://s3-media4.fl.yelpcdn.com/bphoto/Y544866o_a0kGIecV3fEbA/o.jpg", "is_closed": false, "url": "https://www.yelp.com/biz/sweet-peas-cafe-and-catering-los-gatos-3?adjust_creative=-1a8ZLzJ76_AvFzvJVcndQ&utm_campaign=yelp_api_v3&utm_medium=api_v3_business_search&utm_source=-1a8ZLzJ76_AvFzvJVcndQ", "review_count": 530, "categories": [{"alias": "creperies", "title": "Creperies"}, {"alias": "sandwiches", "title": "Sandwiches"}, {"alias": "breakfast_brunch", "title": "Breakfast & Brunch"}], "rating": 3.5, "coordinates": {"latitude": 37.2310829162598, "longitude": -121.980308532715}, "transactions": ["delivery", "pickup"], "price": "$", "location": {"address1": "453 N Santa Cruz Ave", "address2": "", "address3": "", "city": "Los Gatos", "zip_code": "95030", "country": "US", "state": "CA", "display_address": ["453 N Santa Cruz Ave", "Los Gatos, CA 95030"]}, "phone": "+14083543144", "display_phone": "(408) 354-3144", "distance": 2455.1628341777014}, {"id": "xeHttsDdvDVrcKhX5o-y3w", "alias": "halal-gyro-express-campbell", "name": "Halal gyro express", "image_url": "https://s3-media4.fl.yelpcdn.com/bphoto/lPf-0NU4VA3I3B2R2gnabA/o.jpg", "is_closed": false, "url": "https://www.yelp.com/biz/halal-gyro-express-campbell?adjust_creative=-1a8ZLzJ76_AvFzvJVcndQ&utm_campaign=yelp_api_v3&utm_medium=api_v3_business_search&utm_source=-1a8ZLzJ76_AvFzvJVcndQ", "review_count": 77, "categories": [{"alias": "mediterranean", "title": "Mediterranean"}, {"alias": "halal", "title": "Halal"}], "rating": 4.0, "coordinates": {"latitude": 37.26615, "longitude": -121.9417}, "transactions": ["delivery", "pickup"], "price": "$$", "location": {"address1": "3155 S Bascom Ave", "address2": null, "address3": "", "city": "Campbell", "zip_code": "95008", "country": "US", "state": "CA", "display_address": ["3155 S Bascom Ave", "Campbell, CA 95008"]}, "phone": "+14083405465", "display_phone": "(408) 340-5465", "distance": 3172.724915550727}, {"id": "mNkLBCGMJ9VGjs3mLBdLhQ", "alias": "double-ds-sports-grille-los-gatos-2", "name": "Double D's Sports Grille", "image_url": "https://s3-media1.fl.yelpcdn.com/bphoto/IWvgVTxp_yfOZI70Uj2n3g/o.jpg", "is_closed": false, "url": "https://www.yelp.com/biz/double-ds-sports-grille-los-gatos-2?adjust_creative=-1a8ZLzJ76_AvFzvJVcndQ&utm_campaign=yelp_api_v3&utm_medium=api_v3_business_search&utm_source=-1a8ZLzJ76_AvFzvJVcndQ", "review_count": 308, "categories": [{"alias": "sportsbars", "title": "Sports Bars"}, {"alias": "salad", "title": "Salad"}, {"alias": "burgers", "title": "Burgers"}], "rating": 3.5, "coordinates": {"latitude": 37.228569, "longitude": -121.980846}, "transactions": [], "price": "$$", "location": {"address1": "354 N Santa Cruz Ave", "address2": null, "address3": "", "city": "Los Gatos", "zip_code": "95030", "country": "US", "state": "CA", "display_address": ["354 N Santa Cruz Ave", "Los Gatos, CA 95030"]}, "phone": "+14084023407", "display_phone": "(408) 402-3407", "distance": 2615.0699008611587}, {"id": "1ZfOHTsX_Bvkqou2mSSxQg", "alias": "los-gatos-lodge-bar-and-grill-los-gatos", "name": "Los Gatos Lodge Bar & Grill", "image_url": "https://s3-media1.fl.yelpcdn.com/bphoto/GLjhKTurZrmW4nGGOXEJZQ/o.jpg", "is_closed": false, "url": "https://www.yelp.com/biz/los-gatos-lodge-bar-and-grill-los-gatos?adjust_creative=-1a8ZLzJ76_AvFzvJVcndQ&utm_campaign=yelp_api_v3&utm_medium=api_v3_business_search&utm_source=-1a8ZLzJ76_AvFzvJVcndQ", "review_count": 31, "categories": [{"alias": "bars", "title": "Bars"}, {"alias": "salad", "title": "Salad"}, {"alias": "sandwiches", "title": "Sandwiches"}], "rating": 3.0, "coordinates": {"latitude": 37.225677, "longitude": -121.9719977}, "transactions": [], "price": "$$", "location": {"address1": "50 Los Gatos Saratoga Rd", "address2": "", "address3": "", "city": "Los Gatos", "zip_code": "95030", "country": "US", "state": "CA", "display_address": ["50 Los Gatos Saratoga Rd", "Los Gatos, CA 95030"]}, "phone": "+14083543300", "display_phone": "(408) 354-3300", "distance": 2244.6950358479235}, {"id": "4Pr1G5olABPmItHKWqtyew", "alias": "al-castello-ristorante-and-pizzeria-san-jose", "name": "Al Castello Ristorante & Pizzeria", "image_url": "https://s3-media2.fl.yelpcdn.com/bphoto/iP7OooZMWHH8V_ssEuCZug/o.jpg", "is_closed": false, "url": "https://www.yelp.com/biz/al-castello-ristorante-and-pizzeria-san-jose?adjust_creative=-1a8ZLzJ76_AvFzvJVcndQ&utm_campaign=yelp_api_v3&utm_medium=api_v3_business_search&utm_source=-1a8ZLzJ76_AvFzvJVcndQ", "review_count": 327, "categories": [{"alias": "italian", "title": "Italian"}, {"alias": "pizza", "title": "Pizza"}, {"alias": "seafood", "title": "Seafood"}], "rating": 4.0, "coordinates": {"latitude": 37.262792, "longitude": -121.93519}, "transactions": ["delivery"], "price": "$$", "location": {"address1": "2083 Camden Ave", "address2": "", "address3": "", "city": "San Jose", "zip_code": "95124", "country": "US", "state": "CA", "display_address": ["2083 Camden Ave", "San Jose, CA 95124"]}, "phone": "+14083699820", "display_phone": "(408) 369-9820", "distance": 3085.432575553126}, {"id": "WGAUQOKo4lhNK5k4NGvTtA", "alias": "jersey-mikes-subs-los-gatos", "name": "Jersey Mike's Subs", "image_url": "https://s3-media1.fl.yelpcdn.com/bphoto/UGKrrxDfo0MWdTtWtvBSZg/o.jpg", "is_closed": false, "url": "https://www.yelp.com/biz/jersey-mikes-subs-los-gatos?adjust_creative=-1a8ZLzJ76_AvFzvJVcndQ&utm_campaign=yelp_api_v3&utm_medium=api_v3_business_search&utm_source=-1a8ZLzJ76_AvFzvJVcndQ", "review_count": 126, "categories": [{"alias": "delis", "title": "Delis"}, {"alias": "sandwiches", "title": "Sandwiches"}, {"alias": "hotdogs", "title": "Fast Food"}], "rating": 4.0, "coordinates": {"latitude": 37.242466, "longitude": -121.9313449}, "transactions": ["delivery", "pickup"], "price": "$$", "location": {"address1": "15527 Union Ave", "address2": "", "address3": "", "city": "Los Gatos", "zip_code": "95032", "country": "US", "state": "CA", "display_address": ["15527 Union Ave", "Los Gatos, CA 95032"]}, "phone": "+14084298802", "display_phone": "(408) 429-8802", "distance": 2028.0169208188759}, {"id": "Yylq_BmyPCwi-Dzgh8CUMA", "alias": "pars-kosher-market-and-deli-san-jose", "name": "Pars Kosher Market & Deli", "image_url": "https://s3-media3.fl.yelpcdn.com/bphoto/c2zUXI14kvPGoBlEIQG8Yg/o.jpg", "is_closed": false, "url": "https://www.yelp.com/biz/pars-kosher-market-and-deli-san-jose?adjust_creative=-1a8ZLzJ76_AvFzvJVcndQ&utm_campaign=yelp_api_v3&utm_medium=api_v3_business_search&utm_source=-1a8ZLzJ76_AvFzvJVcndQ", "review_count": 53, "categories": [{"alias": "healthmarkets", "title": "Health Markets"}, {"alias": "kosher", "title": "Kosher"}, {"alias": "delis", "title": "Delis"}], "rating": 4.5, "coordinates": {"latitude": 37.258318, "longitude": -121.9479414}, "transactions": [], "price": "$$", "location": {"address1": "3978 S Bascom Ave", "address2": "", "address3": "", "city": "San Jose", "zip_code": "95124", "country": "US", "state": "CA", "display_address": ["3978 S Bascom Ave", "San Jose, CA 95124"]}, "phone": "+14083405443", "display_phone": "(408) 340-5443", "distance": 2179.3310331564694}, {"id": "gCaJdTKMtVgVlkaVkCqdSA", "alias": "chipotle-mexican-grill-los-gatos", "name": "Chipotle Mexican Grill", "image_url": "https://s3-media2.fl.yelpcdn.com/bphoto/Fg88K3Kh4cwPEt_yFA-_RQ/o.jpg", "is_closed": false, "url": "https://www.yelp.com/biz/chipotle-mexican-grill-los-gatos?adjust_creative=-1a8ZLzJ76_AvFzvJVcndQ&utm_campaign=yelp_api_v3&utm_medium=api_v3_business_search&utm_source=-1a8ZLzJ76_AvFzvJVcndQ", "review_count": 124, "categories": [{"alias": "mexican", "title": "Mexican"}, {"alias": "hotdogs", "title": "Fast Food"}], "rating": 2.0, "coordinates": {"latitude": 37.2353535041666, "longitude": -121.9636567211}, "transactions": [], "price": "$", "location": {"address1": "640 Blossom Hill Rd", "address2": "", "address3": "", "city": "Los Gatos", "zip_code": "95032", "country": "US", "state": "CA", "display_address": ["640 Blossom Hill Rd", "Los Gatos, CA 95032"]}, "phone": "+14083537133", "display_phone": "(408) 353-7133", "distance": 918.5071590340784}, {"id": "rJ6ZJ0W2Sw23Yc6z8c2HSg", "alias": "eriks-delicaf\u00e9-los-gatos-2", "name": "Erik's DeliCaf\u00e9", "image_url": "https://s3-media2.fl.yelpcdn.com/bphoto/Jtnu61PKsrp_v6fvo8ZUoQ/o.jpg", "is_closed": false, "url": "https://www.yelp.com/biz/eriks-delicaf%C3%A9-los-gatos-2?adjust_creative=-1a8ZLzJ76_AvFzvJVcndQ&utm_campaign=yelp_api_v3&utm_medium=api_v3_business_search&utm_source=-1a8ZLzJ76_AvFzvJVcndQ", "review_count": 61, "categories": [{"alias": "delis", "title": "Delis"}, {"alias": "soup", "title": "Soup"}, {"alias": "sandwiches", "title": "Sandwiches"}], "rating": 3.5, "coordinates": {"latitude": 37.244018660687, "longitude": -121.96082842034}, "transactions": ["pickup"], "price": "$", "location": {"address1": "15495 Los Gatos Blvd", "address2": "", "address3": "", "city": "Los Gatos", "zip_code": "95032", "country": "US", "state": "CA", "display_address": ["15495 Los Gatos Blvd", "Los Gatos, CA 95032"]}, "phone": "+14083956363", "display_phone": "(408) 395-6363", "distance": 726.8337897194978}, {"id": "sB8Z558zaeZDO_Q4oIdO4A", "alias": "campbell-pizza-campbell-2", "name": "Campbell Pizza", "image_url": "https://s3-media1.fl.yelpcdn.com/bphoto/okochuTVarIrtXN_U3tykA/o.jpg", "is_closed": false, "url": "https://www.yelp.com/biz/campbell-pizza-campbell-2?adjust_creative=-1a8ZLzJ76_AvFzvJVcndQ&utm_campaign=yelp_api_v3&utm_medium=api_v3_business_search&utm_source=-1a8ZLzJ76_AvFzvJVcndQ", "review_count": 122, "categories": [{"alias": "pizza", "title": "Pizza"}, {"alias": "chicken_wings", "title": "Chicken Wings"}, {"alias": "burgers", "title": "Burgers"}], "rating": 4.5, "coordinates": {"latitude": 37.2636470761864, "longitude": -121.961255930364}, "transactions": ["delivery", "pickup"], "price": "$$", "location": {"address1": "3393 Winchester Blvd", "address2": "", "address3": null, "city": "Campbell", "zip_code": "95008", "country": "US", "state": "CA", "display_address": ["3393 Winchester Blvd", "Campbell, CA 95008"]}, "phone": "+14088661202", "display_phone": "(408) 866-1202", "distance": 2733.7520350476098}, {"id": "fKSTP8ChMja60eGZIntZ2Q", "alias": "maple-leaf-donuts-los-gatos", "name": "Maple Leaf Donuts", "image_url": "https://s3-media2.fl.yelpcdn.com/bphoto/WytqwRq8KVncsBKdhsYv_Q/o.jpg", "is_closed": false, "url": "https://www.yelp.com/biz/maple-leaf-donuts-los-gatos?adjust_creative=-1a8ZLzJ76_AvFzvJVcndQ&utm_campaign=yelp_api_v3&utm_medium=api_v3_business_search&utm_source=-1a8ZLzJ76_AvFzvJVcndQ", "review_count": 64, "categories": [{"alias": "donuts", "title": "Donuts"}, {"alias": "coffee", "title": "Coffee & Tea"}, {"alias": "sandwiches", "title": "Sandwiches"}], "rating": 4.0, "coordinates": {"latitude": 37.233335, "longitude": -121.9786477}, "transactions": [], "price": "$", "location": {"address1": "540 N Santa Cruz Ave", "address2": "Ste J", "address3": "", "city": "Los Gatos", "zip_code": "95030", "country": "US", "state": "CA", "display_address": ["540 N Santa Cruz Ave", "Ste J", "Los Gatos, CA 95030"]}, "phone": "+14083950205", "display_phone": "(408) 395-0205", "distance": 2226.4287115852085}, {"id": "4wfJnBNePUur1kqxb8ztyw", "alias": "isfahan-kabob-san-jose", "name": "Isfahan Kabob", "image_url": "https://s3-media1.fl.yelpcdn.com/bphoto/lY5G0gnLH-S2Pd2sMKWwqw/o.jpg", "is_closed": false, "url": "https://www.yelp.com/biz/isfahan-kabob-san-jose?adjust_creative=-1a8ZLzJ76_AvFzvJVcndQ&utm_campaign=yelp_api_v3&utm_medium=api_v3_business_search&utm_source=-1a8ZLzJ76_AvFzvJVcndQ", "review_count": 341, "categories": [{"alias": "persian", "title": "Persian/Iranian"}], "rating": 4.0, "coordinates": {"latitude": 37.26682, "longitude": -121.93111}, "transactions": ["pickup"], "price": "$$", "location": {"address1": "3014 Union Ave", "address2": "", "address3": "", "city": "San Jose", "zip_code": "95124", "country": "US", "state": "CA", "display_address": ["3014 Union Ave", "San Jose, CA 95124"]}, "phone": "+14085591555", "display_phone": "(408) 559-1555", "distance": 3676.1655447304597}, {"id": "AKjmDGEefn8Q-SkP-3zc2A", "alias": "subway-restaurants-los-gatos", "name": "Subway Restaurants", "image_url": "https://s3-media4.fl.yelpcdn.com/bphoto/Ney5bK-MpE-7TcauL19t6Q/o.jpg", "is_closed": false, "url": "https://www.yelp.com/biz/subway-restaurants-los-gatos?adjust_creative=-1a8ZLzJ76_AvFzvJVcndQ&utm_campaign=yelp_api_v3&utm_medium=api_v3_business_search&utm_source=-1a8ZLzJ76_AvFzvJVcndQ", "review_count": 41, "categories": [{"alias": "sandwiches", "title": "Sandwiches"}], "rating": 3.0, "coordinates": {"latitude": 37.25362, "longitude": -121.95266}, "transactions": ["delivery", "pickup"], "price": "$", "location": {"address1": "14777 Los Gatos Blvd", "address2": "Suite 103", "address3": "", "city": "Los Gatos", "zip_code": "95032", "country": "US", "state": "CA", "display_address": ["14777 Los Gatos Blvd", "Suite 103", "Los Gatos, CA 95032"]}, "phone": "+14083568193", "display_phone": "(408) 356-8193", "distance": 1576.1386421679135}, {"id": "_1Y2gD-q_Uy10sTav6m5Kg", "alias": "una-mas-mexican-grill-los-gatos-2", "name": "Una Mas Mexican Grill", "image_url": "https://s3-media4.fl.yelpcdn.com/bphoto/xE9ao7KLg8NK8KWovC0flw/o.jpg", "is_closed": false, "url": "https://www.yelp.com/biz/una-mas-mexican-grill-los-gatos-2?adjust_creative=-1a8ZLzJ76_AvFzvJVcndQ&utm_campaign=yelp_api_v3&utm_medium=api_v3_business_search&utm_source=-1a8ZLzJ76_AvFzvJVcndQ", "review_count": 50, "categories": [{"alias": "mexican", "title": "Mexican"}], "rating": 3.5, "coordinates": {"latitude": 37.2396697, "longitude": -121.9608814}, "transactions": ["delivery", "pickup"], "price": "$", "location": {"address1": "15724 Los Gatos Blvd", "address2": "", "address3": "", "city": "Los Gatos", "zip_code": "95032", "country": "US", "state": "CA", "display_address": ["15724 Los Gatos Blvd", "Los Gatos, CA 95032"]}, "phone": "+14083588680", "display_phone": "(408) 358-8680", "distance": 501.53016647622184}, {"id": "ZsjzxW5eN1SzojrgD4894A", "alias": "rangoli-india-restaurant-san-jose", "name": "Rangoli India Restaurant", "image_url": "https://s3-media3.fl.yelpcdn.com/bphoto/UwNlCLj2_a486TaSyPl5UQ/o.jpg", "is_closed": false, "url": "https://www.yelp.com/biz/rangoli-india-restaurant-san-jose?adjust_creative=-1a8ZLzJ76_AvFzvJVcndQ&utm_campaign=yelp_api_v3&utm_medium=api_v3_business_search&utm_source=-1a8ZLzJ76_AvFzvJVcndQ", "review_count": 1137, "categories": [{"alias": "indpak", "title": "Indian"}], "rating": 3.5, "coordinates": {"latitude": 37.2605099, "longitude": -121.93186}, "transactions": ["pickup"], "price": "$$", "location": {"address1": "3695 Union Ave", "address2": null, "address3": "", "city": "San Jose", "zip_code": "95124", "country": "US", "state": "CA", "display_address": ["3695 Union Ave", "San Jose, CA 95124"]}, "phone": "+14083772222", "display_phone": "(408) 377-2222", "distance": 3076.345083059931}, {"id": "bc0Alx3dBXBTF1PrQNNSHw", "alias": "purple-onion-cafe-los-gatos-2", "name": "Purple Onion Cafe", "image_url": "https://s3-media3.fl.yelpcdn.com/bphoto/2HvE8KkkD953gv6LzsiMdg/o.jpg", "is_closed": false, "url": "https://www.yelp.com/biz/purple-onion-cafe-los-gatos-2?adjust_creative=-1a8ZLzJ76_AvFzvJVcndQ&utm_campaign=yelp_api_v3&utm_medium=api_v3_business_search&utm_source=-1a8ZLzJ76_AvFzvJVcndQ", "review_count": 225, "categories": [{"alias": "cafes", "title": "Cafes"}, {"alias": "breakfast_brunch", "title": "Breakfast & Brunch"}, {"alias": "sandwiches", "title": "Sandwiches"}], "rating": 3.5, "coordinates": {"latitude": 37.26251, "longitude": -121.96227}, "transactions": [], "price": "$$", "location": {"address1": "14107 Winchester Blvd", "address2": "Ste R", "address3": "", "city": "Los Gatos", "zip_code": "95032", "country": "US", "state": "CA", "display_address": ["14107 Winchester Blvd", "Ste R", "Los Gatos, CA 95032"]}, "phone": "+14088712522", "display_phone": "(408) 871-2522", "distance": 2630.23999254415}, {"id": "mQQ78xDN8iPiP-Fr6P0aVg", "alias": "lanna-thai-san-jose", "name": "Lanna Thai", "image_url": "https://s3-media4.fl.yelpcdn.com/bphoto/1q17mYd6zrts_Yp6giixcA/o.jpg", "is_closed": false, "url": "https://www.yelp.com/biz/lanna-thai-san-jose?adjust_creative=-1a8ZLzJ76_AvFzvJVcndQ&utm_campaign=yelp_api_v3&utm_medium=api_v3_business_search&utm_source=-1a8ZLzJ76_AvFzvJVcndQ", "review_count": 611, "categories": [{"alias": "thai", "title": "Thai"}], "rating": 3.5, "coordinates": {"latitude": 37.2627477706291, "longitude": -121.933272478333}, "transactions": ["pickup"], "price": "$$", "location": {"address1": "2043 Camden Ave", "address2": "", "address3": "", "city": "San Jose", "zip_code": "95124", "country": "US", "state": "CA", "display_address": ["2043 Camden Ave", "San Jose, CA 95124"]}, "phone": "+14086267718", "display_phone": "(408) 626-7718", "distance": 3199.6402209832604}, {"id": "RRcR98JTiD-dYEZSBEgegA", "alias": "togo-s-sandwiches-los-gatos", "name": "Togo\u2019s Sandwiches", "image_url": "https://s3-media2.fl.yelpcdn.com/bphoto/A0ePoXkER3yq0Q4KzYKoIw/o.jpg", "is_closed": false, "url": "https://www.yelp.com/biz/togo-s-sandwiches-los-gatos?adjust_creative=-1a8ZLzJ76_AvFzvJVcndQ&utm_campaign=yelp_api_v3&utm_medium=api_v3_business_search&utm_source=-1a8ZLzJ76_AvFzvJVcndQ", "review_count": 67, "categories": [{"alias": "sandwiches", "title": "Sandwiches"}, {"alias": "delis", "title": "Delis"}, {"alias": "hotdogs", "title": "Fast Food"}], "rating": 3.0, "coordinates": {"latitude": 37.234595, "longitude": -121.961136}, "transactions": [], "price": "$", "location": {"address1": "794 Blossom Hill Rd", "address2": "", "address3": "", "city": "Los Gatos", "zip_code": "95032", "country": "US", "state": "CA", "display_address": ["794 Blossom Hill Rd", "Los Gatos, CA 95032"]}, "phone": "+14083583463", "display_phone": "(408) 358-3463", "distance": 793.1771801279338}, {"id": "TwCIyHtXft7jxmFBvsEKcw", "alias": "cafe-vida-los-gatos", "name": "cafe vida", "image_url": "https://s3-media2.fl.yelpcdn.com/bphoto/GvCBZH9l4vt7buMvKyuzsQ/o.jpg", "is_closed": false, "url": "https://www.yelp.com/biz/cafe-vida-los-gatos?adjust_creative=-1a8ZLzJ76_AvFzvJVcndQ&utm_campaign=yelp_api_v3&utm_medium=api_v3_business_search&utm_source=-1a8ZLzJ76_AvFzvJVcndQ", "review_count": 2, "categories": [{"alias": "cafes", "title": "Cafes"}], "rating": 3.5, "coordinates": {"latitude": 37.25706, "longitude": -121.96525}, "transactions": [], "location": {"address1": "Inside Courstside Club", "address2": "Winchester Blvd", "address3": null, "city": "Los Gatos", "zip_code": "", "country": "US", "state": "CA", "display_address": ["Inside Courstside Club", "Winchester Blvd", "Los Gatos, CA"]}, "phone": "", "display_phone": "", "distance": 1819.6376633468121}, {"id": "MuW7apCpxfOsckL0pqAX8A", "alias": "heartbeat-cafe-san-jose", "name": "Heartbeat Cafe", "image_url": "https://s3-media3.fl.yelpcdn.com/bphoto/9vGz7_IeGRKgYre_ihkdQQ/o.jpg", "is_closed": false, "url": "https://www.yelp.com/biz/heartbeat-cafe-san-jose?adjust_creative=-1a8ZLzJ76_AvFzvJVcndQ&utm_campaign=yelp_api_v3&utm_medium=api_v3_business_search&utm_source=-1a8ZLzJ76_AvFzvJVcndQ", "review_count": 167, "categories": [{"alias": "coffee", "title": "Coffee & Tea"}, {"alias": "delis", "title": "Delis"}], "rating": 4.0, "coordinates": {"latitude": 37.260792985717, "longitude": -121.930367946625}, "transactions": ["delivery"], "price": "$", "location": {"address1": "14392 Union Ave", "address2": "", "address3": "", "city": "San Jose", "zip_code": "95124", "country": "US", "state": "CA", "display_address": ["14392 Union Ave", "San Jose, CA 95124"]}, "phone": "+14083699078", "display_phone": "(408) 369-9078", "distance": 3195.4400153264087}, {"id": "0h2lY0xqDHVS9gORQJUqAg", "alias": "mcdonalds-los-gatos", "name": "McDonald's", "image_url": "https://s3-media3.fl.yelpcdn.com/bphoto/0hRMSKLBot4MvMWuoPQebA/o.jpg", "is_closed": false, "url": "https://www.yelp.com/biz/mcdonalds-los-gatos?adjust_creative=-1a8ZLzJ76_AvFzvJVcndQ&utm_campaign=yelp_api_v3&utm_medium=api_v3_business_search&utm_source=-1a8ZLzJ76_AvFzvJVcndQ", "review_count": 53, "categories": [{"alias": "burgers", "title": "Burgers"}, {"alias": "hotdogs", "title": "Fast Food"}, {"alias": "coffee", "title": "Coffee & Tea"}], "rating": 2.5, "coordinates": {"latitude": 37.2438456879506, "longitude": -121.959844577875}, "transactions": [], "price": "$", "location": {"address1": "15475 Los Gatos Blvd", "address2": "", "address3": "", "city": "Los Gatos", "zip_code": "95032", "country": "US", "state": "CA", "display_address": ["15475 Los Gatos Blvd", "Los Gatos, CA 95032"]}, "phone": "+14083563095", "display_phone": "(408) 356-3095", "distance": 651.078707019427}, {"id": "8ip64uXg0Jfhe8jIm6OO7A", "alias": "armadillo-willys-bbq-san-jose-2", "name": "Armadillo Willy's BBQ", "image_url": "https://s3-media4.fl.yelpcdn.com/bphoto/w7pTmFwhtoVAz1T9I7HNmw/o.jpg", "is_closed": false, "url": "https://www.yelp.com/biz/armadillo-willys-bbq-san-jose-2?adjust_creative=-1a8ZLzJ76_AvFzvJVcndQ&utm_campaign=yelp_api_v3&utm_medium=api_v3_business_search&utm_source=-1a8ZLzJ76_AvFzvJVcndQ", "review_count": 287, "categories": [{"alias": "bbq", "title": "Barbeque"}, {"alias": "catering", "title": "Caterers"}, {"alias": "tradamerican", "title": "American (Traditional)"}], "rating": 3.0, "coordinates": {"latitude": 37.262916, "longitude": -121.934896}, "transactions": [], "price": "$$", "location": {"address1": "2071 Camden Ave", "address2": "", "address3": "", "city": "San Jose", "zip_code": "95124", "country": "US", "state": "CA", "display_address": ["2071 Camden Ave", "San Jose, CA 95124"]}, "phone": "+14083719033", "display_phone": "(408) 371-9033", "distance": 3131.8078222428067}, {"id": "8sd2FqfgT2cgYRBpD_rQBA", "alias": "zoom-caffe-san-jose-3", "name": "Zoom Caffe", "image_url": "https://s3-media2.fl.yelpcdn.com/bphoto/8WQ7KXl3mg7Yed4b1tmydg/o.jpg", "is_closed": false, "url": "https://www.yelp.com/biz/zoom-caffe-san-jose-3?adjust_creative=-1a8ZLzJ76_AvFzvJVcndQ&utm_campaign=yelp_api_v3&utm_medium=api_v3_business_search&utm_source=-1a8ZLzJ76_AvFzvJVcndQ", "review_count": 1, "categories": [{"alias": "coffee", "title": "Coffee & Tea"}, {"alias": "cafes", "title": "Cafes"}, {"alias": "sandwiches", "title": "Sandwiches"}], "rating": 5.0, "coordinates": {"latitude": 37.25321, "longitude": -121.95129}, "transactions": [], "location": {"address1": "2589 Samaritan Dr", "address2": null, "address3": "", "city": "San Jose", "zip_code": "95124", "country": "US", "state": "CA", "display_address": ["2589 Samaritan Dr", "San Jose, CA 95124"]}, "phone": "+16503846663", "display_phone": "(650) 384-6663", "distance": 1558.884191363039}, {"id": "I8KP7xGVTVPM_2DoHy-Y-Q", "alias": "jack-in-the-box-los-gatos", "name": "Jack in the Box", "image_url": "https://s3-media1.fl.yelpcdn.com/bphoto/m9hGXXnasyMKl77NPjooBw/o.jpg", "is_closed": false, "url": "https://www.yelp.com/biz/jack-in-the-box-los-gatos?adjust_creative=-1a8ZLzJ76_AvFzvJVcndQ&utm_campaign=yelp_api_v3&utm_medium=api_v3_business_search&utm_source=-1a8ZLzJ76_AvFzvJVcndQ", "review_count": 46, "categories": [{"alias": "hotdogs", "title": "Fast Food"}, {"alias": "burgers", "title": "Burgers"}, {"alias": "tacos", "title": "Tacos"}], "rating": 2.5, "coordinates": {"latitude": 37.2394517, "longitude": -121.961672008038}, "transactions": [], "price": "$", "location": {"address1": "15771 Los Gatos Blvd", "address2": "", "address3": "", "city": "Los Gatos", "zip_code": "95032", "country": "US", "state": "CA", "display_address": ["15771 Los Gatos Blvd", "Los Gatos, CA 95032"]}, "phone": "+14083561049", "display_phone": "(408) 356-1049", "distance": 611.6606779609402}, {"id": "jz32HMaVXEMS4yOwF_gtkA", "alias": "wingstop-campbell", "name": "Wingstop", "image_url": "https://s3-media4.fl.yelpcdn.com/bphoto/4AaTN42LQLzjArsdiRoHdg/o.jpg", "is_closed": false, "url": "https://www.yelp.com/biz/wingstop-campbell?adjust_creative=-1a8ZLzJ76_AvFzvJVcndQ&utm_campaign=yelp_api_v3&utm_medium=api_v3_business_search&utm_source=-1a8ZLzJ76_AvFzvJVcndQ", "review_count": 232, "categories": [{"alias": "chicken_wings", "title": "Chicken Wings"}], "rating": 2.5, "coordinates": {"latitude": 37.2661399841309, "longitude": -121.941688537598}, "transactions": [], "price": "$$", "location": {"address1": "3155 S Bascom Ave", "address2": "", "address3": "", "city": "Campbell", "zip_code": "95008", "country": "US", "state": "CA", "display_address": ["3155 S Bascom Ave", "Campbell, CA 95008"]}, "phone": "+14086269464", "display_phone": "(408) 626-9464", "distance": 3172.724915550727}, {"id": "38SKYx7t6DBdnjp2921UnA", "alias": "chef-li-san-jose", "name": "Chef Li", "image_url": "https://s3-media3.fl.yelpcdn.com/bphoto/wybn2yDPqI7bFWFKk8STow/o.jpg", "is_closed": false, "url": "https://www.yelp.com/biz/chef-li-san-jose?adjust_creative=-1a8ZLzJ76_AvFzvJVcndQ&utm_campaign=yelp_api_v3&utm_medium=api_v3_business_search&utm_source=-1a8ZLzJ76_AvFzvJVcndQ", "review_count": 276, "categories": [{"alias": "chinese", "title": "Chinese"}, {"alias": "seafood", "title": "Seafood"}, {"alias": "soup", "title": "Soup"}], "rating": 3.0, "coordinates": {"latitude": 37.26223, "longitude": -121.93333}, "transactions": [], "price": "$$", "location": {"address1": "2033 Camden Ave", "address2": null, "address3": "", "city": "San Jose", "zip_code": "95124", "country": "US", "state": "CA", "display_address": ["2033 Camden Ave", "San Jose, CA 95124"]}, "phone": "+14083771168", "display_phone": "(408) 377-1168", "distance": 3144.0334716215734}, {"id": "dWj2ZDLJ4aba_XSPxVaDFw", "alias": "kfc-los-gatos-2", "name": "KFC", "image_url": "https://s3-media4.fl.yelpcdn.com/bphoto/glMjXyUuHwB3DugnNC5yEQ/o.jpg", "is_closed": false, "url": "https://www.yelp.com/biz/kfc-los-gatos-2?adjust_creative=-1a8ZLzJ76_AvFzvJVcndQ&utm_campaign=yelp_api_v3&utm_medium=api_v3_business_search&utm_source=-1a8ZLzJ76_AvFzvJVcndQ", "review_count": 38, "categories": [{"alias": "hotdogs", "title": "Fast Food"}, {"alias": "chicken_wings", "title": "Chicken Wings"}, {"alias": "chickenshop", "title": "Chicken Shop"}], "rating": 2.0, "coordinates": {"latitude": 37.2342143775162, "longitude": -121.963364724322}, "transactions": ["delivery", "pickup"], "price": "$", "location": {"address1": "16150 Los Gatos Blvd", "address2": "", "address3": "", "city": "Los Gatos", "zip_code": "95032", "country": "US", "state": "CA", "display_address": ["16150 Los Gatos Blvd", "Los Gatos, CA 95032"]}, "phone": "+14083564030", "display_phone": "(408) 356-4030", "distance": 969.3332792976091}, {"id": "EZfRnF4cyYSDSi8LqcPjWg", "alias": "taco-bell-los-gatos", "name": "Taco Bell", "image_url": "https://s3-media1.fl.yelpcdn.com/bphoto/C9t8fHn7iXGMTvlK8FULIw/o.jpg", "is_closed": false, "url": "https://www.yelp.com/biz/taco-bell-los-gatos?adjust_creative=-1a8ZLzJ76_AvFzvJVcndQ&utm_campaign=yelp_api_v3&utm_medium=api_v3_business_search&utm_source=-1a8ZLzJ76_AvFzvJVcndQ", "review_count": 58, "categories": [{"alias": "hotdogs", "title": "Fast Food"}, {"alias": "tacos", "title": "Tacos"}], "rating": 2.0, "coordinates": {"latitude": 37.234057, "longitude": -121.963518}, "transactions": [], "price": "$", "location": {"address1": "16150 Los Gatos Boulevard", "address2": "", "address3": "", "city": "Los Gatos", "zip_code": "95032", "country": "US", "state": "CA", "display_address": ["16150 Los Gatos Boulevard", "Los Gatos, CA 95032"]}, "phone": "+14083564030", "display_phone": "(408) 356-4030", "distance": 990.8377669272951}, {"id": "O0thLH5SwgO_uXwxaVKc6A", "alias": "chipotle-mexican-grill-san-jose", "name": "Chipotle Mexican Grill", "image_url": "https://s3-media3.fl.yelpcdn.com/bphoto/-q9FuGLk59Bhbzsx66rSbg/o.jpg", "is_closed": false, "url": "https://www.yelp.com/biz/chipotle-mexican-grill-san-jose?adjust_creative=-1a8ZLzJ76_AvFzvJVcndQ&utm_campaign=yelp_api_v3&utm_medium=api_v3_business_search&utm_source=-1a8ZLzJ76_AvFzvJVcndQ", "review_count": 256, "categories": [{"alias": "mexican", "title": "Mexican"}, {"alias": "hotdogs", "title": "Fast Food"}], "rating": 2.5, "coordinates": {"latitude": 37.2621962762183, "longitude": -121.931789626624}, "transactions": [], "price": "$", "location": {"address1": "2007 Camden Ave", "address2": "Ste 50", "address3": "", "city": "San Jose", "zip_code": "95124", "country": "US", "state": "CA", "display_address": ["2007 Camden Ave", "Ste 50", "San Jose, CA 95124"]}, "phone": "+14083698163", "display_phone": "(408) 369-8163", "distance": 3231.4903794269358}, {"id": "TW5RHErCDe5Qm2BpeAhK1A", "alias": "ishi-shima-sushi-san-jose", "name": "Ishi Shima Sushi", "image_url": "https://s3-media3.fl.yelpcdn.com/bphoto/XL-1qCoyZkirqS0-62Ur9Q/o.jpg", "is_closed": false, "url": "https://www.yelp.com/biz/ishi-shima-sushi-san-jose?adjust_creative=-1a8ZLzJ76_AvFzvJVcndQ&utm_campaign=yelp_api_v3&utm_medium=api_v3_business_search&utm_source=-1a8ZLzJ76_AvFzvJVcndQ", "review_count": 249, "categories": [{"alias": "sushi", "title": "Sushi Bars"}, {"alias": "japanese", "title": "Japanese"}, {"alias": "seafood", "title": "Seafood"}], "rating": 3.5, "coordinates": {"latitude": 37.26281, "longitude": -121.933131}, "transactions": [], "price": "$$", "location": {"address1": "2041 Camden Ave", "address2": "", "address3": "", "city": "San Jose", "zip_code": "95124", "country": "US", "state": "CA", "display_address": ["2041 Camden Ave", "San Jose, CA 95124"]}, "phone": "+14083714702", "display_phone": "(408) 371-4702", "distance": 3212.6540727918627}, {"id": "xnnGAEE45BaBClgDXgCyMA", "alias": "subway-restaurants-los-gatos-3", "name": "Subway Restaurants", "image_url": "https://s3-media1.fl.yelpcdn.com/bphoto/dRx4iuTlu_x22atPGA4eng/o.jpg", "is_closed": false, "url": "https://www.yelp.com/biz/subway-restaurants-los-gatos-3?adjust_creative=-1a8ZLzJ76_AvFzvJVcndQ&utm_campaign=yelp_api_v3&utm_medium=api_v3_business_search&utm_source=-1a8ZLzJ76_AvFzvJVcndQ", "review_count": 33, "categories": [{"alias": "sandwiches", "title": "Sandwiches"}], "rating": 2.5, "coordinates": {"latitude": 37.2333598431675, "longitude": -121.978591366285}, "transactions": [], "price": "$", "location": {"address1": "540-B North Santa Cruz Ave", "address2": "", "address3": "", "city": "Los Gatos", "zip_code": "95030", "country": "US", "state": "CA", "display_address": ["540-B North Santa Cruz Ave", "Los Gatos, CA 95030"]}, "phone": "+14083952090", "display_phone": "(408) 395-2090", "distance": 2220.827029436847}, {"id": "rTLv1Zlp64bK4BOe5SRjoA", "alias": "raoofs-san-jose-bean-pies-san-jose-2", "name": "Raoof's San Jose Bean Pies", "image_url": "https://s3-media3.fl.yelpcdn.com/bphoto/MxgzO7Fq5Fa6iw-MuTQ5CQ/o.jpg", "is_closed": false, "url": "https://www.yelp.com/biz/raoofs-san-jose-bean-pies-san-jose-2?adjust_creative=-1a8ZLzJ76_AvFzvJVcndQ&utm_campaign=yelp_api_v3&utm_medium=api_v3_business_search&utm_source=-1a8ZLzJ76_AvFzvJVcndQ", "review_count": 37, "categories": [{"alias": "bakeries", "title": "Bakeries"}, {"alias": "foodstands", "title": "Food Stands"}, {"alias": "desserts", "title": "Desserts"}], "rating": 5.0, "coordinates": {"latitude": 37.27898, "longitude": -121.95396}, "transactions": [], "price": "$$", "location": {"address1": "", "address2": "", "address3": "", "city": "San Jose", "zip_code": "95008", "country": "US", "state": "CA", "display_address": ["San Jose, CA 95008"]}, "phone": "+14085838129", "display_phone": "(408) 583-8129", "distance": 4160.744077101557}, {"id": "-P1BH2LiiI-xj8nwTKReLw", "alias": "five-guys-san-jose-13", "name": "Five Guys", "image_url": "https://s3-media4.fl.yelpcdn.com/bphoto/1ha6b6vGVk5L0ByIr34z5w/o.jpg", "is_closed": false, "url": "https://www.yelp.com/biz/five-guys-san-jose-13?adjust_creative=-1a8ZLzJ76_AvFzvJVcndQ&utm_campaign=yelp_api_v3&utm_medium=api_v3_business_search&utm_source=-1a8ZLzJ76_AvFzvJVcndQ", "review_count": 43, "categories": [{"alias": "burgers", "title": "Burgers"}, {"alias": "hotdogs", "title": "Fast Food"}], "rating": 3.5, "coordinates": {"latitude": 37.2622541, "longitude": -121.9318384}, "transactions": [], "price": "$$", "location": {"address1": "2007 Camden Ave", "address2": "", "address3": null, "city": "San Jose", "zip_code": "95124", "country": "US", "state": "CA", "display_address": ["2007 Camden Ave", "San Jose, CA 95124"]}, "phone": "+14084298831", "display_phone": "(408) 429-8831", "distance": 3233.7786129974356}, {"id": "ka0xYvCZOrJyEyWAQyrD3g", "alias": "beach-hut-deli-san-jose-3", "name": "Beach Hut Deli", "image_url": "https://s3-media2.fl.yelpcdn.com/bphoto/YBLk2hpK3ZmYE06VV11ZYw/o.jpg", "is_closed": false, "url": "https://www.yelp.com/biz/beach-hut-deli-san-jose-3?adjust_creative=-1a8ZLzJ76_AvFzvJVcndQ&utm_campaign=yelp_api_v3&utm_medium=api_v3_business_search&utm_source=-1a8ZLzJ76_AvFzvJVcndQ", "review_count": 212, "categories": [{"alias": "sandwiches", "title": "Sandwiches"}, {"alias": "delis", "title": "Delis"}], "rating": 3.5, "coordinates": {"latitude": 37.2627906799316, "longitude": -121.935188293457}, "transactions": ["delivery", "pickup"], "price": "$$", "location": {"address1": "2081 Camden Ave", "address2": "", "address3": "", "city": "San Jose", "zip_code": "95124", "country": "US", "state": "CA", "display_address": ["2081 Camden Ave", "San Jose, CA 95124"]}, "phone": "+14085597873", "display_phone": "(408) 559-7873", "distance": 3106.407715477815}, {"id": "_Y526-jjGzk_fjXBj1EePA", "alias": "paddy-wagon-sliders-san-jose-11", "name": "Paddy Wagon Sliders", "image_url": "https://s3-media1.fl.yelpcdn.com/bphoto/ESoDFDH27crUaTgFNhJB0w/o.jpg", "is_closed": false, "url": "https://www.yelp.com/biz/paddy-wagon-sliders-san-jose-11?adjust_creative=-1a8ZLzJ76_AvFzvJVcndQ&utm_campaign=yelp_api_v3&utm_medium=api_v3_business_search&utm_source=-1a8ZLzJ76_AvFzvJVcndQ", "review_count": 225, "categories": [{"alias": "foodtrucks", "title": "Food Trucks"}, {"alias": "burgers", "title": "Burgers"}, {"alias": "catering", "title": "Caterers"}], "rating": 4.0, "coordinates": {"latitude": 37.3382082, "longitude": -121.8863286}, "transactions": [], "price": "$", "location": {"address1": "", "address2": null, "address3": "", "city": "San Jose", "zip_code": "95112", "country": "US", "state": "CA", "display_address": ["San Jose, CA 95112"]}, "phone": "+14086435254", "display_phone": "(408) 643-5254", "distance": 12524.103546306644}, {"id": "rRVAOEHSBuvzOWkz6NJ72A", "alias": "gold-rush-eatery-sunnyvale-6", "name": "Gold Rush Eatery", "image_url": "https://s3-media1.fl.yelpcdn.com/bphoto/CFpX50jiQRajc_tx_GVShA/o.jpg", "is_closed": false, "url": "https://www.yelp.com/biz/gold-rush-eatery-sunnyvale-6?adjust_creative=-1a8ZLzJ76_AvFzvJVcndQ&utm_campaign=yelp_api_v3&utm_medium=api_v3_business_search&utm_source=-1a8ZLzJ76_AvFzvJVcndQ", "review_count": 140, "categories": [{"alias": "foodtrucks", "title": "Food Trucks"}, {"alias": "burgers", "title": "Burgers"}, {"alias": "beerbar", "title": "Beer Bar"}], "rating": 4.0, "coordinates": {"latitude": 37.3551306948281, "longitude": -122.010198819353}, "transactions": ["delivery", "pickup"], "price": "$$", "location": {"address1": "1010 S Wolfe Rd", "address2": null, "address3": "", "city": "Sunnyvale", "zip_code": "94036", "country": "US", "state": "CA", "display_address": ["1010 S Wolfe Rd", "Sunnyvale, CA 94036"]}, "phone": "+14087435336", "display_phone": "(408) 743-5336", "distance": 13749.28423192508}, {"id": "5yInUsYjDUh-Y1-Qo3tcrw", "alias": "nowhere-bar-and-grill-san-jose", "name": "Nowhere Bar and Grill", "image_url": "https://s3-media2.fl.yelpcdn.com/bphoto/GpbZdLmFVjg62Ua3gM1C4w/o.jpg", "is_closed": false, "url": "https://www.yelp.com/biz/nowhere-bar-and-grill-san-jose?adjust_creative=-1a8ZLzJ76_AvFzvJVcndQ&utm_campaign=yelp_api_v3&utm_medium=api_v3_business_search&utm_source=-1a8ZLzJ76_AvFzvJVcndQ", "review_count": 31, "categories": [{"alias": "burgers", "title": "Burgers"}, {"alias": "divebars", "title": "Dive Bars"}, {"alias": "pizza", "title": "Pizza"}], "rating": 3.5, "coordinates": {"latitude": 37.2606620788574, "longitude": -121.932388305664}, "transactions": [], "price": "$", "location": {"address1": "2035 Woodard", "address2": "", "address3": "", "city": "San Jose", "zip_code": "95124", "country": "US", "state": "CA", "display_address": ["2035 Woodard", "San Jose, CA 95124"]}, "phone": "+14083714941", "display_phone": "(408) 371-4941", "distance": 3066.444601115804}, {"id": "qArqv7Sl3-kz7m-I0-pyuw", "alias": "scratch-cookery-san-jose-2", "name": "Scratch Cookery", "image_url": "https://s3-media2.fl.yelpcdn.com/bphoto/3bI-gW0tJ17iJqo1qn_W7A/o.jpg", "is_closed": false, "url": "https://www.yelp.com/biz/scratch-cookery-san-jose-2?adjust_creative=-1a8ZLzJ76_AvFzvJVcndQ&utm_campaign=yelp_api_v3&utm_medium=api_v3_business_search&utm_source=-1a8ZLzJ76_AvFzvJVcndQ", "review_count": 107, "categories": [{"alias": "foodtrucks", "title": "Food Trucks"}, {"alias": "chickenshop", "title": "Chicken Shop"}, {"alias": "tradamerican", "title": "American (Traditional)"}], "rating": 4.5, "coordinates": {"latitude": 37.374431, "longitude": -121.856157}, "transactions": [], "price": "$$", "location": {"address1": "", "address2": null, "address3": "", "city": "San Jose", "zip_code": "95133", "country": "US", "state": "CA", "display_address": ["San Jose, CA 95133"]}, "phone": "+14086010396", "display_phone": "(408) 601-0396", "distance": 16825.05733722326}, {"id": "XQd748l0x0O8z3kSAQnQTQ", "alias": "burrito-factory-san-jose-2", "name": "Burrito Factory", "image_url": "https://s3-media1.fl.yelpcdn.com/bphoto/De1143D22Epr-4M6-aexeA/o.jpg", "is_closed": false, "url": "https://www.yelp.com/biz/burrito-factory-san-jose-2?adjust_creative=-1a8ZLzJ76_AvFzvJVcndQ&utm_campaign=yelp_api_v3&utm_medium=api_v3_business_search&utm_source=-1a8ZLzJ76_AvFzvJVcndQ", "review_count": 229, "categories": [{"alias": "mexican", "title": "Mexican"}, {"alias": "breakfast_brunch", "title": "Breakfast & Brunch"}, {"alias": "desserts", "title": "Desserts"}], "rating": 3.0, "coordinates": {"latitude": 37.2627106296468, "longitude": -121.933876018452}, "transactions": [], "price": "$", "location": {"address1": "2055 Camden Ave", "address2": "", "address3": "", "city": "San Jose", "zip_code": "95124", "country": "US", "state": "CA", "display_address": ["2055 Camden Ave", "San Jose, CA 95124"]}, "phone": "+14086280130", "display_phone": "(408) 628-0130", "distance": 3164.8187646352285}, {"id": "Kl7tw36Mj2-Xac_OcfO_5Q", "alias": "kfc-san-jose-28", "name": "KFC", "image_url": "https://s3-media4.fl.yelpcdn.com/bphoto/aqphKZrpOoxEpxqnxIn3NQ/o.jpg", "is_closed": false, "url": "https://www.yelp.com/biz/kfc-san-jose-28?adjust_creative=-1a8ZLzJ76_AvFzvJVcndQ&utm_campaign=yelp_api_v3&utm_medium=api_v3_business_search&utm_source=-1a8ZLzJ76_AvFzvJVcndQ", "review_count": 133, "categories": [{"alias": "hotdogs", "title": "Fast Food"}, {"alias": "chicken_wings", "title": "Chicken Wings"}, {"alias": "chickenshop", "title": "Chicken Shop"}], "rating": 3.0, "coordinates": {"latitude": 37.266664, "longitude": -121.940225}, "transactions": ["delivery", "pickup"], "price": "$", "location": {"address1": "3144 S Bascom Ave", "address2": "", "address3": "", "city": "San Jose", "zip_code": "95124", "country": "US", "state": "CA", "display_address": ["3144 S Bascom Ave", "San Jose, CA 95124"]}, "phone": "+14083710944", "display_phone": "(408) 371-0944", "distance": 3271.8960370215395}, {"id": "i0m9w2HbK4XlM-6u4ggnaA", "alias": "cafe-el-gato-los-gatos", "name": "Cafe El Gato", "image_url": "", "is_closed": false, "url": "https://www.yelp.com/biz/cafe-el-gato-los-gatos?adjust_creative=-1a8ZLzJ76_AvFzvJVcndQ&utm_campaign=yelp_api_v3&utm_medium=api_v3_business_search&utm_source=-1a8ZLzJ76_AvFzvJVcndQ", "review_count": 1, "categories": [{"alias": "cafeteria", "title": "Cafeteria"}], "rating": 3.0, "coordinates": {"latitude": 37.263066, "longitude": -121.969343}, "transactions": [], "price": "$", "location": {"address1": "815 Pollard Rd", "address2": "", "address3": "El Camino Hospital", "city": "Los Gatos", "zip_code": "95032", "country": "US", "state": "CA", "display_address": ["815 Pollard Rd", "El Camino Hospital", "Los Gatos, CA 95032"]}, "phone": "", "display_phone": "", "distance": 2909.802968358717}, {"id": "Mtlrhj2sK_Ni3L_GSjCg3g", "alias": "pizza-my-heart-san-jose-16", "name": "Pizza My Heart", "image_url": "https://s3-media4.fl.yelpcdn.com/bphoto/HLYhO527BCcnhA5NBqEF5g/o.jpg", "is_closed": false, "url": "https://www.yelp.com/biz/pizza-my-heart-san-jose-16?adjust_creative=-1a8ZLzJ76_AvFzvJVcndQ&utm_campaign=yelp_api_v3&utm_medium=api_v3_business_search&utm_source=-1a8ZLzJ76_AvFzvJVcndQ", "review_count": 31, "categories": [{"alias": "pizza", "title": "Pizza"}], "rating": 3.0, "coordinates": {"latitude": 37.262891, "longitude": -121.931841}, "transactions": [], "location": {"address1": "2023 Camden Ave", "address2": "", "address3": null, "city": "San Jose", "zip_code": "95124", "country": "US", "state": "CA", "display_address": ["2023 Camden Ave", "San Jose, CA 95124"]}, "phone": "+14086284748", "display_phone": "(408) 628-4748", "distance": 3281.040244397921}, {"id": "jWWg0p9GTCho2RJIPhD6pQ", "alias": "tasteebytes-sj-san-jose", "name": "Tasteebytes SJ", "image_url": "https://s3-media2.fl.yelpcdn.com/bphoto/nxVvWa0ydNA-XfWpWEwd6w/o.jpg", "is_closed": false, "url": "https://www.yelp.com/biz/tasteebytes-sj-san-jose?adjust_creative=-1a8ZLzJ76_AvFzvJVcndQ&utm_campaign=yelp_api_v3&utm_medium=api_v3_business_search&utm_source=-1a8ZLzJ76_AvFzvJVcndQ", "review_count": 94, "categories": [{"alias": "foodtrucks", "title": "Food Trucks"}, {"alias": "hotdog", "title": "Hot Dogs"}], "rating": 4.5, "coordinates": {"latitude": 37.36058, "longitude": -121.89913}, "transactions": [], "price": "$", "location": {"address1": "326 Commercial St", "address2": "", "address3": "", "city": "San Jose", "zip_code": "95132", "country": "US", "state": "CA", "display_address": ["326 Commercial St", "San Jose, CA 95132"]}, "phone": "+16692437123", "display_phone": "(669) 243-7123", "distance": 14339.189159733387}, {"id": "GnN36Pwlg4kLGquU5-K02Q", "alias": "round-table-pizza-san-jose-19", "name": "Round Table Pizza", "image_url": "https://s3-media3.fl.yelpcdn.com/bphoto/TkwsYYHJsA4atsUaif0-yg/o.jpg", "is_closed": false, "url": "https://www.yelp.com/biz/round-table-pizza-san-jose-19?adjust_creative=-1a8ZLzJ76_AvFzvJVcndQ&utm_campaign=yelp_api_v3&utm_medium=api_v3_business_search&utm_source=-1a8ZLzJ76_AvFzvJVcndQ", "review_count": 145, "categories": [{"alias": "pizza", "title": "Pizza"}, {"alias": "buffets", "title": "Buffets"}], "rating": 3.0, "coordinates": {"latitude": 37.2615551, "longitude": -121.9309216}, "transactions": [], "price": "$$", "location": {"address1": "14940 Camden Ave", "address2": "", "address3": "", "city": "San Jose", "zip_code": "95124", "country": "US", "state": "CA", "display_address": ["14940 Camden Ave", "San Jose, CA 95124"]}, "phone": "+14083719550", "display_phone": "(408) 371-9550", "distance": 3312.6457865002703}, {"id": "k46UF8Qyd_T8mfnG9-tzrg", "alias": "good-samaritan-hospital-cafeteria-san-jose", "name": "Good Samaritan Hospital Cafeteria", "image_url": "https://s3-media2.fl.yelpcdn.com/bphoto/dH8I_eFzlbS7XKHN9ixagw/o.jpg", "is_closed": false, "url": "https://www.yelp.com/biz/good-samaritan-hospital-cafeteria-san-jose?adjust_creative=-1a8ZLzJ76_AvFzvJVcndQ&utm_campaign=yelp_api_v3&utm_medium=api_v3_business_search&utm_source=-1a8ZLzJ76_AvFzvJVcndQ", "review_count": 13, "categories": [{"alias": "cafes", "title": "Cafes"}], "rating": 2.5, "coordinates": {"latitude": 37.25221, "longitude": -121.94665}, "transactions": [], "price": "$", "location": {"address1": "2425 Samaritan Dr", "address2": "", "address3": "", "city": "San Jose", "zip_code": "95124", "country": "US", "state": "CA", "display_address": ["2425 Samaritan Dr", "San Jose, CA 95124"]}, "phone": "+14085592011", "display_phone": "(408) 559-2011", "distance": 1527.1960729903358}, {"id": "HayiFbi-9xFPhNjIad1lmA", "alias": "road-dogs-san-jose", "name": "Road Dogs", "image_url": "https://s3-media1.fl.yelpcdn.com/bphoto/2Zf1lrcEta1d89YmGI_-aA/o.jpg", "is_closed": false, "url": "https://www.yelp.com/biz/road-dogs-san-jose?adjust_creative=-1a8ZLzJ76_AvFzvJVcndQ&utm_campaign=yelp_api_v3&utm_medium=api_v3_business_search&utm_source=-1a8ZLzJ76_AvFzvJVcndQ", "review_count": 117, "categories": [{"alias": "hotdog", "title": "Hot Dogs"}, {"alias": "foodtrucks", "title": "Food Trucks"}], "rating": 4.0, "coordinates": {"latitude": 37.4825052756125, "longitude": -121.925558528338}, "transactions": ["pickup"], "price": "$", "location": {"address1": "", "address2": "", "address3": "", "city": "San Jose", "zip_code": "95132", "country": "US", "state": "CA", "display_address": ["San Jose, CA 95132"]}, "phone": "+14088351867", "display_phone": "(408) 835-1867", "distance": 27131.675562374}, {"id": "HgwdbGq4KD7QvIy2OUdFrw", "alias": "cosina-mrs-chepis-san-jose", "name": "Cosina Mrs. Chepis", "image_url": "https://s3-media2.fl.yelpcdn.com/bphoto/ZC_AowKjv6HER65Vo365bA/o.jpg", "is_closed": false, "url": "https://www.yelp.com/biz/cosina-mrs-chepis-san-jose?adjust_creative=-1a8ZLzJ76_AvFzvJVcndQ&utm_campaign=yelp_api_v3&utm_medium=api_v3_business_search&utm_source=-1a8ZLzJ76_AvFzvJVcndQ", "review_count": 1, "categories": [{"alias": "streetvendors", "title": "Street Vendors"}, {"alias": "tacos", "title": "Tacos"}], "rating": 5.0, "coordinates": {"latitude": 37.260279, "longitude": -121.929925}, "transactions": [], "location": {"address1": "14900 Camden Ave", "address2": "", "address3": null, "city": "San Jose", "zip_code": "95124", "country": "US", "state": "CA", "display_address": ["14900 Camden Ave", "San Jose, CA 95124"]}, "phone": "+14084167393", "display_phone": "(408) 416-7393", "distance": 3198.826954747509}, {"id": "4aUwpoE5lMkmSYgTd0oHsw", "alias": "ate-3-one-santa-cruz", "name": "Ate 3 One", "image_url": "https://s3-media2.fl.yelpcdn.com/bphoto/a9U4E2HcUQx6kcJPpaLLMw/o.jpg", "is_closed": false, "url": "https://www.yelp.com/biz/ate-3-one-santa-cruz?adjust_creative=-1a8ZLzJ76_AvFzvJVcndQ&utm_campaign=yelp_api_v3&utm_medium=api_v3_business_search&utm_source=-1a8ZLzJ76_AvFzvJVcndQ", "review_count": 36, "categories": [{"alias": "foodtrucks", "title": "Food Trucks"}, {"alias": "tacos", "title": "Tacos"}], "rating": 3.5, "coordinates": {"latitude": 37.0326080322266, "longitude": -121.983581542969}, "transactions": [], "price": "$$", "location": {"address1": "", "address2": "", "address3": null, "city": "Santa Cruz", "zip_code": "95065", "country": "US", "state": "CA", "display_address": ["Santa Cruz, CA 95065"]}, "phone": "+18312475696", "display_phone": "(831) 247-5696", "distance": 22887.857792519386}, {"id": "H9lDju4cQ_2BGDl7UKiuvA", "alias": "community-hospital-of-los-gatos-cafeteria-los-gatos", "name": "Community Hospital of Los Gatos Cafeteria", "image_url": "https://s3-media3.fl.yelpcdn.com/bphoto/iMPgII6-Gvz-6Kf0Hxecig/o.jpg", "is_closed": false, "url": "https://www.yelp.com/biz/community-hospital-of-los-gatos-cafeteria-los-gatos?adjust_creative=-1a8ZLzJ76_AvFzvJVcndQ&utm_campaign=yelp_api_v3&utm_medium=api_v3_business_search&utm_source=-1a8ZLzJ76_AvFzvJVcndQ", "review_count": 1, "categories": [{"alias": "tradamerican", "title": "American (Traditional)"}], "rating": 2.0, "coordinates": {"latitude": 37.2629013061523, "longitude": -121.969253540039}, "transactions": [], "price": "$$", "location": {"address1": "815 Pollard Rd", "address2": "", "address3": "", "city": "Los Gatos", "zip_code": "95032", "country": "US", "state": "CA", "display_address": ["815 Pollard Rd", "Los Gatos, CA 95032"]}, "phone": "+14083786131", "display_phone": "(408) 378-6131", "distance": 2889.958489674455}, {"id": "Is1KN9f5THyPgo1RjAxRzg", "alias": "madd-mex-cantina-food-truck-san-mateo-3", "name": "Madd Mex Cantina Food Truck", "image_url": "https://s3-media3.fl.yelpcdn.com/bphoto/sqUQfoUkNqzsWDktPN09Dg/o.jpg", "is_closed": false, "url": "https://www.yelp.com/biz/madd-mex-cantina-food-truck-san-mateo-3?adjust_creative=-1a8ZLzJ76_AvFzvJVcndQ&utm_campaign=yelp_api_v3&utm_medium=api_v3_business_search&utm_source=-1a8ZLzJ76_AvFzvJVcndQ", "review_count": 225, "categories": [{"alias": "foodtrucks", "title": "Food Trucks"}, {"alias": "mexican", "title": "Mexican"}, {"alias": "catering", "title": "Caterers"}], "rating": 4.5, "coordinates": {"latitude": 37.5521392822266, "longitude": -122.260833740234}, "transactions": [], "price": "$", "location": {"address1": "", "address2": null, "address3": "", "city": "San Mateo", "zip_code": "94404", "country": "US", "state": "CA", "display_address": ["San Mateo, CA 94404"]}, "phone": "", "display_phone": "", "distance": 44834.79019650058}, {"id": "oGtIuHfsjQG0RgCaHOr32Q", "alias": "carls-jr-san-jose-3", "name": "Carl's Jr.", "image_url": "https://s3-media2.fl.yelpcdn.com/bphoto/fV3_s7EzeBQkKHPBhO_GEg/o.jpg", "is_closed": false, "url": "https://www.yelp.com/biz/carls-jr-san-jose-3?adjust_creative=-1a8ZLzJ76_AvFzvJVcndQ&utm_campaign=yelp_api_v3&utm_medium=api_v3_business_search&utm_source=-1a8ZLzJ76_AvFzvJVcndQ", "review_count": 37, "categories": [{"alias": "hotdogs", "title": "Fast Food"}, {"alias": "burgers", "title": "Burgers"}], "rating": 2.5, "coordinates": {"latitude": 37.2620964050293, "longitude": -121.930656433105}, "transactions": [], "price": "$", "location": {"address1": "1999 Camden Ave", "address2": "", "address3": "", "city": "San Jose", "zip_code": "95124", "country": "US", "state": "CA", "display_address": ["1999 Camden Ave", "San Jose, CA 95124"]}, "phone": "+14083775951", "display_phone": "(408) 377-5951", "distance": 3257.3212644051787}, {"id": "5B4Rp7oLWZa5QEZMVumGjw", "alias": "togo-s-sandwiches-san-jose-13", "name": "Togo\u2019s Sandwiches", "image_url": "https://s3-media2.fl.yelpcdn.com/bphoto/BsInBPBKvk_L2Lu1Zmv_og/o.jpg", "is_closed": false, "url": "https://www.yelp.com/biz/togo-s-sandwiches-san-jose-13?adjust_creative=-1a8ZLzJ76_AvFzvJVcndQ&utm_campaign=yelp_api_v3&utm_medium=api_v3_business_search&utm_source=-1a8ZLzJ76_AvFzvJVcndQ", "review_count": 140, "categories": [{"alias": "sandwiches", "title": "Sandwiches"}, {"alias": "delis", "title": "Delis"}, {"alias": "hotdogs", "title": "Fast Food"}], "rating": 2.5, "coordinates": {"latitude": 37.2614473678978, "longitude": -121.929932239747}, "transactions": ["pickup", "delivery"], "price": "$", "location": {"address1": "14944 Camden Ave", "address2": "", "address3": "", "city": "San Jose", "zip_code": "95124", "country": "US", "state": "CA", "display_address": ["14944 Camden Ave", "San Jose, CA 95124"]}, "phone": "+14083713352", "display_phone": "(408) 371-3352", "distance": 3275.1950048658023}, {"id": "JTzWc_nHK5-XGqC77Y_yoA", "alias": "tacos-el-pelon-san-jose", "name": "Tacos El Pelon", "image_url": "https://s3-media1.fl.yelpcdn.com/bphoto/16pzFDCGkwn1sL67d2XepA/o.jpg", "is_closed": false, "url": "https://www.yelp.com/biz/tacos-el-pelon-san-jose?adjust_creative=-1a8ZLzJ76_AvFzvJVcndQ&utm_campaign=yelp_api_v3&utm_medium=api_v3_business_search&utm_source=-1a8ZLzJ76_AvFzvJVcndQ", "review_count": 40, "categories": [{"alias": "foodtrucks", "title": "Food Trucks"}, {"alias": "tacos", "title": "Tacos"}], "rating": 4.0, "coordinates": {"latitude": 37.3520331729227, "longitude": -121.824255734682}, "transactions": ["pickup", "delivery"], "price": "$", "location": {"address1": "1137 Mcginness Ave", "address2": "", "address3": "", "city": "San Jose", "zip_code": "95127", "country": "US", "state": "CA", "display_address": ["1137 Mcginness Ave", "San Jose, CA 95127"]}, "phone": "+14085922474", "display_phone": "(408) 592-2474", "distance": 17016.048746600994}, {"id": "kIsGtzHcIxk40klNpTWuog", "alias": "grillaz-gone-wild-hayward", "name": "Grillaz Gone Wild", "image_url": "https://s3-media1.fl.yelpcdn.com/bphoto/4OKiJlqTPiue8J6EbwO3ug/o.jpg", "is_closed": false, "url": "https://www.yelp.com/biz/grillaz-gone-wild-hayward?adjust_creative=-1a8ZLzJ76_AvFzvJVcndQ&utm_campaign=yelp_api_v3&utm_medium=api_v3_business_search&utm_source=-1a8ZLzJ76_AvFzvJVcndQ", "review_count": 124, "categories": [{"alias": "cheesesteaks", "title": "Cheesesteaks"}, {"alias": "foodtrucks", "title": "Food Trucks"}, {"alias": "sandwiches", "title": "Sandwiches"}], "rating": 4.0, "coordinates": {"latitude": 37.63805, "longitude": -122.07161}, "transactions": [], "price": "$", "location": {"address1": "", "address2": "", "address3": "", "city": "Hayward", "zip_code": "94544", "country": "US", "state": "CA", "display_address": ["Hayward, CA 94544"]}, "phone": "+17075013252", "display_phone": "(707) 501-3252", "distance": 43885.64257551372}, {"id": "tGTSCjKLMa8vn8KArGZN_w", "alias": "just-mix-and-eat-san-jose", "name": "Just Mix & Eat", "image_url": "https://s3-media1.fl.yelpcdn.com/bphoto/orF5KUbsUaPobWI9MmbgFA/o.jpg", "is_closed": false, "url": "https://www.yelp.com/biz/just-mix-and-eat-san-jose?adjust_creative=-1a8ZLzJ76_AvFzvJVcndQ&utm_campaign=yelp_api_v3&utm_medium=api_v3_business_search&utm_source=-1a8ZLzJ76_AvFzvJVcndQ", "review_count": 30, "categories": [{"alias": "chicken_wings", "title": "Chicken Wings"}, {"alias": "korean", "title": "Korean"}, {"alias": "foodtrucks", "title": "Food Trucks"}], "rating": 3.0, "coordinates": {"latitude": 37.38256, "longitude": -121.94398}, "transactions": ["pickup", "delivery"], "price": "$$", "location": {"address1": "3295 Woodward Ave", "address2": null, "address3": "", "city": "San Jose", "zip_code": "95054", "country": "US", "state": "CA", "display_address": ["3295 Woodward Ave", "San Jose, CA 95054"]}, "phone": "+16692209394", "display_phone": "(669) 220-9394", "distance": 15925.690333707746}, {"id": "gMzVS6LgUkUpip1NwwHaLQ", "alias": "twister-food-truck-san-jose-14", "name": "Twister Food Truck", "image_url": "https://s3-media4.fl.yelpcdn.com/bphoto/R_s82Wu2MBCHOM6xMRNzIg/o.jpg", "is_closed": false, "url": "https://www.yelp.com/biz/twister-food-truck-san-jose-14?adjust_creative=-1a8ZLzJ76_AvFzvJVcndQ&utm_campaign=yelp_api_v3&utm_medium=api_v3_business_search&utm_source=-1a8ZLzJ76_AvFzvJVcndQ", "review_count": 42, "categories": [{"alias": "foodtrucks", "title": "Food Trucks"}, {"alias": "asianfusion", "title": "Asian Fusion"}], "rating": 3.5, "coordinates": {"latitude": 37.36971, "longitude": -121.89675}, "transactions": [], "price": "$", "location": {"address1": "660 East Gish Rd", "address2": null, "address3": null, "city": "San Jose", "zip_code": "95112", "country": "US", "state": "CA", "display_address": ["660 East Gish Rd", "San Jose, CA 95112"]}, "phone": "+15106953921", "display_phone": "(510) 695-3921", "distance": 15275.624464406617}, {"id": "EdU8FIunfzJdxmwJl4nVAw", "alias": "subway-restaurants-campbell-5", "name": "Subway Restaurants", "image_url": "https://s3-media1.fl.yelpcdn.com/bphoto/dFiav5RV2YKGd7Ub07OVig/o.jpg", "is_closed": false, "url": "https://www.yelp.com/biz/subway-restaurants-campbell-5?adjust_creative=-1a8ZLzJ76_AvFzvJVcndQ&utm_campaign=yelp_api_v3&utm_medium=api_v3_business_search&utm_source=-1a8ZLzJ76_AvFzvJVcndQ", "review_count": 14, "categories": [{"alias": "sandwiches", "title": "Sandwiches"}], "rating": 2.0, "coordinates": {"latitude": 37.2626381, "longitude": -121.9444387}, "transactions": ["pickup", "delivery"], "price": "$", "location": {"address1": "3481 S Bascom Ave", "address2": "", "address3": "", "city": "Campbell", "zip_code": "95008", "country": "US", "state": "CA", "display_address": ["3481 S Bascom Ave", "Campbell, CA 95008"]}, "phone": "+14083779227", "display_phone": "(408) 377-9227", "distance": 2728.1128351574057}, {"id": "Qa7brHniluYGS6kvDLn_7Q", "alias": "3geeks-food-truck-santa-clara", "name": "3GEEKS FOOD TRUCK", "image_url": "https://s3-media2.fl.yelpcdn.com/bphoto/Ahw89hwfujcvycQ_3soddQ/o.jpg", "is_closed": false, "url": "https://www.yelp.com/biz/3geeks-food-truck-santa-clara?adjust_creative=-1a8ZLzJ76_AvFzvJVcndQ&utm_campaign=yelp_api_v3&utm_medium=api_v3_business_search&utm_source=-1a8ZLzJ76_AvFzvJVcndQ", "review_count": 86, "categories": [{"alias": "seafood", "title": "Seafood"}, {"alias": "cheesesteaks", "title": "Cheesesteaks"}, {"alias": "foodtrucks", "title": "Food Trucks"}], "rating": 3.0, "coordinates": {"latitude": 37.39911, "longitude": -121.95728}, "transactions": [], "price": "$$", "location": {"address1": null, "address2": null, "address3": "", "city": "Santa Clara", "zip_code": "95054", "country": "US", "state": "CA", "display_address": ["Santa Clara, CA 95054"]}, "phone": "+14089090709", "display_phone": "(408) 909-0709", "distance": 17699.615725721356}, {"id": "6uCoenl8tcOe65uzjl9e4Q", "alias": "a-and-w-san-jose-2", "name": "A&W", "image_url": "https://s3-media3.fl.yelpcdn.com/bphoto/K65PbCX0Vbzy6gBMMzAEkg/o.jpg", "is_closed": false, "url": "https://www.yelp.com/biz/a-and-w-san-jose-2?adjust_creative=-1a8ZLzJ76_AvFzvJVcndQ&utm_campaign=yelp_api_v3&utm_medium=api_v3_business_search&utm_source=-1a8ZLzJ76_AvFzvJVcndQ", "review_count": 19, "categories": [{"alias": "hotdogs", "title": "Fast Food"}, {"alias": "burgers", "title": "Burgers"}, {"alias": "hotdog", "title": "Hot Dogs"}], "rating": 2.0, "coordinates": {"latitude": 37.2665596008301, "longitude": -121.940124511719}, "transactions": [], "price": "$", "location": {"address1": "3144 South Bascom Avenue", "address2": "", "address3": "", "city": "San Jose", "zip_code": "95124", "country": "US", "state": "CA", "display_address": ["3144 South Bascom Avenue", "San Jose, CA 95124"]}, "phone": "+14083710944", "display_phone": "(408) 371-0944", "distance": 3270.7128724275767}, {"id": "6xHfXm7hcWRJgnXup0cHdA", "alias": "tacos-de-los-altos-san-jose", "name": "Tacos De Los Altos", "image_url": "https://s3-media2.fl.yelpcdn.com/bphoto/PdbW4mITavXeCO7nfdweAQ/o.jpg", "is_closed": false, "url": "https://www.yelp.com/biz/tacos-de-los-altos-san-jose?adjust_creative=-1a8ZLzJ76_AvFzvJVcndQ&utm_campaign=yelp_api_v3&utm_medium=api_v3_business_search&utm_source=-1a8ZLzJ76_AvFzvJVcndQ", "review_count": 23, "categories": [{"alias": "mexican", "title": "Mexican"}, {"alias": "foodtrucks", "title": "Food Trucks"}], "rating": 3.5, "coordinates": {"latitude": 37.292772307992, "longitude": -121.874259486794}, "transactions": [], "price": "$$", "location": {"address1": "2310 Canoas Gardens Ave", "address2": "", "address3": "", "city": "San Jose", "zip_code": "95125", "country": "US", "state": "CA", "display_address": ["2310 Canoas Gardens Ave", "San Jose, CA 95125"]}, "phone": "+14081111111", "display_phone": "(408) 111-1111", "distance": 9260.577922751969}, {"id": "ai1PcujD1397VPMNc8Ffcg", "alias": "cross-hatch-eatery-sunnyvale", "name": "Cross Hatch Eatery", "image_url": "https://s3-media1.fl.yelpcdn.com/bphoto/HPquQAnn8mSmsNlng5Z-_A/o.jpg", "is_closed": false, "url": "https://www.yelp.com/biz/cross-hatch-eatery-sunnyvale?adjust_creative=-1a8ZLzJ76_AvFzvJVcndQ&utm_campaign=yelp_api_v3&utm_medium=api_v3_business_search&utm_source=-1a8ZLzJ76_AvFzvJVcndQ", "review_count": 1, "categories": [{"alias": "asianfusion", "title": "Asian Fusion"}, {"alias": "foodtrucks", "title": "Food Trucks"}], "rating": 1.0, "coordinates": {"latitude": 37.3998374938965, "longitude": -121.997146606445}, "transactions": [], "location": {"address1": "", "address2": null, "address3": "", "city": "Sunnyvale", "zip_code": "94089", "country": "US", "state": "CA", "display_address": ["Sunnyvale, CA 94089"]}, "phone": "+16692322267", "display_phone": "(669) 232-2267", "distance": 19875.591605518224}]}