{"location": "Los Altos Hills, CA", "term": "restaurant", "radius": 2694, "businesses": [{"id": "3qjl3TrEFGGNDv8J9YHIKg", "alias": "sumika-los-altos", "name": "Sumika", "image_url": "https://s3-media2.fl.yelpcdn.com/bphoto/eQ84pCf2lK5fs9A7u495Ww/o.jpg", "is_closed": false, "url": "https://www.yelp.com/biz/sumika-los-altos?adjust_creative=-1a8ZLzJ76_AvFzvJVcndQ&utm_campaign=yelp_api_v3&utm_medium=api_v3_business_search&utm_source=-1a8ZLzJ76_AvFzvJVcndQ", "review_count": 1040, "categories": [{"alias": "japanese", "title": "Japanese"}], "rating": 4.0, "coordinates": {"latitude": 37.379223, "longitude": -122.11664}, "transactions": ["restaurant_reservation"], "price": "$$", "location": {"address1": "236 Central Plz", "address2": null, "address3": "", "city": "Los Altos", "zip_code": "94022", "country": "US", "state": "CA", "display_address": ["236 Central Plz", "Los Altos, CA 94022"]}, "phone": "+16509171822", "display_phone": "(650) 917-1822", "distance": 1563.267755490173}, {"id": "_1yJBsOdhRtYHl0_QzFHug", "alias": "los-altos-grill-los-altos-3", "name": "Los Altos Grill", "image_url": "https://s3-media1.fl.yelpcdn.com/bphoto/78BZ9sl-K0hGUiqJU2i2mw/o.jpg", "is_closed": false, "url": "https://www.yelp.com/biz/los-altos-grill-los-altos-3?adjust_creative=-1a8ZLzJ76_AvFzvJVcndQ&utm_campaign=yelp_api_v3&utm_medium=api_v3_business_search&utm_source=-1a8ZLzJ76_AvFzvJVcndQ", "review_count": 1398, "categories": [{"alias": "newamerican", "title": "American (New)"}], "rating": 4.0, "coordinates": {"latitude": 37.3782700390429, "longitude": -122.114760704112}, "transactions": [], "price": "$$$", "location": {"address1": "233 3rd St", "address2": "", "address3": "", "city": "Los Altos", "zip_code": "94022", "country": "US", "state": "CA", "display_address": ["233 3rd St", "Los Altos, CA 94022"]}, "phone": "+16509483524", "display_phone": "(650) 948-3524", "distance": 1607.5643627081222}, {"id": "SD_dIrEiEfCbQwgaFlpboA", "alias": "the-pho-cabin-los-altos", "name": "The Pho Cabin", "image_url": "https://s3-media2.fl.yelpcdn.com/bphoto/dlLvruhhNQJsaZ42ZcEcnQ/o.jpg", "is_closed": false, "url": "https://www.yelp.com/biz/the-pho-cabin-los-altos?adjust_creative=-1a8ZLzJ76_AvFzvJVcndQ&utm_campaign=yelp_api_v3&utm_medium=api_v3_business_search&utm_source=-1a8ZLzJ76_AvFzvJVcndQ", "review_count": 65, "categories": [{"alias": "vietnamese", "title": "Vietnamese"}], "rating": 4.5, "coordinates": {"latitude": 37.37982, "longitude": -122.11661}, "transactions": [], "price": "$$", "location": {"address1": "200 State St", "address2": "", "address3": null, "city": "Los Altos", "zip_code": "94022", "country": "US", "state": "CA", "display_address": ["200 State St", "Los Altos, CA 94022"]}, "phone": "+16509171328", "display_phone": "(650) 917-1328", "distance": 1614.2134096543045}, {"id": "Y5fBgMSSnSG-cU-9qjE3zw", "alias": "tre-monti-los-altos", "name": "Tre Monti", "image_url": "https://s3-media2.fl.yelpcdn.com/bphoto/AV6Zo6U1vmJ6ojUCwPLgqQ/o.jpg", "is_closed": false, "url": "https://www.yelp.com/biz/tre-monti-los-altos?adjust_creative=-1a8ZLzJ76_AvFzvJVcndQ&utm_campaign=yelp_api_v3&utm_medium=api_v3_business_search&utm_source=-1a8ZLzJ76_AvFzvJVcndQ", "review_count": 90, "categories": [{"alias": "wine_bars", "title": "Wine Bars"}, {"alias": "italian", "title": "Italian"}], "rating": 4.0, "coordinates": {"latitude": 37.37872, "longitude": -122.11648}, "transactions": ["restaurant_reservation"], "location": {"address1": "270 Main St", "address2": "", "address3": null, "city": "Los Altos", "zip_code": "94022", "country": "US", "state": "CA", "display_address": ["270 Main St", "Los Altos, CA 94022"]}, "phone": "+16509352197", "display_phone": "(650) 935-2197", "distance": 1526.2991328913943}, {"id": "TeRe9kFbODh7YDb_zDu8Ww", "alias": "rustic-house-oyster-bar-and-grill-los-altos-los-altos-2", "name": "Rustic House Oyster Bar and Grill - Los Altos", "image_url": "https://s3-media2.fl.yelpcdn.com/bphoto/27i4s1x2Wal558WCtJXo7g/o.jpg", "is_closed": false, "url": "https://www.yelp.com/biz/rustic-house-oyster-bar-and-grill-los-altos-los-altos-2?adjust_creative=-1a8ZLzJ76_AvFzvJVcndQ&utm_campaign=yelp_api_v3&utm_medium=api_v3_business_search&utm_source=-1a8ZLzJ76_AvFzvJVcndQ", "review_count": 294, "categories": [{"alias": "seafood", "title": "Seafood"}, {"alias": "bars", "title": "Bars"}, {"alias": "tradamerican", "title": "American (Traditional)"}], "rating": 4.0, "coordinates": {"latitude": 37.37822, "longitude": -122.11637}, "transactions": ["restaurant_reservation"], "price": "$$", "location": {"address1": "295 Main St", "address2": "", "address3": null, "city": "Los Altos", "zip_code": "94022", "country": "US", "state": "CA", "display_address": ["295 Main St", "Los Altos, CA 94022"]}, "phone": "+16509352129", "display_phone": "(650) 935-2129", "distance": 1495.0333049793614}, {"id": "2FmoMFsQ2IKkp9m94Yg9Mg", "alias": "urfa-bistro-los-altos", "name": "Urfa Bistro", "image_url": "https://s3-media4.fl.yelpcdn.com/bphoto/AtBRFgNsb4PI5VzQTsXNAQ/o.jpg", "is_closed": false, "url": "https://www.yelp.com/biz/urfa-bistro-los-altos?adjust_creative=-1a8ZLzJ76_AvFzvJVcndQ&utm_campaign=yelp_api_v3&utm_medium=api_v3_business_search&utm_source=-1a8ZLzJ76_AvFzvJVcndQ", "review_count": 309, "categories": [{"alias": "mediterranean", "title": "Mediterranean"}, {"alias": "turkish", "title": "Turkish"}, {"alias": "mideastern", "title": "Middle Eastern"}], "rating": 4.5, "coordinates": {"latitude": 37.37929, "longitude": -122.11659}, "transactions": ["delivery", "pickup"], "price": "$$", "location": {"address1": "233 State St", "address2": "", "address3": "", "city": "Los Altos", "zip_code": "94022", "country": "US", "state": "CA", "display_address": ["233 State St", "Los Altos, CA 94022"]}, "phone": "+16503975614", "display_phone": "(650) 397-5614", "distance": 1573.7870027558704}, {"id": "8C_B-4cRVVUXHAEgQv1rCg", "alias": "restaurant-asa-los-altos-2", "name": "Restaurant ASA", "image_url": "https://s3-media1.fl.yelpcdn.com/bphoto/PuwEb46ScCfZ2sgb6D2ZZQ/o.jpg", "is_closed": false, "url": "https://www.yelp.com/biz/restaurant-asa-los-altos-2?adjust_creative=-1a8ZLzJ76_AvFzvJVcndQ&utm_campaign=yelp_api_v3&utm_medium=api_v3_business_search&utm_source=-1a8ZLzJ76_AvFzvJVcndQ", "review_count": 220, "categories": [{"alias": "newamerican", "title": "American (New)"}, {"alias": "cocktailbars", "title": "Cocktail Bars"}, {"alias": "spanish", "title": "Spanish"}], "rating": 4.5, "coordinates": {"latitude": 37.3795341694492, "longitude": -122.116872145356}, "transactions": [], "price": "$$$", "location": {"address1": "242 State St", "address2": "", "address3": null, "city": "Los Altos", "zip_code": "94022", "country": "US", "state": "CA", "display_address": ["242 State St", "Los Altos, CA 94022"]}, "phone": "+16509352372", "display_phone": "(650) 935-2372", "distance": 1575.694776117482}, {"id": "2-MvM3gM9yPGw95gxYImsg", "alias": "the-post-los-altos", "name": "The Post", "image_url": "https://s3-media4.fl.yelpcdn.com/bphoto/TvgfmLZybY6fl649zvXSTA/o.jpg", "is_closed": false, "url": "https://www.yelp.com/biz/the-post-los-altos?adjust_creative=-1a8ZLzJ76_AvFzvJVcndQ&utm_campaign=yelp_api_v3&utm_medium=api_v3_business_search&utm_source=-1a8ZLzJ76_AvFzvJVcndQ", "review_count": 178, "categories": [{"alias": "comfortfood", "title": "Comfort Food"}, {"alias": "newamerican", "title": "American (New)"}, {"alias": "cocktailbars", "title": "Cocktail Bars"}], "rating": 4.0, "coordinates": {"latitude": 37.37768, "longitude": -122.11741}, "transactions": [], "price": "$$", "location": {"address1": "395 Main St", "address2": "", "address3": null, "city": "Los Altos", "zip_code": "94022", "country": "US", "state": "CA", "display_address": ["395 Main St", "Los Altos, CA 94022"]}, "phone": "+16509352003", "display_phone": "(650) 935-2003", "distance": 1397.6036383805197}, {"id": "453yHmtCcOv3XSFl-48Rog", "alias": "aldo-los-altos-los-altos-2", "name": "Aldo Los Altos", "image_url": "https://s3-media1.fl.yelpcdn.com/bphoto/ugBT39-VLDrbgC-8J6Bs-Q/o.jpg", "is_closed": false, "url": "https://www.yelp.com/biz/aldo-los-altos-los-altos-2?adjust_creative=-1a8ZLzJ76_AvFzvJVcndQ&utm_campaign=yelp_api_v3&utm_medium=api_v3_business_search&utm_source=-1a8ZLzJ76_AvFzvJVcndQ", "review_count": 313, "categories": [{"alias": "italian", "title": "Italian"}, {"alias": "desserts", "title": "Desserts"}, {"alias": "salad", "title": "Salad"}], "rating": 4.0, "coordinates": {"latitude": 37.37811, "longitude": -122.11771}, "transactions": [], "price": "$$", "location": {"address1": "388 Main St", "address2": "", "address3": "", "city": "Los Altos", "zip_code": "94022", "country": "US", "state": "CA", "display_address": ["388 Main St", "Los Altos, CA 94022"]}, "phone": "+16509492300", "display_phone": "(650) 949-2300", "distance": 1407.4464089615562}, {"id": "pXIMZXLpQLUgolLb8BoZ4w", "alias": "ambience-los-altos", "name": "Ambience", "image_url": "https://s3-media1.fl.yelpcdn.com/bphoto/-kCoJ31f-jlpeEhHyBGgxw/o.jpg", "is_closed": false, "url": "https://www.yelp.com/biz/ambience-los-altos?adjust_creative=-1a8ZLzJ76_AvFzvJVcndQ&utm_campaign=yelp_api_v3&utm_medium=api_v3_business_search&utm_source=-1a8ZLzJ76_AvFzvJVcndQ", "review_count": 146, "categories": [{"alias": "newamerican", "title": "American (New)"}, {"alias": "asianfusion", "title": "Asian Fusion"}], "rating": 4.5, "coordinates": {"latitude": 37.380144, "longitude": -122.1154454}, "transactions": [], "price": "$$$$", "location": {"address1": "132 State St", "address2": "", "address3": "", "city": "Los Altos", "zip_code": "94022", "country": "US", "state": "CA", "display_address": ["132 State St", "Los Altos, CA 94022"]}, "phone": "+16509179030", "display_phone": "(650) 917-9030", "distance": 1710.0380830895654}, {"id": "cMGvWEpC-UTD59hRycegRg", "alias": "charley-noodle-and-grill-los-altos-2", "name": "Charley Noodle & Grill", "image_url": "https://s3-media3.fl.yelpcdn.com/bphoto/WjAgKF_8aAVlaqg4Euw7Ow/o.jpg", "is_closed": false, "url": "https://www.yelp.com/biz/charley-noodle-and-grill-los-altos-2?adjust_creative=-1a8ZLzJ76_AvFzvJVcndQ&utm_campaign=yelp_api_v3&utm_medium=api_v3_business_search&utm_source=-1a8ZLzJ76_AvFzvJVcndQ", "review_count": 235, "categories": [{"alias": "noodles", "title": "Noodles"}, {"alias": "ramen", "title": "Ramen"}, {"alias": "chinese", "title": "Chinese"}], "rating": 4.0, "coordinates": {"latitude": 37.37962, "longitude": -122.11695}, "transactions": [], "price": "$$", "location": {"address1": "244 State St", "address2": null, "address3": "", "city": "Los Altos", "zip_code": "94022", "country": "US", "state": "CA", "display_address": ["244 State St", "Los Altos, CA 94022"]}, "phone": "+16509485700", "display_phone": "(650) 948-5700", "distance": 1578.6438478937291}, {"id": "7NDDsShTwp-qvrtc6mTRNg", "alias": "hiroshi-los-altos-5", "name": "Hiroshi", "image_url": "https://s3-media3.fl.yelpcdn.com/bphoto/ULqNBq8j9p6IlOeBMaS4Dw/o.jpg", "is_closed": false, "url": "https://www.yelp.com/biz/hiroshi-los-altos-5?adjust_creative=-1a8ZLzJ76_AvFzvJVcndQ&utm_campaign=yelp_api_v3&utm_medium=api_v3_business_search&utm_source=-1a8ZLzJ76_AvFzvJVcndQ", "review_count": 8, "categories": [{"alias": "japanese", "title": "Japanese"}, {"alias": "steak", "title": "Steakhouses"}], "rating": 4.5, "coordinates": {"latitude": 37.3782622855864, "longitude": -122.117122784257}, "transactions": [], "price": "$$$$", "location": {"address1": "328 Main St", "address2": "", "address3": null, "city": "Los Altos", "zip_code": "94022", "country": "US", "state": "CA", "display_address": ["328 Main St", "Los Altos, CA 94022"]}, "phone": "+16503328332", "display_phone": "(650) 332-8332", "distance": 1455.91162814034}, {"id": "a8gk25_MTKdtoOwBsiraDQ", "alias": "state-of-mind-public-house-and-pizzeria-los-altos-2", "name": "State Of Mind Public House & Pizzeria", "image_url": "https://s3-media4.fl.yelpcdn.com/bphoto/W1LLKre4ZAPFYBlM0z05eg/o.jpg", "is_closed": false, "url": "https://www.yelp.com/biz/state-of-mind-public-house-and-pizzeria-los-altos-2?adjust_creative=-1a8ZLzJ76_AvFzvJVcndQ&utm_campaign=yelp_api_v3&utm_medium=api_v3_business_search&utm_source=-1a8ZLzJ76_AvFzvJVcndQ", "review_count": 180, "categories": [{"alias": "pizza", "title": "Pizza"}, {"alias": "arcades", "title": "Arcades"}, {"alias": "beerbar", "title": "Beer Bar"}], "rating": 4.5, "coordinates": {"latitude": 37.3804218, "longitude": -122.115631}, "transactions": ["delivery", "pickup"], "price": "$$", "location": {"address1": "101 Plz N", "address2": null, "address3": null, "city": "Los Altos", "zip_code": "94022", "country": "US", "state": "CA", "display_address": ["101 Plz N", "Los Altos, CA 94022"]}, "phone": "+16503835210", "display_phone": "(650) 383-5210", "distance": 1722.1216945784927}, {"id": "STslLllSw3n9cIt0S9EOCg", "alias": "bumble-los-altos", "name": "Bumble", "image_url": "https://s3-media2.fl.yelpcdn.com/bphoto/OKA5sFZSnRL2MHL_3eNVVQ/o.jpg", "is_closed": false, "url": "https://www.yelp.com/biz/bumble-los-altos?adjust_creative=-1a8ZLzJ76_AvFzvJVcndQ&utm_campaign=yelp_api_v3&utm_medium=api_v3_business_search&utm_source=-1a8ZLzJ76_AvFzvJVcndQ", "review_count": 608, "categories": [{"alias": "cafes", "title": "Cafes"}, {"alias": "newamerican", "title": "American (New)"}, {"alias": "kids_activities", "title": "Kids Activities"}], "rating": 3.5, "coordinates": {"latitude": 37.3796304, "longitude": -122.1187828}, "transactions": ["restaurant_reservation"], "price": "$$", "location": {"address1": "145 1st St", "address2": null, "address3": "", "city": "Los Altos", "zip_code": "94022", "country": "US", "state": "CA", "display_address": ["145 1st St", "Los Altos, CA 94022"]}, "phone": "+16503835340", "display_phone": "(650) 383-5340", "distance": 1480.0211374620076}, {"id": "yVWJXJVDIAmUspOl4t57Dg", "alias": "bluestone-lane-los-atlos-2", "name": "Bluestone Lane", "image_url": "https://s3-media4.fl.yelpcdn.com/bphoto/f2iXUMocqeBRy4UoMJCmyw/o.jpg", "is_closed": false, "url": "https://www.yelp.com/biz/bluestone-lane-los-atlos-2?adjust_creative=-1a8ZLzJ76_AvFzvJVcndQ&utm_campaign=yelp_api_v3&utm_medium=api_v3_business_search&utm_source=-1a8ZLzJ76_AvFzvJVcndQ", "review_count": 121, "categories": [{"alias": "coffee", "title": "Coffee & Tea"}, {"alias": "gluten_free", "title": "Gluten-Free"}, {"alias": "breakfast_brunch", "title": "Breakfast & Brunch"}], "rating": 3.5, "coordinates": {"latitude": 37.3744304562022, "longitude": -122.11495924741}, "transactions": [], "price": "$$", "location": {"address1": "288 1st St", "address2": null, "address3": null, "city": "Los Atlos", "zip_code": "94022", "country": "US", "state": "CA", "display_address": ["288 1st St", "Los Atlos, CA 94022"]}, "phone": "+17183746858", "display_phone": "(718) 374-6858", "distance": 1350.3616666562973}, {"id": "6OCzHx_wnV5Wqx0svw0MvA", "alias": "cetrella-los-altos", "name": "Cetrella", "image_url": "https://s3-media3.fl.yelpcdn.com/bphoto/391h0eTNZNmrc0LsdM-qHg/o.jpg", "is_closed": false, "url": "https://www.yelp.com/biz/cetrella-los-altos?adjust_creative=-1a8ZLzJ76_AvFzvJVcndQ&utm_campaign=yelp_api_v3&utm_medium=api_v3_business_search&utm_source=-1a8ZLzJ76_AvFzvJVcndQ", "review_count": 185, "categories": [{"alias": "venues", "title": "Venues & Event Spaces"}, {"alias": "mediterranean", "title": "Mediterranean"}, {"alias": "jazzandblues", "title": "Jazz & Blues"}], "rating": 4.0, "coordinates": {"latitude": 37.37802, "longitude": -122.11816}, "transactions": [], "price": "$$$", "location": {"address1": "400 Main St", "address2": "Ste 100", "address3": "", "city": "Los Altos", "zip_code": "94022", "country": "US", "state": "CA", "display_address": ["400 Main St", "Ste 100", "Los Altos, CA 94022"]}, "phone": "+16509480400", "display_phone": "(650) 948-0400", "distance": 1370.741825039281}, {"id": "Rumw08NSVZfxT11XDtWhEA", "alias": "cafe-nur-los-altos", "name": "Cafe Nur", "image_url": "https://s3-media1.fl.yelpcdn.com/bphoto/J7Z1A0ebqreEfW7tmLgk8A/o.jpg", "is_closed": false, "url": "https://www.yelp.com/biz/cafe-nur-los-altos?adjust_creative=-1a8ZLzJ76_AvFzvJVcndQ&utm_campaign=yelp_api_v3&utm_medium=api_v3_business_search&utm_source=-1a8ZLzJ76_AvFzvJVcndQ", "review_count": 200, "categories": [{"alias": "mediterranean", "title": "Mediterranean"}], "rating": 4.0, "coordinates": {"latitude": 37.3786697387695, "longitude": -122.116607666016}, "transactions": ["delivery"], "price": "$$", "location": {"address1": "280 Main St", "address2": "", "address3": "", "city": "Los Altos", "zip_code": "94022", "country": "US", "state": "CA", "display_address": ["280 Main St", "Los Altos, CA 94022"]}, "phone": "+16509172313", "display_phone": "(650) 917-2313", "distance": 1520.2744652027247}, {"id": "W6eqaw8BIXiDSD57CEARrg", "alias": "morseys-farmhouse-los-altos-4", "name": "Morsey's Farmhouse", "image_url": "https://s3-media2.fl.yelpcdn.com/bphoto/ON4Fq1cT4fRu3SFkAzD4Bg/o.jpg", "is_closed": false, "url": "https://www.yelp.com/biz/morseys-farmhouse-los-altos-4?adjust_creative=-1a8ZLzJ76_AvFzvJVcndQ&utm_campaign=yelp_api_v3&utm_medium=api_v3_business_search&utm_source=-1a8ZLzJ76_AvFzvJVcndQ", "review_count": 230, "categories": [{"alias": "tradamerican", "title": "American (Traditional)"}, {"alias": "breakfast_brunch", "title": "Breakfast & Brunch"}], "rating": 3.5, "coordinates": {"latitude": 37.37982, "longitude": -122.11513}, "transactions": ["delivery", "pickup"], "price": "$$", "location": {"address1": "134 Main St", "address2": "", "address3": null, "city": "Los Altos", "zip_code": "94022", "country": "US", "state": "CA", "display_address": ["134 Main St", "Los Altos, CA 94022"]}, "phone": "+16508606060", "display_phone": "(650) 860-6060", "distance": 1705.415582144159}, {"id": "veqkpqypPI29wLe1_hM61g", "alias": "akane-japanese-restaurant-los-altos", "name": "Akane Japanese Restaurant", "image_url": "https://s3-media2.fl.yelpcdn.com/bphoto/fK9eiIELUtEklVNrmwDtFw/o.jpg", "is_closed": false, "url": "https://www.yelp.com/biz/akane-japanese-restaurant-los-altos?adjust_creative=-1a8ZLzJ76_AvFzvJVcndQ&utm_campaign=yelp_api_v3&utm_medium=api_v3_business_search&utm_source=-1a8ZLzJ76_AvFzvJVcndQ", "review_count": 397, "categories": [{"alias": "japanese", "title": "Japanese"}], "rating": 3.5, "coordinates": {"latitude": 37.377936, "longitude": -122.115103}, "transactions": [], "price": "$$", "location": {"address1": "250 3rd St", "address2": "", "address3": "", "city": "Los Altos", "zip_code": "94022", "country": "US", "state": "CA", "display_address": ["250 3rd St", "Los Altos, CA 94022"]}, "phone": "+16509418150", "display_phone": "(650) 941-8150", "distance": 1560.3889337333383}, {"id": "jxS8Crk4KwxKs_z-p-9qgw", "alias": "la-scala-los-altos", "name": "La Scala", "image_url": "https://s3-media4.fl.yelpcdn.com/bphoto/YcAzoF68acF0QhVlSa1rtw/o.jpg", "is_closed": false, "url": "https://www.yelp.com/biz/la-scala-los-altos?adjust_creative=-1a8ZLzJ76_AvFzvJVcndQ&utm_campaign=yelp_api_v3&utm_medium=api_v3_business_search&utm_source=-1a8ZLzJ76_AvFzvJVcndQ", "review_count": 264, "categories": [{"alias": "italian", "title": "Italian"}, {"alias": "lounges", "title": "Lounges"}], "rating": 3.5, "coordinates": {"latitude": 37.37582, "longitude": -122.116455}, "transactions": ["delivery", "pickup"], "price": "$$", "location": {"address1": "376 1st St", "address2": "", "address3": "", "city": "Los Altos", "zip_code": "94022", "country": "US", "state": "CA", "display_address": ["376 1st St", "Los Altos, CA 94022"]}, "phone": "+16509170300", "display_phone": "(650) 917-0300", "distance": 1316.5280375309712}, {"id": "EhlizSyoWmS1a9lp4wEVCQ", "alias": "pompeii-los-altos", "name": "Pompeii", "image_url": "https://s3-media4.fl.yelpcdn.com/bphoto/X2NHYVlqTtLgv5_-KZ8YMQ/o.jpg", "is_closed": false, "url": "https://www.yelp.com/biz/pompeii-los-altos?adjust_creative=-1a8ZLzJ76_AvFzvJVcndQ&utm_campaign=yelp_api_v3&utm_medium=api_v3_business_search&utm_source=-1a8ZLzJ76_AvFzvJVcndQ", "review_count": 253, "categories": [{"alias": "italian", "title": "Italian"}, {"alias": "pizza", "title": "Pizza"}], "rating": 4.0, "coordinates": {"latitude": 37.38023, "longitude": -122.11564}, "transactions": [], "price": "$$", "location": {"address1": "100 State St", "address2": "", "address3": "", "city": "Los Altos", "zip_code": "94022", "country": "US", "state": "CA", "display_address": ["100 State St", "Los Altos, CA 94022"]}, "phone": "+16509492400", "display_phone": "(650) 949-2400", "distance": 1713.5765794885501}, {"id": "fTybzD573V78WnWdJXrAiw", "alias": "american-italian-delicatessen-los-altos-4", "name": "American Italian Delicatessen", "image_url": "https://s3-media4.fl.yelpcdn.com/bphoto/mduMPhGg7VkkKRbgPm7Xag/o.jpg", "is_closed": false, "url": "https://www.yelp.com/biz/american-italian-delicatessen-los-altos-4?adjust_creative=-1a8ZLzJ76_AvFzvJVcndQ&utm_campaign=yelp_api_v3&utm_medium=api_v3_business_search&utm_source=-1a8ZLzJ76_AvFzvJVcndQ", "review_count": 204, "categories": [{"alias": "delis", "title": "Delis"}, {"alias": "sandwiches", "title": "Sandwiches"}], "rating": 4.0, "coordinates": {"latitude": 37.3793762, "longitude": -122.1147891}, "transactions": [], "price": "$", "location": {"address1": "139 Main St", "address2": "", "address3": "", "city": "Los Altos", "zip_code": "94022", "country": "US", "state": "CA", "display_address": ["139 Main St", "Los Altos, CA 94022"]}, "phone": "+16509486745", "display_phone": "(650) 948-6745", "distance": 1689.0322703395443}, {"id": "calRHdr5m0KTiV18qkSH4Q", "alias": "sweet-diplomacy-los-altos", "name": "Sweet Diplomacy", "image_url": "https://s3-media2.fl.yelpcdn.com/bphoto/fTxfbMvA8S4SHQIl6bU1Vg/o.jpg", "is_closed": false, "url": "https://www.yelp.com/biz/sweet-diplomacy-los-altos?adjust_creative=-1a8ZLzJ76_AvFzvJVcndQ&utm_campaign=yelp_api_v3&utm_medium=api_v3_business_search&utm_source=-1a8ZLzJ76_AvFzvJVcndQ", "review_count": 6, "categories": [{"alias": "gluten_free", "title": "Gluten-Free"}, {"alias": "cakeshop", "title": "Patisserie/Cake Shop"}, {"alias": "customcakes", "title": "Custom Cakes"}], "rating": 5.0, "coordinates": {"latitude": 37.3785629272461, "longitude": -122.115936279297}, "transactions": [], "location": {"address1": "", "address2": null, "address3": "", "city": "Los Altos", "zip_code": "94022", "country": "US", "state": "CA", "display_address": ["Los Altos, CA 94022"]}, "phone": "+16508003816", "display_phone": "(650) 800-3816", "distance": 1067.5075995027823}, {"id": "NfGmDuLKOvj2kLVqo5mqlw", "alias": "red-berry-coffee-bar-los-altos", "name": "Red Berry Coffee Bar", "image_url": "https://s3-media2.fl.yelpcdn.com/bphoto/SulivLO-coewgeZcTPDRjQ/o.jpg", "is_closed": false, "url": "https://www.yelp.com/biz/red-berry-coffee-bar-los-altos?adjust_creative=-1a8ZLzJ76_AvFzvJVcndQ&utm_campaign=yelp_api_v3&utm_medium=api_v3_business_search&utm_source=-1a8ZLzJ76_AvFzvJVcndQ", "review_count": 301, "categories": [{"alias": "coffee", "title": "Coffee & Tea"}, {"alias": "gluten_free", "title": "Gluten-Free"}, {"alias": "breakfast_brunch", "title": "Breakfast & Brunch"}], "rating": 4.0, "coordinates": {"latitude": 37.3795597, "longitude": -122.1148211}, "transactions": [], "price": "$$", "location": {"address1": "145 Main St", "address2": "", "address3": "", "city": "Los Altos", "zip_code": "94022", "country": "US", "state": "CA", "display_address": ["145 Main St", "Los Altos, CA 94022"]}, "phone": "+16509411049", "display_phone": "(650) 941-1049", "distance": 1701.3170995513785}, {"id": "cUQ3Dlu_lRzIOk5pr2dNBg", "alias": "village-pantry-los-altos", "name": "Village Pantry", "image_url": "https://s3-media2.fl.yelpcdn.com/bphoto/zcnIdfUsznrHGVasFgeGCA/o.jpg", "is_closed": false, "url": "https://www.yelp.com/biz/village-pantry-los-altos?adjust_creative=-1a8ZLzJ76_AvFzvJVcndQ&utm_campaign=yelp_api_v3&utm_medium=api_v3_business_search&utm_source=-1a8ZLzJ76_AvFzvJVcndQ", "review_count": 211, "categories": [{"alias": "coffee", "title": "Coffee & Tea"}, {"alias": "breakfast_brunch", "title": "Breakfast & Brunch"}, {"alias": "fishnchips", "title": "Fish & Chips"}], "rating": 4.0, "coordinates": {"latitude": 37.3788646668109, "longitude": -122.117258905054}, "transactions": [], "price": "$$", "location": {"address1": "184 2nd St", "address2": "", "address3": "", "city": "Los Altos", "zip_code": "94022", "country": "US", "state": "CA", "display_address": ["184 2nd St", "Los Altos, CA 94022"]}, "phone": "+16509410384", "display_phone": "(650) 941-0384", "distance": 1497.119472602786}, {"id": "tcQpN3rG3ktGmO2NH-OexA", "alias": "namaste-nepal-food-truck-mountain-view-2", "name": "Namaste Nepal Food Truck", "image_url": "https://s3-media1.fl.yelpcdn.com/bphoto/OQR5yJrDhAYkOVug9B-MIQ/o.jpg", "is_closed": false, "url": "https://www.yelp.com/biz/namaste-nepal-food-truck-mountain-view-2?adjust_creative=-1a8ZLzJ76_AvFzvJVcndQ&utm_campaign=yelp_api_v3&utm_medium=api_v3_business_search&utm_source=-1a8ZLzJ76_AvFzvJVcndQ", "review_count": 203, "categories": [{"alias": "foodtrucks", "title": "Food Trucks"}, {"alias": "indpak", "title": "Indian"}, {"alias": "himalayan", "title": "Himalayan/Nepalese"}], "rating": 4.5, "coordinates": {"latitude": 37.3887273709385, "longitude": -122.088334396889}, "transactions": [], "price": "$", "location": {"address1": "1288 W El Camino Real", "address2": null, "address3": "", "city": "Mountain View", "zip_code": "94040", "country": "US", "state": "CA", "display_address": ["1288 W El Camino Real", "Mountain View, CA 94040"]}, "phone": "+14082205739", "display_phone": "(408) 220-5739", "distance": 4184.022904782309}, {"id": "Bi6VKo6UdftNRQT4AF5rfQ", "alias": "sumo-sushi-boat-los-altos", "name": "Sumo Sushi Boat", "image_url": "https://s3-media1.fl.yelpcdn.com/bphoto/jb8q6yb4dANJxp2Cg2_C1Q/o.jpg", "is_closed": false, "url": "https://www.yelp.com/biz/sumo-sushi-boat-los-altos?adjust_creative=-1a8ZLzJ76_AvFzvJVcndQ&utm_campaign=yelp_api_v3&utm_medium=api_v3_business_search&utm_source=-1a8ZLzJ76_AvFzvJVcndQ", "review_count": 194, "categories": [{"alias": "japanese", "title": "Japanese"}, {"alias": "sushi", "title": "Sushi Bars"}], "rating": 3.5, "coordinates": {"latitude": 37.37879, "longitude": -122.11763}, "transactions": ["delivery", "pickup"], "price": "$$", "location": {"address1": "355 State St", "address2": "", "address3": "", "city": "Los Altos", "zip_code": "94022", "country": "US", "state": "CA", "display_address": ["355 State St", "Los Altos, CA 94022"]}, "phone": "+16509419898", "display_phone": "(650) 941-9898", "distance": 1470.287978428552}, {"id": "IegFO313QPnk337rdhoQOw", "alias": "fire-and-rice-san-jose", "name": "Fire And Rice", "image_url": "https://s3-media2.fl.yelpcdn.com/bphoto/xOYGBlB3cAqOVg_PZ3-wSw/o.jpg", "is_closed": false, "url": "https://www.yelp.com/biz/fire-and-rice-san-jose?adjust_creative=-1a8ZLzJ76_AvFzvJVcndQ&utm_campaign=yelp_api_v3&utm_medium=api_v3_business_search&utm_source=-1a8ZLzJ76_AvFzvJVcndQ", "review_count": 27, "categories": [{"alias": "hawaiian", "title": "Hawaiian"}, {"alias": "asianfusion", "title": "Asian Fusion"}, {"alias": "foodtrucks", "title": "Food Trucks"}], "rating": 4.5, "coordinates": {"latitude": 37.3354873657227, "longitude": -121.877342224121}, "transactions": [], "location": {"address1": "", "address2": null, "address3": "", "city": "San Jose", "zip_code": "95112", "country": "US", "state": "CA", "display_address": ["San Jose, CA 95112"]}, "phone": "+14083372219", "display_phone": "(408) 337-2219", "distance": 21698.513510201992}, {"id": "oqx_GThrxwLOVrKHdRtxXg", "alias": "fiesta-vallarta-los-altos-2", "name": "Fiesta Vallarta", "image_url": "https://s3-media3.fl.yelpcdn.com/bphoto/qzuDFm9JdQLQ3AJqW47FYw/o.jpg", "is_closed": false, "url": "https://www.yelp.com/biz/fiesta-vallarta-los-altos-2?adjust_creative=-1a8ZLzJ76_AvFzvJVcndQ&utm_campaign=yelp_api_v3&utm_medium=api_v3_business_search&utm_source=-1a8ZLzJ76_AvFzvJVcndQ", "review_count": 220, "categories": [{"alias": "mexican", "title": "Mexican"}], "rating": 3.0, "coordinates": {"latitude": 37.37886, "longitude": -122.11758}, "transactions": [], "price": "$$", "location": {"address1": "301 State St", "address2": "", "address3": "", "city": "Los Altos", "zip_code": "94022", "country": "US", "state": "CA", "display_address": ["301 State St", "Los Altos, CA 94022"]}, "phone": "+16505595871", "display_phone": "(650) 559-5871", "distance": 1502.2011788429827}, {"id": "yHaqUG1YndrtbpEfKCUZzw", "alias": "mamacitas-tacos-mountain-view", "name": "Mamacitas Tacos", "image_url": "https://s3-media3.fl.yelpcdn.com/bphoto/En6_9hpAmOANW4dz4ZA4AQ/o.jpg", "is_closed": false, "url": "https://www.yelp.com/biz/mamacitas-tacos-mountain-view?adjust_creative=-1a8ZLzJ76_AvFzvJVcndQ&utm_campaign=yelp_api_v3&utm_medium=api_v3_business_search&utm_source=-1a8ZLzJ76_AvFzvJVcndQ", "review_count": 195, "categories": [{"alias": "foodtrucks", "title": "Food Trucks"}, {"alias": "tacos", "title": "Tacos"}], "rating": 4.0, "coordinates": {"latitude": 37.40108, "longitude": -122.10658}, "transactions": [], "price": "$", "location": {"address1": "555 Showers Dr", "address2": "", "address3": "", "city": "Mountain View", "zip_code": "94040", "country": "US", "state": "CA", "display_address": ["555 Showers Dr", "Mountain View, CA 94040"]}, "phone": "+16502766215", "display_phone": "(650) 276-6215", "distance": 4072.60417712478}, {"id": "7dHj1XDVA_7AYXTfp5i-BQ", "alias": "momo-noodle-san-francisco", "name": "MOMO noodle", "image_url": "https://s3-media4.fl.yelpcdn.com/bphoto/7zlv0Fz-2CTVIPLa767RVw/o.jpg", "is_closed": false, "url": "https://www.yelp.com/biz/momo-noodle-san-francisco?adjust_creative=-1a8ZLzJ76_AvFzvJVcndQ&utm_campaign=yelp_api_v3&utm_medium=api_v3_business_search&utm_source=-1a8ZLzJ76_AvFzvJVcndQ", "review_count": 46, "categories": [{"alias": "noodles", "title": "Noodles"}, {"alias": "foodtrucks", "title": "Food Trucks"}, {"alias": "szechuan", "title": "Szechuan"}], "rating": 4.0, "coordinates": {"latitude": 37.79106, "longitude": -122.40175}, "transactions": [], "price": "$$", "location": {"address1": null, "address2": null, "address3": "", "city": "San Francisco", "zip_code": "94104", "country": "US", "state": "CA", "display_address": ["San Francisco, CA 94104"]}, "phone": "+14088006819", "display_phone": "(408) 800-6819", "distance": 52790.40481301205}, {"id": "qLTmd0I1_e49Jsfv3J9QaA", "alias": "opa-authentic-greek-cuisine-los-altos", "name": "Opa! Authentic Greek Cuisine", "image_url": "https://s3-media3.fl.yelpcdn.com/bphoto/wh2zonmW_XmiBSuwQHc09A/o.jpg", "is_closed": false, "url": "https://www.yelp.com/biz/opa-authentic-greek-cuisine-los-altos?adjust_creative=-1a8ZLzJ76_AvFzvJVcndQ&utm_campaign=yelp_api_v3&utm_medium=api_v3_business_search&utm_source=-1a8ZLzJ76_AvFzvJVcndQ", "review_count": 438, "categories": [{"alias": "greek", "title": "Greek"}, {"alias": "mediterranean", "title": "Mediterranean"}, {"alias": "newamerican", "title": "American (New)"}], "rating": 3.5, "coordinates": {"latitude": 37.3780466, "longitude": -122.1169402}, "transactions": ["delivery", "pickup"], "price": "$$", "location": {"address1": "325 Main St", "address2": "", "address3": "", "city": "Los Altos", "zip_code": "94022", "country": "US", "state": "CA", "display_address": ["325 Main St", "Los Altos, CA 94022"]}, "phone": "+16502095340", "display_phone": "(650) 209-5340", "distance": 1449.9500556435994}, {"id": "fszXmpNW0DdxY-77WtD_UA", "alias": "casa-lupe-los-altos", "name": "Casa Lupe", "image_url": "https://s3-media2.fl.yelpcdn.com/bphoto/EOeOD5XFH_MXZ7Tlmo5YQQ/o.jpg", "is_closed": false, "url": "https://www.yelp.com/biz/casa-lupe-los-altos?adjust_creative=-1a8ZLzJ76_AvFzvJVcndQ&utm_campaign=yelp_api_v3&utm_medium=api_v3_business_search&utm_source=-1a8ZLzJ76_AvFzvJVcndQ", "review_count": 101, "categories": [{"alias": "mexican", "title": "Mexican"}], "rating": 3.5, "coordinates": {"latitude": 37.378956, "longitude": -122.115147}, "transactions": [], "price": "$$", "location": {"address1": "185 Main St", "address2": "", "address3": "", "city": "Los Altos", "zip_code": "94022", "country": "US", "state": "CA", "display_address": ["185 Main St", "Los Altos, CA 94022"]}, "phone": "+16509417390", "display_phone": "(650) 941-7390", "distance": 1633.8224027648223}, {"id": "yJtCB8UkJbrk2E1dISs2Gw", "alias": "ricks-cafe-los-altos", "name": "Rick's Cafe", "image_url": "https://s3-media1.fl.yelpcdn.com/bphoto/phlS4fjKvFzt5XueTmz8hQ/o.jpg", "is_closed": false, "url": "https://www.yelp.com/biz/ricks-cafe-los-altos?adjust_creative=-1a8ZLzJ76_AvFzvJVcndQ&utm_campaign=yelp_api_v3&utm_medium=api_v3_business_search&utm_source=-1a8ZLzJ76_AvFzvJVcndQ", "review_count": 678, "categories": [{"alias": "tradamerican", "title": "American (Traditional)"}, {"alias": "diners", "title": "Diners"}, {"alias": "breakfast_brunch", "title": "Breakfast & Brunch"}], "rating": 3.5, "coordinates": {"latitude": 37.379536, "longitude": -122.116474}, "transactions": [], "price": "$$", "location": {"address1": "205 State St", "address2": "", "address3": "", "city": "Los Altos", "zip_code": "94022", "country": "US", "state": "CA", "display_address": ["205 State St", "Los Altos, CA 94022"]}, "phone": "+16505591941", "display_phone": "(650) 559-1941", "distance": 1598.985534895199}, {"id": "40DtuR_HxNuBVf_uSoy66Q", "alias": "keeku-da-dhaba-fremont-2", "name": "Keeku da Dhaba", "image_url": "https://s3-media2.fl.yelpcdn.com/bphoto/8x2WS8oGXINIKI6pNnQYBw/o.jpg", "is_closed": false, "url": "https://www.yelp.com/biz/keeku-da-dhaba-fremont-2?adjust_creative=-1a8ZLzJ76_AvFzvJVcndQ&utm_campaign=yelp_api_v3&utm_medium=api_v3_business_search&utm_source=-1a8ZLzJ76_AvFzvJVcndQ", "review_count": 115, "categories": [{"alias": "indpak", "title": "Indian"}, {"alias": "foodtrucks", "title": "Food Trucks"}, {"alias": "kebab", "title": "Kebab"}], "rating": 4.5, "coordinates": {"latitude": 37.551938, "longitude": -121.985058}, "transactions": [], "location": {"address1": "3400 Mowry Ave", "address2": "", "address3": "Bharat Bazaar Parking Space", "city": "Fremont", "zip_code": "94538", "country": "US", "state": "CA", "display_address": ["3400 Mowry Ave", "Bharat Bazaar Parking Space", "Fremont, CA 94538"]}, "phone": "+15107893437", "display_phone": "(510) 789-3437", "distance": 23985.76792975635}, {"id": "Q48ffxUdz9WeRcWaMQRtAA", "alias": "kjs-cafe-los-altos", "name": "KJ's Cafe", "image_url": "https://s3-media3.fl.yelpcdn.com/bphoto/irHFPIpPq4KUmEgphEwu8A/o.jpg", "is_closed": false, "url": "https://www.yelp.com/biz/kjs-cafe-los-altos?adjust_creative=-1a8ZLzJ76_AvFzvJVcndQ&utm_campaign=yelp_api_v3&utm_medium=api_v3_business_search&utm_source=-1a8ZLzJ76_AvFzvJVcndQ", "review_count": 14, "categories": [{"alias": "coffee", "title": "Coffee & Tea"}, {"alias": "sandwiches", "title": "Sandwiches"}], "rating": 3.0, "coordinates": {"latitude": 37.3609296, "longitude": -122.1270004}, "transactions": [], "price": "$", "location": {"address1": "12345 El Monte Rd", "address2": "", "address3": "", "city": "Los Altos", "zip_code": "94022", "country": "US", "state": "CA", "display_address": ["12345 El Monte Rd", "Los Altos, CA 94022"]}, "phone": "+16509497568", "display_phone": "(650) 949-7568", "distance": 882.9439614905577}, {"id": "IcjJcP9Rlk91c7h2VM7_eQ", "alias": "lulus-on-main-street-los-altos-5", "name": "LuLu's on Main Street", "image_url": "https://s3-media1.fl.yelpcdn.com/bphoto/ee7EdAxAAz4sZheQzifu2w/o.jpg", "is_closed": false, "url": "https://www.yelp.com/biz/lulus-on-main-street-los-altos-5?adjust_creative=-1a8ZLzJ76_AvFzvJVcndQ&utm_campaign=yelp_api_v3&utm_medium=api_v3_business_search&utm_source=-1a8ZLzJ76_AvFzvJVcndQ", "review_count": 228, "categories": [{"alias": "mexican", "title": "Mexican"}], "rating": 3.0, "coordinates": {"latitude": 37.379238, "longitude": -122.114856}, "transactions": ["delivery", "pickup"], "price": "$$", "location": {"address1": "163 Main St", "address2": "", "address3": "", "city": "Los Altos", "zip_code": "94022", "country": "US", "state": "CA", "display_address": ["163 Main St", "Los Altos, CA 94022"]}, "phone": "+16505598226", "display_phone": "(650) 559-8226", "distance": 1674.0927897422448}, {"id": "JDZKa-jQm-N9zZw-VRIGrA", "alias": "lados-sunnyvale-5", "name": "Lados", "image_url": "https://s3-media1.fl.yelpcdn.com/bphoto/2dPpTRxcg2LM2AiTU6zdJw/o.jpg", "is_closed": false, "url": "https://www.yelp.com/biz/lados-sunnyvale-5?adjust_creative=-1a8ZLzJ76_AvFzvJVcndQ&utm_campaign=yelp_api_v3&utm_medium=api_v3_business_search&utm_source=-1a8ZLzJ76_AvFzvJVcndQ", "review_count": 124, "categories": [{"alias": "halal", "title": "Halal"}, {"alias": "foodtrucks", "title": "Food Trucks"}, {"alias": "pakistani", "title": "Pakistani"}], "rating": 4.5, "coordinates": {"latitude": 37.4029065898111, "longitude": -122.02118922025}, "transactions": ["delivery", "pickup"], "price": "$", "location": {"address1": "115 Plaza Dr", "address2": "", "address3": "", "city": "Sunnyvale", "zip_code": "94089", "country": "US", "state": "CA", "display_address": ["115 Plaza Dr", "Sunnyvale, CA 94089"]}, "phone": "+16502901234", "display_phone": "(650) 290-1234", "distance": 10211.093248099343}, {"id": "PxzM_zNIOy7jdtwT-fbB0w", "alias": "minnie-bells-san-francisco-2", "name": "Minnie Bells", "image_url": "https://s3-media2.fl.yelpcdn.com/bphoto/5YNxEigMmu8anIwGkIsEzg/o.jpg", "is_closed": false, "url": "https://www.yelp.com/biz/minnie-bells-san-francisco-2?adjust_creative=-1a8ZLzJ76_AvFzvJVcndQ&utm_campaign=yelp_api_v3&utm_medium=api_v3_business_search&utm_source=-1a8ZLzJ76_AvFzvJVcndQ", "review_count": 15, "categories": [{"alias": "soulfood", "title": "Soul Food"}, {"alias": "foodtrucks", "title": "Food Trucks"}, {"alias": "comfortfood", "title": "Comfort Food"}], "rating": 4.5, "coordinates": {"latitude": 37.7769775466477, "longitude": -122.416963241994}, "transactions": [], "location": {"address1": "", "address2": "", "address3": null, "city": "San Francisco", "zip_code": "94103", "country": "US", "state": "CA", "display_address": ["San Francisco, CA 94103"]}, "phone": "+14152739340", "display_phone": "(415) 273-9340", "distance": 52024.38010745365}, {"id": "J2K4_V_ivH1_tOkUFwUVJw", "alias": "skips-place-pizza-los-altos", "name": "Skip's Place Pizza", "image_url": "https://s3-media1.fl.yelpcdn.com/bphoto/rJlf7KejPOHC_9TvT-DQ4w/o.jpg", "is_closed": false, "url": "https://www.yelp.com/biz/skips-place-pizza-los-altos?adjust_creative=-1a8ZLzJ76_AvFzvJVcndQ&utm_campaign=yelp_api_v3&utm_medium=api_v3_business_search&utm_source=-1a8ZLzJ76_AvFzvJVcndQ", "review_count": 111, "categories": [{"alias": "pizza", "title": "Pizza"}, {"alias": "bbq", "title": "Barbeque"}, {"alias": "burgers", "title": "Burgers"}], "rating": 3.5, "coordinates": {"latitude": 37.378075624174, "longitude": -122.11772273471}, "transactions": ["delivery", "pickup"], "price": "$", "location": {"address1": "299 1st St", "address2": "", "address3": "", "city": "Los Altos", "zip_code": "94022", "country": "US", "state": "CA", "display_address": ["299 1st St", "Los Altos, CA 94022"]}, "phone": "+16509491170", "display_phone": "(650) 949-1170", "distance": 1404.524154467584}, {"id": "g-MwqoGaVRizywLXH875XA", "alias": "the-original-pancake-house-los-altos-2", "name": "The Original Pancake House", "image_url": "https://s3-media2.fl.yelpcdn.com/bphoto/fza1K9YVQufHD_Gum1CBSg/o.jpg", "is_closed": false, "url": "https://www.yelp.com/biz/the-original-pancake-house-los-altos-2?adjust_creative=-1a8ZLzJ76_AvFzvJVcndQ&utm_campaign=yelp_api_v3&utm_medium=api_v3_business_search&utm_source=-1a8ZLzJ76_AvFzvJVcndQ", "review_count": 438, "categories": [{"alias": "breakfast_brunch", "title": "Breakfast & Brunch"}, {"alias": "waffles", "title": "Waffles"}, {"alias": "creperies", "title": "Creperies"}], "rating": 3.0, "coordinates": {"latitude": 37.3752501, "longitude": -122.1144249}, "transactions": ["delivery", "pickup"], "price": "$$", "location": {"address1": "420 S San Antonio Rd", "address2": "", "address3": "", "city": "Los Altos", "zip_code": "94022", "country": "US", "state": "CA", "display_address": ["420 S San Antonio Rd", "Los Altos, CA 94022"]}, "phone": "+16505599197", "display_phone": "(650) 559-9197", "distance": 1416.3968290590917}, {"id": "n7VAlMtf5BvwVOHbw8wUVw", "alias": "mikado-los-altos", "name": "Mikado", "image_url": "https://s3-media3.fl.yelpcdn.com/bphoto/1nT72XwSN6n9eClkjZedyA/o.jpg", "is_closed": false, "url": "https://www.yelp.com/biz/mikado-los-altos?adjust_creative=-1a8ZLzJ76_AvFzvJVcndQ&utm_campaign=yelp_api_v3&utm_medium=api_v3_business_search&utm_source=-1a8ZLzJ76_AvFzvJVcndQ", "review_count": 196, "categories": [{"alias": "japanese", "title": "Japanese"}, {"alias": "sushi", "title": "Sushi Bars"}, {"alias": "korean", "title": "Korean"}], "rating": 3.5, "coordinates": {"latitude": 37.37919, "longitude": -122.11477}, "transactions": ["delivery", "pickup"], "price": "$$", "location": {"address1": "161 Main St", "address2": "", "address3": "", "city": "Los Altos", "zip_code": "94022", "country": "US", "state": "CA", "display_address": ["161 Main St", "Los Altos, CA 94022"]}, "phone": "+16509178388", "display_phone": "(650) 917-8388", "distance": 1677.3615980820484}, {"id": "rM6pPB_qmQ3de5yGpfLT1g", "alias": "lomo-libre-san-francisco-2", "name": "Lomo Libre", "image_url": "https://s3-media1.fl.yelpcdn.com/bphoto/vjnO-EUjFHKoLMy2_JQYvg/o.jpg", "is_closed": false, "url": "https://www.yelp.com/biz/lomo-libre-san-francisco-2?adjust_creative=-1a8ZLzJ76_AvFzvJVcndQ&utm_campaign=yelp_api_v3&utm_medium=api_v3_business_search&utm_source=-1a8ZLzJ76_AvFzvJVcndQ", "review_count": 8, "categories": [{"alias": "foodtrucks", "title": "Food Trucks"}, {"alias": "peruvian", "title": "Peruvian"}], "rating": 5.0, "coordinates": {"latitude": 37.799634, "longitude": -122.436301}, "transactions": [], "location": {"address1": "2101 Lombard St", "address2": "", "address3": null, "city": "San Francisco", "zip_code": "94123", "country": "US", "state": "CA", "display_address": ["2101 Lombard St", "San Francisco, CA 94123"]}, "phone": "+14156198149", "display_phone": "(415) 619-8149", "distance": 55054.31998637412}, {"id": "tE2pD9JCVVDtvFthD2IknQ", "alias": "campagne-one-main-los-altos", "name": "Campagne One Main", "image_url": "https://s3-media4.fl.yelpcdn.com/bphoto/zjZ5-9LSM75CLZJXAF9Pcg/o.jpg", "is_closed": false, "url": "https://www.yelp.com/biz/campagne-one-main-los-altos?adjust_creative=-1a8ZLzJ76_AvFzvJVcndQ&utm_campaign=yelp_api_v3&utm_medium=api_v3_business_search&utm_source=-1a8ZLzJ76_AvFzvJVcndQ", "review_count": 12, "categories": [{"alias": "breakfast_brunch", "title": "Breakfast & Brunch"}, {"alias": "french", "title": "French"}], "rating": 4.0, "coordinates": {"latitude": 37.38079, "longitude": -122.11443}, "transactions": [], "price": "$$", "location": {"address1": "1 Main St", "address2": "", "address3": "Enchant\u00e9 Boutique Hotel", "city": "Los Altos", "zip_code": "94022", "country": "US", "state": "CA", "display_address": ["1 Main St", "Enchant\u00e9 Boutique Hotel", "Los Altos, CA 94022"]}, "phone": "+16509462000", "display_phone": "(650) 946-2000", "distance": 1823.3147381877745}, {"id": "y7jjHpDrYUI7YGpE8e31-g", "alias": "pita-and-salt-santa-clara-2", "name": "Pita & Salt", "image_url": "https://s3-media4.fl.yelpcdn.com/bphoto/OzeFWYEgK2L4rl5VOSyEHQ/o.jpg", "is_closed": false, "url": "https://www.yelp.com/biz/pita-and-salt-santa-clara-2?adjust_creative=-1a8ZLzJ76_AvFzvJVcndQ&utm_campaign=yelp_api_v3&utm_medium=api_v3_business_search&utm_source=-1a8ZLzJ76_AvFzvJVcndQ", "review_count": 74, "categories": [{"alias": "mediterranean", "title": "Mediterranean"}, {"alias": "halal", "title": "Halal"}, {"alias": "foodtrucks", "title": "Food Trucks"}], "rating": 4.5, "coordinates": {"latitude": 37.3400871, "longitude": -121.987255}, "transactions": ["delivery", "pickup"], "price": "$", "location": {"address1": null, "address2": null, "address3": "", "city": "Santa Clara", "zip_code": "95051", "country": "US", "state": "CA", "display_address": ["Santa Clara, CA 95051"]}, "phone": "+16128765509", "display_phone": "(612) 876-5509", "distance": 12884.562661557655}, {"id": "jdQAQxGN4eiBy-ofZJ4gZA", "alias": "foothill-college-dining-services-los-altos", "name": "Foothill College Dining Services", "image_url": "https://s3-media2.fl.yelpcdn.com/bphoto/as8gN2upl9piekBeZXa-6Q/o.jpg", "is_closed": false, "url": "https://www.yelp.com/biz/foothill-college-dining-services-los-altos?adjust_creative=-1a8ZLzJ76_AvFzvJVcndQ&utm_campaign=yelp_api_v3&utm_medium=api_v3_business_search&utm_source=-1a8ZLzJ76_AvFzvJVcndQ", "review_count": 14, "categories": [{"alias": "newamerican", "title": "American (New)"}], "rating": 2.5, "coordinates": {"latitude": 37.362064, "longitude": -122.127141}, "transactions": [], "price": "$$", "location": {"address1": "12345 El Monte Rd", "address2": "", "address3": "", "city": "Los Altos", "zip_code": "94022", "country": "US", "state": "CA", "display_address": ["12345 El Monte Rd", "Los Altos, CA 94022"]}, "phone": "+16509497777", "display_phone": "(650) 949-7777", "distance": 756.3872409138917}, {"id": "eFze49p61lnz566lHbLcfw", "alias": "smoked-out-bbq-santa-clara-3", "name": "Smoked Out BBQ", "image_url": "https://s3-media2.fl.yelpcdn.com/bphoto/L77L7PXYKv_Ndhdx1B6y2A/o.jpg", "is_closed": false, "url": "https://www.yelp.com/biz/smoked-out-bbq-santa-clara-3?adjust_creative=-1a8ZLzJ76_AvFzvJVcndQ&utm_campaign=yelp_api_v3&utm_medium=api_v3_business_search&utm_source=-1a8ZLzJ76_AvFzvJVcndQ", "review_count": 101, "categories": [{"alias": "foodtrucks", "title": "Food Trucks"}, {"alias": "bbq", "title": "Barbeque"}, {"alias": "tradamerican", "title": "American (Traditional)"}], "rating": 4.5, "coordinates": {"latitude": 37.38453, "longitude": -121.94872}, "transactions": ["delivery", "pickup"], "price": "$$", "location": {"address1": "807 Aldo Ave", "address2": "Ste 106", "address3": "", "city": "Santa Clara", "zip_code": "95054", "country": "US", "state": "CA", "display_address": ["807 Aldo Ave", "Ste 106", "Santa Clara, CA 95054"]}, "phone": "+14083202971", "display_phone": "(408) 320-2971", "distance": 15927.465267979702}, {"id": "kQEPAzL76d_4F8RJwpmYCQ", "alias": "3-3-3-fremont", "name": "3-3-3", "image_url": "https://s3-media1.fl.yelpcdn.com/bphoto/WrUzEXSitGcLpQkVQsUgWg/o.jpg", "is_closed": false, "url": "https://www.yelp.com/biz/3-3-3-fremont?adjust_creative=-1a8ZLzJ76_AvFzvJVcndQ&utm_campaign=yelp_api_v3&utm_medium=api_v3_business_search&utm_source=-1a8ZLzJ76_AvFzvJVcndQ", "review_count": 182, "categories": [{"alias": "korean", "title": "Korean"}, {"alias": "foodtrucks", "title": "Food Trucks"}, {"alias": "indpak", "title": "Indian"}], "rating": 4.0, "coordinates": {"latitude": 37.3595859789331, "longitude": -121.923039561035}, "transactions": [], "price": "$", "location": {"address1": "", "address2": null, "address3": "", "city": "Fremont", "zip_code": "94539", "country": "US", "state": "CA", "display_address": ["Fremont, CA 94539"]}, "phone": "+15104498360", "display_phone": "(510) 449-8360", "distance": 18185.557378658297}, {"id": "1bOP1Yzx0A8ekLfAlfXqdA", "alias": "delhiwala-chaat-sunnyvale-5", "name": "Delhiwala Chaat", "image_url": "https://s3-media3.fl.yelpcdn.com/bphoto/t2-6oGLJyN9OAUTrNEuXpA/o.jpg", "is_closed": false, "url": "https://www.yelp.com/biz/delhiwala-chaat-sunnyvale-5?adjust_creative=-1a8ZLzJ76_AvFzvJVcndQ&utm_campaign=yelp_api_v3&utm_medium=api_v3_business_search&utm_source=-1a8ZLzJ76_AvFzvJVcndQ", "review_count": 273, "categories": [{"alias": "foodtrucks", "title": "Food Trucks"}, {"alias": "indpak", "title": "Indian"}, {"alias": "vegetarian", "title": "Vegetarian"}], "rating": 4.5, "coordinates": {"latitude": 37.3812940033346, "longitude": -122.018071772228}, "transactions": [], "price": "$", "location": {"address1": "296 N Fair Oaks Ave", "address2": null, "address3": "", "city": "Sunnyvale", "zip_code": "94085", "country": "US", "state": "CA", "display_address": ["296 N Fair Oaks Ave", "Sunnyvale, CA 94085"]}, "phone": "+14085616778", "display_phone": "(408) 561-6778", "distance": 9855.418831844818}, {"id": "DC42MrpWtqEeWRmMsn6Z8w", "alias": "the-everest-momo-fremont-2", "name": "The Everest Momo", "image_url": "https://s3-media2.fl.yelpcdn.com/bphoto/T2f7tUQ1c104otx9oSdqYw/o.jpg", "is_closed": false, "url": "https://www.yelp.com/biz/the-everest-momo-fremont-2?adjust_creative=-1a8ZLzJ76_AvFzvJVcndQ&utm_campaign=yelp_api_v3&utm_medium=api_v3_business_search&utm_source=-1a8ZLzJ76_AvFzvJVcndQ", "review_count": 23, "categories": [{"alias": "foodtrucks", "title": "Food Trucks"}, {"alias": "indpak", "title": "Indian"}, {"alias": "himalayan", "title": "Himalayan/Nepalese"}], "rating": 4.5, "coordinates": {"latitude": 37.54643, "longitude": -121.98512}, "transactions": [], "price": "$", "location": {"address1": "39233 Fremont Blvd", "address2": null, "address3": null, "city": "Fremont", "zip_code": "94538", "country": "US", "state": "CA", "display_address": ["39233 Fremont Blvd", "Fremont, CA 94538"]}, "phone": "+14088406369", "display_phone": "(408) 840-6369", "distance": 23471.611208906696}, {"id": "q5gh0Vf9HG_KqzdL-uqzgA", "alias": "le-boulanger-los-altos", "name": "Le Boulanger", "image_url": "https://s3-media2.fl.yelpcdn.com/bphoto/0AJ1LbSxU4FGsi5GGqzCrw/o.jpg", "is_closed": false, "url": "https://www.yelp.com/biz/le-boulanger-los-altos?adjust_creative=-1a8ZLzJ76_AvFzvJVcndQ&utm_campaign=yelp_api_v3&utm_medium=api_v3_business_search&utm_source=-1a8ZLzJ76_AvFzvJVcndQ", "review_count": 182, "categories": [{"alias": "bakeries", "title": "Bakeries"}, {"alias": "coffee", "title": "Coffee & Tea"}, {"alias": "sandwiches", "title": "Sandwiches"}], "rating": 3.5, "coordinates": {"latitude": 37.37803, "longitude": -122.11672}, "transactions": ["delivery", "pickup"], "price": "$", "location": {"address1": "301 Main St", "address2": "", "address3": "", "city": "Los Altos", "zip_code": "94022", "country": "US", "state": "CA", "display_address": ["301 Main St", "Los Altos, CA 94022"]}, "phone": "+16509493429", "display_phone": "(650) 949-3429", "distance": 1470.8480749503692}, {"id": "e1fZjD6MVhDJH13uMP3sZw", "alias": "spot-a-pizza-place-los-altos-2", "name": "Spot A Pizza Place", "image_url": "https://s3-media3.fl.yelpcdn.com/bphoto/-I1RiKTQYwT0sJNfTBB53g/o.jpg", "is_closed": false, "url": "https://www.yelp.com/biz/spot-a-pizza-place-los-altos-2?adjust_creative=-1a8ZLzJ76_AvFzvJVcndQ&utm_campaign=yelp_api_v3&utm_medium=api_v3_business_search&utm_source=-1a8ZLzJ76_AvFzvJVcndQ", "review_count": 177, "categories": [{"alias": "pizza", "title": "Pizza"}], "rating": 3.0, "coordinates": {"latitude": 37.3798179626465, "longitude": -122.114555358887}, "transactions": ["delivery", "pickup"], "price": "$", "location": {"address1": "133 Main St", "address2": null, "address3": "", "city": "Los Altos", "zip_code": "94023", "country": "US", "state": "CA", "display_address": ["133 Main St", "Los Altos, CA 94023"]}, "phone": "+16509477768", "display_phone": "(650) 947-7768", "distance": 1729.1461203798667}, {"id": "8SNGFcMWZkvS4GWDUL8w1Q", "alias": "noon-o-kabob-san-jose-4", "name": "Noon O Kabob", "image_url": "https://s3-media2.fl.yelpcdn.com/bphoto/5GmY5FRw0m0XEWC5XXbVlA/o.jpg", "is_closed": false, "url": "https://www.yelp.com/biz/noon-o-kabob-san-jose-4?adjust_creative=-1a8ZLzJ76_AvFzvJVcndQ&utm_campaign=yelp_api_v3&utm_medium=api_v3_business_search&utm_source=-1a8ZLzJ76_AvFzvJVcndQ", "review_count": 29, "categories": [{"alias": "foodtrucks", "title": "Food Trucks"}, {"alias": "kebab", "title": "Kebab"}, {"alias": "persian", "title": "Persian/Iranian"}], "rating": 4.5, "coordinates": {"latitude": 37.3940232, "longitude": -122.0288052}, "transactions": [], "price": "$$", "location": {"address1": null, "address2": null, "address3": null, "city": "San Jose", "zip_code": "95101", "country": "US", "state": "CA", "display_address": ["San Jose, CA 95101"]}, "phone": "+14083346777", "display_phone": "(408) 334-6777", "distance": 9243.921849490767}, {"id": "CUwBAy6lrFi4x6Neu9eRVw", "alias": "mini-street-burger-alameda-3", "name": "Mini Street Burger", "image_url": "https://s3-media2.fl.yelpcdn.com/bphoto/Kh-OQKBIclWY1dCeIuu57w/o.jpg", "is_closed": false, "url": "https://www.yelp.com/biz/mini-street-burger-alameda-3?adjust_creative=-1a8ZLzJ76_AvFzvJVcndQ&utm_campaign=yelp_api_v3&utm_medium=api_v3_business_search&utm_source=-1a8ZLzJ76_AvFzvJVcndQ", "review_count": 28, "categories": [{"alias": "foodtrucks", "title": "Food Trucks"}, {"alias": "burgers", "title": "Burgers"}], "rating": 4.0, "coordinates": {"latitude": 37.82628, "longitude": -122.25101}, "transactions": [], "location": {"address1": null, "address2": null, "address3": null, "city": "Alameda", "zip_code": "94611", "country": "US", "state": "CA", "display_address": ["Alameda, CA 94611"]}, "phone": "+15108278982", "display_phone": "(510) 827-8982", "distance": 52103.47504618019}, {"id": "lLF85IwyJRNlVzdt2nKADg", "alias": "pav-bhaji-hut-sunnyvale", "name": "Pav Bhaji Hut", "image_url": "https://s3-media2.fl.yelpcdn.com/bphoto/QU02i8LoL8aEKkFmme_kRw/o.jpg", "is_closed": false, "url": "https://www.yelp.com/biz/pav-bhaji-hut-sunnyvale?adjust_creative=-1a8ZLzJ76_AvFzvJVcndQ&utm_campaign=yelp_api_v3&utm_medium=api_v3_business_search&utm_source=-1a8ZLzJ76_AvFzvJVcndQ", "review_count": 520, "categories": [{"alias": "foodtrucks", "title": "Food Trucks"}, {"alias": "indpak", "title": "Indian"}, {"alias": "vegetarian", "title": "Vegetarian"}], "rating": 4.0, "coordinates": {"latitude": 37.4054217, "longitude": -121.9957604}, "transactions": ["delivery", "pickup"], "price": "$", "location": {"address1": "1201 Lawrence Station Rd", "address2": null, "address3": "", "city": "Sunnyvale", "zip_code": "94089", "country": "US", "state": "CA", "display_address": ["1201 Lawrence Station Rd", "Sunnyvale, CA 94089"]}, "phone": "+14085200459", "display_phone": "(408) 520-0459", "distance": 12413.957808240286}, {"id": "0x_iVQeDq7YVMjNGUNuloA", "alias": "holy-cannoli-san-jose-3", "name": "Holy Cannoli", "image_url": "https://s3-media1.fl.yelpcdn.com/bphoto/-2Pxy7VYA8-CTgdvUf58Og/o.jpg", "is_closed": false, "url": "https://www.yelp.com/biz/holy-cannoli-san-jose-3?adjust_creative=-1a8ZLzJ76_AvFzvJVcndQ&utm_campaign=yelp_api_v3&utm_medium=api_v3_business_search&utm_source=-1a8ZLzJ76_AvFzvJVcndQ", "review_count": 58, "categories": [{"alias": "cafes", "title": "Cafes"}, {"alias": "catering", "title": "Caterers"}, {"alias": "foodtrucks", "title": "Food Trucks"}], "rating": 4.5, "coordinates": {"latitude": 37.337298, "longitude": -121.88759}, "transactions": ["delivery", "pickup"], "price": "$", "location": {"address1": "138 E Santa Clara St", "address2": null, "address3": null, "city": "San Jose", "zip_code": "95113", "country": "US", "state": "CA", "display_address": ["138 E Santa Clara St", "San Jose, CA 95113"]}, "phone": "+14085612223", "display_phone": "(408) 561-2223", "distance": 21578.743915790994}, {"id": "3vpe03iIZMCN1j0W39AROg", "alias": "akita-gourmet-santa-clara", "name": "Akita Gourmet", "image_url": "https://s3-media2.fl.yelpcdn.com/bphoto/pJgeD4nO8FKiP1wouYt6fA/o.jpg", "is_closed": false, "url": "https://www.yelp.com/biz/akita-gourmet-santa-clara?adjust_creative=-1a8ZLzJ76_AvFzvJVcndQ&utm_campaign=yelp_api_v3&utm_medium=api_v3_business_search&utm_source=-1a8ZLzJ76_AvFzvJVcndQ", "review_count": 51, "categories": [{"alias": "foodtrucks", "title": "Food Trucks"}, {"alias": "sushi", "title": "Sushi Bars"}], "rating": 4.0, "coordinates": {"latitude": 37.3572313, "longitude": -121.9340228}, "transactions": ["delivery"], "price": "$$", "location": {"address1": "1290 Coleman Av", "address2": null, "address3": "", "city": "Santa Clara", "zip_code": "95050", "country": "US", "state": "CA", "display_address": ["1290 Coleman Av", "Santa Clara, CA 95050"]}, "phone": "+14089305242", "display_phone": "(408) 930-5242", "distance": 17234.31592735163}, {"id": "AvMZaTZdPbawk3z8LFgUzQ", "alias": "food-street-su-jaime-food-truck-palo-alto", "name": "Food Street Su Jaime Food Truck", "image_url": "https://s3-media2.fl.yelpcdn.com/bphoto/QcM_YqwPV-DlcNFce_VJdg/o.jpg", "is_closed": false, "url": "https://www.yelp.com/biz/food-street-su-jaime-food-truck-palo-alto?adjust_creative=-1a8ZLzJ76_AvFzvJVcndQ&utm_campaign=yelp_api_v3&utm_medium=api_v3_business_search&utm_source=-1a8ZLzJ76_AvFzvJVcndQ", "review_count": 2, "categories": [{"alias": "foodtrucks", "title": "Food Trucks"}, {"alias": "tacos", "title": "Tacos"}, {"alias": "catering", "title": "Caterers"}], "rating": 5.0, "coordinates": {"latitude": 37.405068, "longitude": -122.140252}, "transactions": [], "location": {"address1": "3801 Miranda Ave", "address2": "", "address3": "", "city": "Palo Alto", "zip_code": "95127", "country": "US", "state": "CA", "display_address": ["3801 Miranda Ave", "Palo Alto, CA 95127"]}, "phone": "+16507508822", "display_phone": "(650) 750-8822", "distance": 4166.5867823722565}, {"id": "M3vYD__s0sSkOie_Uwft3A", "alias": "taste-buds-bbq-tracy-2", "name": "Taste Buds BBQ", "image_url": "https://s3-media1.fl.yelpcdn.com/bphoto/pX1yclRMlmo1S7Db6iO6Lg/o.jpg", "is_closed": false, "url": "https://www.yelp.com/biz/taste-buds-bbq-tracy-2?adjust_creative=-1a8ZLzJ76_AvFzvJVcndQ&utm_campaign=yelp_api_v3&utm_medium=api_v3_business_search&utm_source=-1a8ZLzJ76_AvFzvJVcndQ", "review_count": 3, "categories": [{"alias": "bbq", "title": "Barbeque"}, {"alias": "catering", "title": "Caterers"}, {"alias": "foodtrucks", "title": "Food Trucks"}], "rating": 4.5, "coordinates": {"latitude": 37.74251, "longitude": -121.42994}, "transactions": [], "location": {"address1": "", "address2": null, "address3": "", "city": "Tracy", "zip_code": "95376", "country": "US", "state": "CA", "display_address": ["Tracy, CA 95376"]}, "phone": "+16502241324", "display_phone": "(650) 224-1324", "distance": 73485.36311773813}, {"id": "PDxq7VnVG0mCThRHHSN-6A", "alias": "los-jarochos-grill-san-jose-2", "name": "Los Jarochos Grill", "image_url": "https://s3-media1.fl.yelpcdn.com/bphoto/EAxtcK2U8BdCVieKFu2cFw/o.jpg", "is_closed": false, "url": "https://www.yelp.com/biz/los-jarochos-grill-san-jose-2?adjust_creative=-1a8ZLzJ76_AvFzvJVcndQ&utm_campaign=yelp_api_v3&utm_medium=api_v3_business_search&utm_source=-1a8ZLzJ76_AvFzvJVcndQ", "review_count": 18, "categories": [{"alias": "foodtrucks", "title": "Food Trucks"}, {"alias": "catering", "title": "Caterers"}, {"alias": "mexican", "title": "Mexican"}], "rating": 4.5, "coordinates": {"latitude": 37.3386497497559, "longitude": -121.88542175293}, "transactions": [], "price": "$", "location": {"address1": "", "address2": "", "address3": "", "city": "San Jose", "zip_code": "95054", "country": "US", "state": "CA", "display_address": ["San Jose, CA 95054"]}, "phone": "+14086444587", "display_phone": "(408) 644-4587", "distance": 14874.311834398402}, {"id": "DDnMlztygM74mcoRMTtdDw", "alias": "the-posh-bagel-los-altos", "name": "The Posh Bagel", "image_url": "https://s3-media2.fl.yelpcdn.com/bphoto/Isw9Mqk3KKXlk6J4NZpR5g/o.jpg", "is_closed": false, "url": "https://www.yelp.com/biz/the-posh-bagel-los-altos?adjust_creative=-1a8ZLzJ76_AvFzvJVcndQ&utm_campaign=yelp_api_v3&utm_medium=api_v3_business_search&utm_source=-1a8ZLzJ76_AvFzvJVcndQ", "review_count": 144, "categories": [{"alias": "bakeries", "title": "Bakeries"}, {"alias": "bubbletea", "title": "Bubble Tea"}, {"alias": "breakfast_brunch", "title": "Breakfast & Brunch"}], "rating": 3.5, "coordinates": {"latitude": 37.37844, "longitude": -122.11704}, "transactions": [], "price": "$", "location": {"address1": "310 Main St", "address2": "", "address3": "", "city": "Los Altos", "zip_code": "94022", "country": "US", "state": "CA", "display_address": ["310 Main St", "Los Altos, CA 94022"]}, "phone": "+16509417516", "display_phone": "(650) 941-7516", "distance": 1475.4295817262387}, {"id": "jCcAuXhCpeJP2n-8ol7mxg", "alias": "kolobok-russian-soul-food-truck-oakland", "name": "Kolobok Russian Soul Food Truck", "image_url": "https://s3-media1.fl.yelpcdn.com/bphoto/k8s1Bfc05Iw7SJXE6VJ74Q/o.jpg", "is_closed": false, "url": "https://www.yelp.com/biz/kolobok-russian-soul-food-truck-oakland?adjust_creative=-1a8ZLzJ76_AvFzvJVcndQ&utm_campaign=yelp_api_v3&utm_medium=api_v3_business_search&utm_source=-1a8ZLzJ76_AvFzvJVcndQ", "review_count": 47, "categories": [{"alias": "foodtrucks", "title": "Food Trucks"}, {"alias": "russian", "title": "Russian"}], "rating": 4.5, "coordinates": {"latitude": 37.7883087690458, "longitude": -122.309032460882}, "transactions": [], "price": "$$", "location": {"address1": null, "address2": null, "address3": "", "city": "Oakland", "zip_code": "94577", "country": "US", "state": "CA", "display_address": ["Oakland, CA 94577"]}, "phone": "+15105996542", "display_phone": "(510) 599-6542", "distance": 49287.80417438904}, {"id": "qOKiXV4yxm40m3Ni9vsQlA", "alias": "momo-cook-fremont-3", "name": "MoMo CooK", "image_url": "https://s3-media1.fl.yelpcdn.com/bphoto/ZAM_gtFZMwrxbsxML0Qm2w/o.jpg", "is_closed": false, "url": "https://www.yelp.com/biz/momo-cook-fremont-3?adjust_creative=-1a8ZLzJ76_AvFzvJVcndQ&utm_campaign=yelp_api_v3&utm_medium=api_v3_business_search&utm_source=-1a8ZLzJ76_AvFzvJVcndQ", "review_count": 143, "categories": [{"alias": "chinese", "title": "Chinese"}, {"alias": "indpak", "title": "Indian"}, {"alias": "foodtrucks", "title": "Food Trucks"}], "rating": 4.5, "coordinates": {"latitude": 37.5536230879515, "longitude": -121.982570104301}, "transactions": [], "price": "$", "location": {"address1": "39039 Capitol Ave", "address2": null, "address3": "", "city": "Fremont", "zip_code": "94538", "country": "US", "state": "CA", "display_address": ["39039 Capitol Ave", "Fremont, CA 94538"]}, "phone": "+16012126767", "display_phone": "(601) 212-6767", "distance": 24255.091858049942}, {"id": "zo6RzWE2jAZ0eoT75T8WRg", "alias": "round-table-pizza-los-altos", "name": "Round Table Pizza", "image_url": "https://s3-media1.fl.yelpcdn.com/bphoto/ag3XXndAfxs_BYkuONQVqg/o.jpg", "is_closed": false, "url": "https://www.yelp.com/biz/round-table-pizza-los-altos?adjust_creative=-1a8ZLzJ76_AvFzvJVcndQ&utm_campaign=yelp_api_v3&utm_medium=api_v3_business_search&utm_source=-1a8ZLzJ76_AvFzvJVcndQ", "review_count": 33, "categories": [{"alias": "pizza", "title": "Pizza"}], "rating": 2.5, "coordinates": {"latitude": 37.375518, "longitude": -122.115493}, "transactions": [], "price": "$$", "location": {"address1": "399 1st St", "address2": "", "address3": "", "city": "Los Altos", "zip_code": "94022", "country": "US", "state": "CA", "display_address": ["399 1st St", "Los Altos, CA 94022"]}, "phone": "+16509410237", "display_phone": "(650) 941-0237", "distance": 1361.7051878502614}, {"id": "or6vgjw2EFtsWUW_F_eW3A", "alias": "yoshi-food-truck-fremont-2", "name": "Yoshi Food Truck", "image_url": "https://s3-media3.fl.yelpcdn.com/bphoto/YTdMb9ocRxHjMv-CEYwN5g/o.jpg", "is_closed": false, "url": "https://www.yelp.com/biz/yoshi-food-truck-fremont-2?adjust_creative=-1a8ZLzJ76_AvFzvJVcndQ&utm_campaign=yelp_api_v3&utm_medium=api_v3_business_search&utm_source=-1a8ZLzJ76_AvFzvJVcndQ", "review_count": 27, "categories": [{"alias": "foodtrucks", "title": "Food Trucks"}, {"alias": "poke", "title": "Poke"}, {"alias": "japanese", "title": "Japanese"}], "rating": 4.5, "coordinates": {"latitude": 37.494597, "longitude": -121.94160967}, "transactions": [], "location": {"address1": "45500 Fremont Blvd", "address2": null, "address3": "", "city": "Fremont", "zip_code": "94538", "country": "US", "state": "CA", "display_address": ["45500 Fremont Blvd", "Fremont, CA 94538"]}, "phone": "+16693776666", "display_phone": "(669) 377-6666", "distance": 21530.249146719078}, {"id": "X1NgPMMREoTTDAZPe6D-kA", "alias": "whisk-on-wheels-redwood-city", "name": "Whisk on Wheels", "image_url": "https://s3-media1.fl.yelpcdn.com/bphoto/qt-YlMlVl6G5a2wXxHgtJA/o.jpg", "is_closed": false, "url": "https://www.yelp.com/biz/whisk-on-wheels-redwood-city?adjust_creative=-1a8ZLzJ76_AvFzvJVcndQ&utm_campaign=yelp_api_v3&utm_medium=api_v3_business_search&utm_source=-1a8ZLzJ76_AvFzvJVcndQ", "review_count": 119, "categories": [{"alias": "catering", "title": "Caterers"}, {"alias": "foodtrucks", "title": "Food Trucks"}, {"alias": "tradamerican", "title": "American (Traditional)"}], "rating": 4.0, "coordinates": {"latitude": 37.48853, "longitude": -122.22662}, "transactions": [], "price": "$$", "location": {"address1": "", "address2": null, "address3": "", "city": "Redwood City", "zip_code": "94063", "country": "US", "state": "CA", "display_address": ["Redwood City, CA 94063"]}, "phone": "+14159021188", "display_phone": "(415) 902-1188", "distance": 16433.458143952095}, {"id": "IU3OJCdlT92FsM8ohRiWig", "alias": "el-buen-taco-santa-cruz-2", "name": "El Buen Taco", "image_url": "https://s3-media2.fl.yelpcdn.com/bphoto/A_KAIKX-yDTTk2TTkFnFhw/o.jpg", "is_closed": false, "url": "https://www.yelp.com/biz/el-buen-taco-santa-cruz-2?adjust_creative=-1a8ZLzJ76_AvFzvJVcndQ&utm_campaign=yelp_api_v3&utm_medium=api_v3_business_search&utm_source=-1a8ZLzJ76_AvFzvJVcndQ", "review_count": 22, "categories": [{"alias": "tacos", "title": "Tacos"}, {"alias": "foodtrucks", "title": "Food Trucks"}], "rating": 4.5, "coordinates": {"latitude": 36.97017, "longitude": -122.02429}, "transactions": [], "location": {"address1": null, "address2": null, "address3": "", "city": "Santa Cruz", "zip_code": "95060", "country": "US", "state": "CA", "display_address": ["Santa Cruz, CA 95060"]}, "phone": "+18317130703", "display_phone": "(831) 713-0703", "distance": 44730.12093863205}, {"id": "qArqv7Sl3-kz7m-I0-pyuw", "alias": "scratch-cookery-san-jose-2", "name": "Scratch Cookery", "image_url": "https://s3-media2.fl.yelpcdn.com/bphoto/3bI-gW0tJ17iJqo1qn_W7A/o.jpg", "is_closed": false, "url": "https://www.yelp.com/biz/scratch-cookery-san-jose-2?adjust_creative=-1a8ZLzJ76_AvFzvJVcndQ&utm_campaign=yelp_api_v3&utm_medium=api_v3_business_search&utm_source=-1a8ZLzJ76_AvFzvJVcndQ", "review_count": 107, "categories": [{"alias": "foodtrucks", "title": "Food Trucks"}, {"alias": "chickenshop", "title": "Chicken Shop"}, {"alias": "tradamerican", "title": "American (Traditional)"}], "rating": 4.5, "coordinates": {"latitude": 37.374431, "longitude": -121.856157}, "transactions": [], "price": "$$", "location": {"address1": "", "address2": null, "address3": "", "city": "San Jose", "zip_code": "95133", "country": "US", "state": "CA", "display_address": ["San Jose, CA 95133"]}, "phone": "+14086010396", "display_phone": "(408) 601-0396", "distance": 23555.6715548948}, {"id": "Leup0gVdW3eHxgikGvsGmw", "alias": "tierra-blanca-sushi-y-mariscos-redwood-city-5", "name": "Tierra Blanca Sushi Y Mariscos", "image_url": "https://s3-media4.fl.yelpcdn.com/bphoto/oN511OPbO2yrk38tX11wSQ/o.jpg", "is_closed": false, "url": "https://www.yelp.com/biz/tierra-blanca-sushi-y-mariscos-redwood-city-5?adjust_creative=-1a8ZLzJ76_AvFzvJVcndQ&utm_campaign=yelp_api_v3&utm_medium=api_v3_business_search&utm_source=-1a8ZLzJ76_AvFzvJVcndQ", "review_count": 35, "categories": [{"alias": "mexican", "title": "Mexican"}, {"alias": "foodtrucks", "title": "Food Trucks"}, {"alias": "seafood", "title": "Seafood"}], "rating": 4.5, "coordinates": {"latitude": 37.4839703, "longitude": -122.2006564}, "transactions": [], "price": "$$", "location": {"address1": "2ND Ave And Page St", "address2": null, "address3": "", "city": "Redwood City", "zip_code": "94063", "country": "US", "state": "CA", "display_address": ["2ND Ave And Page St", "Redwood City, CA 94063"]}, "phone": "+16506306133", "display_phone": "(650) 630-6133", "distance": 14306.205381647791}, {"id": "Lg73M4FnC1QQmUGpGHD4hA", "alias": "kabob-trolley-san-francisco-5", "name": "Kabob Trolley", "image_url": "https://s3-media2.fl.yelpcdn.com/bphoto/6WneQFOu-WWB-80KhY5TeA/o.jpg", "is_closed": false, "url": "https://www.yelp.com/biz/kabob-trolley-san-francisco-5?adjust_creative=-1a8ZLzJ76_AvFzvJVcndQ&utm_campaign=yelp_api_v3&utm_medium=api_v3_business_search&utm_source=-1a8ZLzJ76_AvFzvJVcndQ", "review_count": 86, "categories": [{"alias": "foodtrucks", "title": "Food Trucks"}, {"alias": "afghani", "title": "Afghan"}, {"alias": "halal", "title": "Halal"}], "rating": 3.5, "coordinates": {"latitude": 37.776774, "longitude": -122.3940414}, "transactions": ["pickup"], "price": "$", "location": {"address1": "298 King St", "address2": "", "address3": "", "city": "San Francisco", "zip_code": "94107", "country": "US", "state": "CA", "display_address": ["298 King St", "San Francisco, CA 94107"]}, "phone": "+14154049756", "display_phone": "(415) 404-9756", "distance": 51047.51128170682}, {"id": "4xJHSZMPo8MzjPcDY4_G9w", "alias": "tonys-kettle-korn-and-crepes-los-altos", "name": "Tony's Kettle Korn & Crepes", "image_url": "https://s3-media4.fl.yelpcdn.com/bphoto/vVf8Smvf6rXNP0zGr_DBsw/o.jpg", "is_closed": false, "url": "https://www.yelp.com/biz/tonys-kettle-korn-and-crepes-los-altos?adjust_creative=-1a8ZLzJ76_AvFzvJVcndQ&utm_campaign=yelp_api_v3&utm_medium=api_v3_business_search&utm_source=-1a8ZLzJ76_AvFzvJVcndQ", "review_count": 8, "categories": [{"alias": "streetvendors", "title": "Street Vendors"}, {"alias": "foodstands", "title": "Food Stands"}], "rating": 3.5, "coordinates": {"latitude": 37.379800055902, "longitude": -122.116125097764}, "transactions": [], "price": "$", "location": {"address1": "", "address2": "", "address3": "", "city": "Los Altos", "zip_code": "", "country": "US", "state": "CA", "display_address": ["Los Altos, CA"]}, "phone": "", "display_phone": "", "distance": 1641.4137759039302}, {"id": "Nc2bwAlD-jKBlnFTFBCFnQ", "alias": "super-tacos-pino-suarez-mountain-view", "name": "Super Tacos Pino Suarez", "image_url": "https://s3-media2.fl.yelpcdn.com/bphoto/kus-mRK4ixCoVmI8HIxYeQ/o.jpg", "is_closed": false, "url": "https://www.yelp.com/biz/super-tacos-pino-suarez-mountain-view?adjust_creative=-1a8ZLzJ76_AvFzvJVcndQ&utm_campaign=yelp_api_v3&utm_medium=api_v3_business_search&utm_source=-1a8ZLzJ76_AvFzvJVcndQ", "review_count": 1, "categories": [{"alias": "mexican", "title": "Mexican"}, {"alias": "foodtrucks", "title": "Food Trucks"}], "rating": 5.0, "coordinates": {"latitude": 37.404228, "longitude": -122.1166235}, "transactions": [], "price": "$", "location": {"address1": "542 Del Medio Ave", "address2": "", "address3": null, "city": "Mountain View", "zip_code": "94040", "country": "US", "state": "CA", "display_address": ["542 Del Medio Ave", "Mountain View, CA 94040"]}, "phone": "+16504528527", "display_phone": "(650) 452-8527", "distance": 4078.4158959086526}, {"id": "Is1KN9f5THyPgo1RjAxRzg", "alias": "madd-mex-cantina-food-truck-san-mateo-3", "name": "Madd Mex Cantina Food Truck", "image_url": "https://s3-media3.fl.yelpcdn.com/bphoto/sqUQfoUkNqzsWDktPN09Dg/o.jpg", "is_closed": false, "url": "https://www.yelp.com/biz/madd-mex-cantina-food-truck-san-mateo-3?adjust_creative=-1a8ZLzJ76_AvFzvJVcndQ&utm_campaign=yelp_api_v3&utm_medium=api_v3_business_search&utm_source=-1a8ZLzJ76_AvFzvJVcndQ", "review_count": 225, "categories": [{"alias": "foodtrucks", "title": "Food Trucks"}, {"alias": "mexican", "title": "Mexican"}, {"alias": "catering", "title": "Caterers"}], "rating": 4.5, "coordinates": {"latitude": 37.5521392822266, "longitude": -122.260833740234}, "transactions": [], "price": "$", "location": {"address1": "", "address2": null, "address3": "", "city": "San Mateo", "zip_code": "94404", "country": "US", "state": "CA", "display_address": ["San Mateo, CA 94404"]}, "phone": "", "display_phone": "", "distance": 24225.418148576064}, {"id": "rRVAOEHSBuvzOWkz6NJ72A", "alias": "gold-rush-eatery-sunnyvale-6", "name": "Gold Rush Eatery", "image_url": "https://s3-media1.fl.yelpcdn.com/bphoto/CFpX50jiQRajc_tx_GVShA/o.jpg", "is_closed": false, "url": "https://www.yelp.com/biz/gold-rush-eatery-sunnyvale-6?adjust_creative=-1a8ZLzJ76_AvFzvJVcndQ&utm_campaign=yelp_api_v3&utm_medium=api_v3_business_search&utm_source=-1a8ZLzJ76_AvFzvJVcndQ", "review_count": 140, "categories": [{"alias": "foodtrucks", "title": "Food Trucks"}, {"alias": "burgers", "title": "Burgers"}, {"alias": "beerbar", "title": "Beer Bar"}], "rating": 4.0, "coordinates": {"latitude": 37.3551306948281, "longitude": -122.010198819353}, "transactions": ["delivery", "pickup"], "price": "$$", "location": {"address1": "1010 S Wolfe Rd", "address2": null, "address3": "", "city": "Sunnyvale", "zip_code": "94036", "country": "US", "state": "CA", "display_address": ["1010 S Wolfe Rd", "Sunnyvale, CA 94036"]}, "phone": "+14087435336", "display_phone": "(408) 743-5336", "distance": 10563.854017024563}, {"id": "_Y526-jjGzk_fjXBj1EePA", "alias": "paddy-wagon-sliders-san-jose-11", "name": "Paddy Wagon Sliders", "image_url": "https://s3-media1.fl.yelpcdn.com/bphoto/ESoDFDH27crUaTgFNhJB0w/o.jpg", "is_closed": false, "url": "https://www.yelp.com/biz/paddy-wagon-sliders-san-jose-11?adjust_creative=-1a8ZLzJ76_AvFzvJVcndQ&utm_campaign=yelp_api_v3&utm_medium=api_v3_business_search&utm_source=-1a8ZLzJ76_AvFzvJVcndQ", "review_count": 225, "categories": [{"alias": "foodtrucks", "title": "Food Trucks"}, {"alias": "burgers", "title": "Burgers"}, {"alias": "catering", "title": "Caterers"}], "rating": 4.0, "coordinates": {"latitude": 37.3382082, "longitude": -121.8863286}, "transactions": [], "price": "$", "location": {"address1": "", "address2": null, "address3": "", "city": "San Jose", "zip_code": "95112", "country": "US", "state": "CA", "display_address": ["San Jose, CA 95112"]}, "phone": "+14086435254", "display_phone": "(408) 643-5254", "distance": 21672.535166171056}, {"id": "jWWg0p9GTCho2RJIPhD6pQ", "alias": "tasteebytes-sj-san-jose", "name": "Tasteebytes SJ", "image_url": "https://s3-media2.fl.yelpcdn.com/bphoto/nxVvWa0ydNA-XfWpWEwd6w/o.jpg", "is_closed": false, "url": "https://www.yelp.com/biz/tasteebytes-sj-san-jose?adjust_creative=-1a8ZLzJ76_AvFzvJVcndQ&utm_campaign=yelp_api_v3&utm_medium=api_v3_business_search&utm_source=-1a8ZLzJ76_AvFzvJVcndQ", "review_count": 94, "categories": [{"alias": "foodtrucks", "title": "Food Trucks"}, {"alias": "hotdog", "title": "Hot Dogs"}], "rating": 4.5, "coordinates": {"latitude": 37.36058, "longitude": -121.89913}, "transactions": [], "price": "$", "location": {"address1": "326 Commercial St", "address2": "", "address3": "", "city": "San Jose", "zip_code": "95132", "country": "US", "state": "CA", "display_address": ["326 Commercial St", "San Jose, CA 95132"]}, "phone": "+16692437123", "display_phone": "(669) 243-7123", "distance": 20283.486414305087}, {"id": "uuouQQIFQ1B9mkmcxaAKFA", "alias": "tacos-el-rey-oakland", "name": "Tacos El Rey", "image_url": "https://s3-media2.fl.yelpcdn.com/bphoto/DblyFrtT9uyPCQAUfPbYbQ/o.jpg", "is_closed": false, "url": "https://www.yelp.com/biz/tacos-el-rey-oakland?adjust_creative=-1a8ZLzJ76_AvFzvJVcndQ&utm_campaign=yelp_api_v3&utm_medium=api_v3_business_search&utm_source=-1a8ZLzJ76_AvFzvJVcndQ", "review_count": 9, "categories": [{"alias": "foodtrucks", "title": "Food Trucks"}, {"alias": "mexican", "title": "Mexican"}], "rating": 4.0, "coordinates": {"latitude": 37.8294034, "longitude": -122.2875758}, "transactions": [], "price": "$", "location": {"address1": "40th & Horton", "address2": "", "address3": null, "city": "Oakland", "zip_code": "94608", "country": "US", "state": "CA", "display_address": ["40th & Horton", "Oakland, CA 94608"]}, "phone": "+15108130232", "display_phone": "(510) 813-0232", "distance": 53101.74228416704}, {"id": "sqO64yt3LwJYL6tBHJMipw", "alias": "the-cookout-food-truck-mountain-view-3", "name": "The Cookout Food Truck", "image_url": "https://s3-media2.fl.yelpcdn.com/bphoto/iXeP5nhdn5Zp9ogXmeWnRQ/o.jpg", "is_closed": false, "url": "https://www.yelp.com/biz/the-cookout-food-truck-mountain-view-3?adjust_creative=-1a8ZLzJ76_AvFzvJVcndQ&utm_campaign=yelp_api_v3&utm_medium=api_v3_business_search&utm_source=-1a8ZLzJ76_AvFzvJVcndQ", "review_count": 34, "categories": [{"alias": "foodtrucks", "title": "Food Trucks"}, {"alias": "fishnchips", "title": "Fish & Chips"}], "rating": 4.0, "coordinates": {"latitude": 37.428434, "longitude": -122.0723816}, "transactions": ["delivery", "pickup"], "price": "$$", "location": {"address1": "", "address2": "", "address3": null, "city": "Mountain View", "zip_code": "94043", "country": "US", "state": "CA", "display_address": ["Mountain View, CA 94043"]}, "phone": "+16503009945", "display_phone": "(650) 300-9945", "distance": 8280.098746029085}, {"id": "HayiFbi-9xFPhNjIad1lmA", "alias": "road-dogs-san-jose", "name": "Road Dogs", "image_url": "https://s3-media1.fl.yelpcdn.com/bphoto/2Zf1lrcEta1d89YmGI_-aA/o.jpg", "is_closed": false, "url": "https://www.yelp.com/biz/road-dogs-san-jose?adjust_creative=-1a8ZLzJ76_AvFzvJVcndQ&utm_campaign=yelp_api_v3&utm_medium=api_v3_business_search&utm_source=-1a8ZLzJ76_AvFzvJVcndQ", "review_count": 117, "categories": [{"alias": "hotdog", "title": "Hot Dogs"}, {"alias": "foodtrucks", "title": "Food Trucks"}], "rating": 4.0, "coordinates": {"latitude": 37.4825052756125, "longitude": -121.925558528338}, "transactions": ["pickup"], "price": "$", "location": {"address1": "", "address2": "", "address3": "", "city": "San Jose", "zip_code": "95132", "country": "US", "state": "CA", "display_address": ["San Jose, CA 95132"]}, "phone": "+14088351867", "display_phone": "(408) 835-1867", "distance": 21932.05099056642}, {"id": "gMzVS6LgUkUpip1NwwHaLQ", "alias": "twister-food-truck-san-jose-14", "name": "Twister Food Truck", "image_url": "https://s3-media4.fl.yelpcdn.com/bphoto/R_s82Wu2MBCHOM6xMRNzIg/o.jpg", "is_closed": false, "url": "https://www.yelp.com/biz/twister-food-truck-san-jose-14?adjust_creative=-1a8ZLzJ76_AvFzvJVcndQ&utm_campaign=yelp_api_v3&utm_medium=api_v3_business_search&utm_source=-1a8ZLzJ76_AvFzvJVcndQ", "review_count": 42, "categories": [{"alias": "foodtrucks", "title": "Food Trucks"}, {"alias": "asianfusion", "title": "Asian Fusion"}], "rating": 3.5, "coordinates": {"latitude": 37.36971, "longitude": -121.89675}, "transactions": [], "price": "$", "location": {"address1": "660 East Gish Rd", "address2": null, "address3": null, "city": "San Jose", "zip_code": "95112", "country": "US", "state": "CA", "display_address": ["660 East Gish Rd", "San Jose, CA 95112"]}, "phone": "+15106953921", "display_phone": "(510) 695-3921", "distance": 20480.93157187127}, {"id": "lgheXsHqe66AEZwoPDIEpw", "alias": "taco-coma-newark", "name": "Taco Coma", "image_url": "https://s3-media3.fl.yelpcdn.com/bphoto/DDz5lZDL5lDiRR_Ph0L4Sg/o.jpg", "is_closed": false, "url": "https://www.yelp.com/biz/taco-coma-newark?adjust_creative=-1a8ZLzJ76_AvFzvJVcndQ&utm_campaign=yelp_api_v3&utm_medium=api_v3_business_search&utm_source=-1a8ZLzJ76_AvFzvJVcndQ", "review_count": 3, "categories": [{"alias": "foodstands", "title": "Food Stands"}, {"alias": "tacos", "title": "Tacos"}], "rating": 5.0, "coordinates": {"latitude": 37.53453, "longitude": -122.03284}, "transactions": [], "location": {"address1": "", "address2": null, "address3": "", "city": "Newark", "zip_code": "94560", "country": "US", "state": "CA", "display_address": ["Newark, CA 94560"]}, "phone": "+15106971448", "display_phone": "(510) 697-1448", "distance": 19609.120275230674}, {"id": "XTJJ_PUQoJKIh31ZIzsFzw", "alias": "cochinita-food-truck-san-francisco-6", "name": "Cochinita Food Truck", "image_url": "https://s3-media2.fl.yelpcdn.com/bphoto/w77SOd2jVJjOh1lwuYQ42w/o.jpg", "is_closed": false, "url": "https://www.yelp.com/biz/cochinita-food-truck-san-francisco-6?adjust_creative=-1a8ZLzJ76_AvFzvJVcndQ&utm_campaign=yelp_api_v3&utm_medium=api_v3_business_search&utm_source=-1a8ZLzJ76_AvFzvJVcndQ", "review_count": 49, "categories": [{"alias": "foodtrucks", "title": "Food Trucks"}, {"alias": "mexican", "title": "Mexican"}], "rating": 4.5, "coordinates": {"latitude": 37.770753, "longitude": -122.3916722}, "transactions": [], "price": "$", "location": {"address1": "601 Mission Blvd N", "address2": null, "address3": "", "city": "San Francisco", "zip_code": "94103", "country": "US", "state": "CA", "display_address": ["601 Mission Blvd N", "San Francisco, CA 94103"]}, "phone": "+14159883663", "display_phone": "(415) 988-3663", "distance": 50357.36800027808}, {"id": "23dvbpp8C6eRYev8gxtHxA", "alias": "indian-express-san-jose-8", "name": "Indian Express", "image_url": "https://s3-media2.fl.yelpcdn.com/bphoto/EhHGKWS3YWw5JIyNs9XJUw/o.jpg", "is_closed": false, "url": "https://www.yelp.com/biz/indian-express-san-jose-8?adjust_creative=-1a8ZLzJ76_AvFzvJVcndQ&utm_campaign=yelp_api_v3&utm_medium=api_v3_business_search&utm_source=-1a8ZLzJ76_AvFzvJVcndQ", "review_count": 18, "categories": [{"alias": "foodtrucks", "title": "Food Trucks"}, {"alias": "halal", "title": "Halal"}, {"alias": "indpak", "title": "Indian"}], "rating": 4.0, "coordinates": {"latitude": 37.3817444712737, "longitude": -121.928059986855}, "transactions": ["delivery", "pickup"], "price": "$", "location": {"address1": "2525 N 1st St", "address2": null, "address3": "", "city": "San Jose", "zip_code": "95134", "country": "US", "state": "CA", "display_address": ["2525 N 1st St", "San Jose, CA 95134"]}, "phone": "+14132424862", "display_phone": "(413) 242-4862", "distance": 17769.03979833541}, {"id": "C9uewBH5505NV0EWYBIJAA", "alias": "lady-and-l-aperitivo-san-jose", "name": "Lady & L'Aperitivo", "image_url": "https://s3-media4.fl.yelpcdn.com/bphoto/3nz0sRE9MlOq_4xVRQRt9w/o.jpg", "is_closed": false, "url": "https://www.yelp.com/biz/lady-and-l-aperitivo-san-jose?adjust_creative=-1a8ZLzJ76_AvFzvJVcndQ&utm_campaign=yelp_api_v3&utm_medium=api_v3_business_search&utm_source=-1a8ZLzJ76_AvFzvJVcndQ", "review_count": 1, "categories": [{"alias": "bakeries", "title": "Bakeries"}, {"alias": "desserts", "title": "Desserts"}, {"alias": "cheesesteaks", "title": "Cheesesteaks"}], "rating": 5.0, "coordinates": {"latitude": 37.2208938598633, "longitude": -121.861633300781}, "transactions": [], "location": {"address1": null, "address2": null, "address3": "", "city": "San Jose", "zip_code": "95120", "country": "US", "state": "CA", "display_address": ["San Jose, CA 95120"]}, "phone": "", "display_phone": "", "distance": 33464.476604143216}, {"id": "QUr1mp33i3fjoBYeX1_Bzw", "alias": "lemongrass-lane-san-jose", "name": "Lemongrass Lane", "image_url": "https://s3-media3.fl.yelpcdn.com/bphoto/nOaqrmnHtcy9BwpUvjpMxg/o.jpg", "is_closed": false, "url": "https://www.yelp.com/biz/lemongrass-lane-san-jose?adjust_creative=-1a8ZLzJ76_AvFzvJVcndQ&utm_campaign=yelp_api_v3&utm_medium=api_v3_business_search&utm_source=-1a8ZLzJ76_AvFzvJVcndQ", "review_count": 27, "categories": [{"alias": "foodtrucks", "title": "Food Trucks"}, {"alias": "cambodian", "title": "Cambodian"}], "rating": 4.0, "coordinates": {"latitude": 37.33549, "longitude": -121.87735}, "transactions": [], "location": {"address1": null, "address2": null, "address3": null, "city": "San Jose", "zip_code": "95112", "country": "US", "state": "CA", "display_address": ["San Jose, CA 95112"]}, "phone": "+14086557066", "display_phone": "(408) 655-7066", "distance": 21698.513510201992}, {"id": "t6j2blrpl9TCDroDydml9g", "alias": "tacos-el-chuy-santa-cruz", "name": "Tacos El Chuy", "image_url": "https://s3-media1.fl.yelpcdn.com/bphoto/VKsVic1s9rRnYEqmRwL8Dw/o.jpg", "is_closed": false, "url": "https://www.yelp.com/biz/tacos-el-chuy-santa-cruz?adjust_creative=-1a8ZLzJ76_AvFzvJVcndQ&utm_campaign=yelp_api_v3&utm_medium=api_v3_business_search&utm_source=-1a8ZLzJ76_AvFzvJVcndQ", "review_count": 3, "categories": [{"alias": "tacos", "title": "Tacos"}, {"alias": "foodtrucks", "title": "Food Trucks"}], "rating": 3.5, "coordinates": {"latitude": 36.9593074124991, "longitude": -122.048140056431}, "transactions": [], "location": {"address1": "402 Ingalls St Santa CruzCA 95060 21517 E Cliff Dr Santa Cruz", "address2": "", "address3": null, "city": "Santa Cruz", "zip_code": "95062", "country": "US", "state": "CA", "display_address": ["402 Ingalls St Santa CruzCA 95060 21517 E Cliff Dr Santa Cruz", "Santa Cruz, CA 95062"]}, "phone": "+18314358811", "display_phone": "(831) 435-8811", "distance": 46084.699069984315}, {"id": "GcfdjsPGaXrY02Q3bsKvew", "alias": "el-diferente-san-jose-4", "name": "El Diferente", "image_url": "https://s3-media4.fl.yelpcdn.com/bphoto/bTeYqqJp0YrJkkfM5OiPZg/o.jpg", "is_closed": false, "url": "https://www.yelp.com/biz/el-diferente-san-jose-4?adjust_creative=-1a8ZLzJ76_AvFzvJVcndQ&utm_campaign=yelp_api_v3&utm_medium=api_v3_business_search&utm_source=-1a8ZLzJ76_AvFzvJVcndQ", "review_count": 41, "categories": [{"alias": "foodtrucks", "title": "Food Trucks"}, {"alias": "tacos", "title": "Tacos"}, {"alias": "catering", "title": "Caterers"}], "rating": 5.0, "coordinates": {"latitude": 37.324611, "longitude": -121.880933}, "transactions": [], "price": "$", "location": {"address1": "795 S 2nd St", "address2": "", "address3": null, "city": "San Jose", "zip_code": "95112", "country": "US", "state": "CA", "display_address": ["795 S 2nd St", "San Jose, CA 95112"]}, "phone": "+14086651936", "display_phone": "(408) 665-1936", "distance": 22427.547353604117}, {"id": "C8QSWh3j0xkXwiWC8h-7ag", "alias": "three-amigos-market-and-deli-oakland", "name": "Three Amigos Market & Deli", "image_url": "https://s3-media1.fl.yelpcdn.com/bphoto/B4LNxfyWsiyHibJqkrK1gQ/o.jpg", "is_closed": false, "url": "https://www.yelp.com/biz/three-amigos-market-and-deli-oakland?adjust_creative=-1a8ZLzJ76_AvFzvJVcndQ&utm_campaign=yelp_api_v3&utm_medium=api_v3_business_search&utm_source=-1a8ZLzJ76_AvFzvJVcndQ", "review_count": 9, "categories": [{"alias": "grocery", "title": "Grocery"}, {"alias": "sandwiches", "title": "Sandwiches"}, {"alias": "delis", "title": "Delis"}], "rating": 4.5, "coordinates": {"latitude": 37.791048, "longitude": -122.245431}, "transactions": [], "price": "$", "location": {"address1": "1554 13th Ave", "address2": "", "address3": "", "city": "Oakland", "zip_code": "94606", "country": "US", "state": "CA", "display_address": ["1554 13th Ave", "Oakland, CA 94606"]}, "phone": "+15102612353", "display_phone": "(510) 261-2353", "distance": 48071.409127506486}, {"id": "S9MYGapWK7T7oKUEYLz6Iw", "alias": "the-boneyard-san-bruno-3", "name": "The Boneyard", "image_url": "https://s3-media3.fl.yelpcdn.com/bphoto/uG6EEbOomy5tsXTsHGodxg/o.jpg", "is_closed": false, "url": "https://www.yelp.com/biz/the-boneyard-san-bruno-3?adjust_creative=-1a8ZLzJ76_AvFzvJVcndQ&utm_campaign=yelp_api_v3&utm_medium=api_v3_business_search&utm_source=-1a8ZLzJ76_AvFzvJVcndQ", "review_count": 87, "categories": [{"alias": "foodtrucks", "title": "Food Trucks"}, {"alias": "bbq", "title": "Barbeque"}, {"alias": "catering", "title": "Caterers"}], "rating": 3.5, "coordinates": {"latitude": 37.7939188282826, "longitude": -122.400518522289}, "transactions": ["delivery", "pickup"], "price": "$$", "location": {"address1": "1225 San Mateo Ave", "address2": null, "address3": "", "city": "San Bruno", "zip_code": "94066", "country": "US", "state": "CA", "display_address": ["1225 San Mateo Ave", "San Bruno, CA 94066"]}, "phone": "+14159350696", "display_phone": "(415) 935-0696", "distance": 53003.48787455416}, {"id": "MutHfYUQnieaBuycuNXEPA", "alias": "damians-tacos-and-hotdogs-alum-rock", "name": "Damian's Tacos & Hotdogs", "image_url": "https://s3-media3.fl.yelpcdn.com/bphoto/HHmnhqlFJwEDhftVetH4qw/o.jpg", "is_closed": false, "url": "https://www.yelp.com/biz/damians-tacos-and-hotdogs-alum-rock?adjust_creative=-1a8ZLzJ76_AvFzvJVcndQ&utm_campaign=yelp_api_v3&utm_medium=api_v3_business_search&utm_source=-1a8ZLzJ76_AvFzvJVcndQ", "review_count": 7, "categories": [{"alias": "foodtrucks", "title": "Food Trucks"}, {"alias": "tacos", "title": "Tacos"}, {"alias": "hotdog", "title": "Hot Dogs"}], "rating": 4.5, "coordinates": {"latitude": 37.3549620850075, "longitude": -121.851418079178}, "transactions": [], "price": "$", "location": {"address1": "1925 Alumrock Ave", "address2": "", "address3": null, "city": "Alum Rock", "zip_code": "95116", "country": "US", "state": "CA", "display_address": ["1925 Alumrock Ave", "Alum Rock, CA 95116"]}, "phone": "+14084397331", "display_phone": "(408) 439-7331", "distance": 24535.396126662672}, {"id": "GDwDSAsaJfnj2aBcT1E_XA", "alias": "veterans-administration-va-hospital-cafeteria-palo-alto", "name": "Veterans Administration VA Hospital Cafeteria", "image_url": "https://s3-media1.fl.yelpcdn.com/bphoto/91aFSCtPU7H5rv7neSD4cw/o.jpg", "is_closed": false, "url": "https://www.yelp.com/biz/veterans-administration-va-hospital-cafeteria-palo-alto?adjust_creative=-1a8ZLzJ76_AvFzvJVcndQ&utm_campaign=yelp_api_v3&utm_medium=api_v3_business_search&utm_source=-1a8ZLzJ76_AvFzvJVcndQ", "review_count": 10, "categories": [{"alias": "cafeteria", "title": "Cafeteria"}], "rating": 2.5, "coordinates": {"latitude": 37.3946113586426, "longitude": -122.130569458008}, "transactions": [], "price": "$", "location": {"address1": "6801 Miranda Ave", "address2": "", "address3": "Palo Alto Veterans Hospital", "city": "Palo Alto", "zip_code": "94309", "country": "US", "state": "CA", "display_address": ["6801 Miranda Ave", "Palo Alto Veterans Hospital", "Palo Alto, CA 94309"]}, "phone": "", "display_phone": "", "distance": 2359.7037116349275}, {"id": "oKm912E9HNdehISnGSkzvw", "alias": "asian-momo-house-sunnyvale-6", "name": "Asian Momo House", "image_url": "https://s3-media4.fl.yelpcdn.com/bphoto/1ZWwOieiFxLQ1Ffy3AtamA/o.jpg", "is_closed": false, "url": "https://www.yelp.com/biz/asian-momo-house-sunnyvale-6?adjust_creative=-1a8ZLzJ76_AvFzvJVcndQ&utm_campaign=yelp_api_v3&utm_medium=api_v3_business_search&utm_source=-1a8ZLzJ76_AvFzvJVcndQ", "review_count": 34, "categories": [{"alias": "foodtrucks", "title": "Food Trucks"}, {"alias": "indpak", "title": "Indian"}], "rating": 3.5, "coordinates": {"latitude": 37.35279, "longitude": -122.03139}, "transactions": [], "price": "$", "location": {"address1": "153 E Fremont Ave", "address2": "", "address3": "", "city": "Sunnyvale", "zip_code": "94087", "country": "US", "state": "CA", "display_address": ["153 E Fremont Ave", "Sunnyvale, CA 94087"]}, "phone": "+18556398669", "display_phone": "(855) 639-8669", "distance": 8781.97042530287}, {"id": "6I40Gx2zE9xcZweKgyHbNQ", "alias": "silan-cucina-mama-los-altos", "name": "Silan Cucina Mama", "image_url": "", "is_closed": false, "url": "https://www.yelp.com/biz/silan-cucina-mama-los-altos?adjust_creative=-1a8ZLzJ76_AvFzvJVcndQ&utm_campaign=yelp_api_v3&utm_medium=api_v3_business_search&utm_source=-1a8ZLzJ76_AvFzvJVcndQ", "review_count": 2, "categories": [{"alias": "italian", "title": "Italian"}], "rating": 3.0, "coordinates": {"latitude": 37.37582, "longitude": -122.116455}, "transactions": [], "location": {"address1": "376 1st St", "address2": null, "address3": "", "city": "Los Altos", "zip_code": "94022", "country": "US", "state": "CA", "display_address": ["376 1st St", "Los Altos, CA 94022"]}, "phone": "+16504834351", "display_phone": "(650) 483-4351", "distance": 1316.5280375309712}, {"id": "-SnIHr-tALmciy_J1VqXRg", "alias": "cielito-lindo-mexican-street-kitchen-san-jos\u00e9-5", "name": "Cielito Lindo Mexican Street Kitchen", "image_url": "https://s3-media4.fl.yelpcdn.com/bphoto/kCSoIcRPwQ0tPiGQh3gEFw/o.jpg", "is_closed": false, "url": "https://www.yelp.com/biz/cielito-lindo-mexican-street-kitchen-san-jos%C3%A9-5?adjust_creative=-1a8ZLzJ76_AvFzvJVcndQ&utm_campaign=yelp_api_v3&utm_medium=api_v3_business_search&utm_source=-1a8ZLzJ76_AvFzvJVcndQ", "review_count": 40, "categories": [{"alias": "foodtrucks", "title": "Food Trucks"}, {"alias": "mexican", "title": "Mexican"}], "rating": 4.0, "coordinates": {"latitude": 37.3853149414062, "longitude": -121.893257141113}, "transactions": [], "price": "$", "location": {"address1": null, "address2": null, "address3": "", "city": "San Jos\u00e9", "zip_code": "95131", "country": "US", "state": "CA", "display_address": ["San Jos\u00e9, CA 95131"]}, "phone": "+16508629836", "display_phone": "(650) 862-9836", "distance": 20671.889481798964}, {"id": "kIsGtzHcIxk40klNpTWuog", "alias": "grillaz-gone-wild-hayward", "name": "Grillaz Gone Wild", "image_url": "https://s3-media1.fl.yelpcdn.com/bphoto/4OKiJlqTPiue8J6EbwO3ug/o.jpg", "is_closed": false, "url": "https://www.yelp.com/biz/grillaz-gone-wild-hayward?adjust_creative=-1a8ZLzJ76_AvFzvJVcndQ&utm_campaign=yelp_api_v3&utm_medium=api_v3_business_search&utm_source=-1a8ZLzJ76_AvFzvJVcndQ", "review_count": 124, "categories": [{"alias": "cheesesteaks", "title": "Cheesesteaks"}, {"alias": "foodtrucks", "title": "Food Trucks"}, {"alias": "sandwiches", "title": "Sandwiches"}], "rating": 4.0, "coordinates": {"latitude": 37.63805, "longitude": -122.07161}, "transactions": [], "price": "$", "location": {"address1": "", "address2": "", "address3": "", "city": "Hayward", "zip_code": "94544", "country": "US", "state": "CA", "display_address": ["Hayward, CA 94544"]}, "phone": "+17075013252", "display_phone": "(707) 501-3252", "distance": 29545.56780747492}, {"id": "jW66693LVPlyDtzAoeb7KQ", "alias": "travelin-joe-espresso-berkeley", "name": "Travelin Joe Espresso", "image_url": "https://s3-media2.fl.yelpcdn.com/bphoto/XiqMQnnnbGe4g2SzU4Wm-A/o.jpg", "is_closed": false, "url": "https://www.yelp.com/biz/travelin-joe-espresso-berkeley?adjust_creative=-1a8ZLzJ76_AvFzvJVcndQ&utm_campaign=yelp_api_v3&utm_medium=api_v3_business_search&utm_source=-1a8ZLzJ76_AvFzvJVcndQ", "review_count": 33, "categories": [{"alias": "coffee", "title": "Coffee & Tea"}, {"alias": "foodstands", "title": "Food Stands"}, {"alias": "waffles", "title": "Waffles"}], "rating": 4.5, "coordinates": {"latitude": 37.85571, "longitude": -122.2893}, "transactions": [], "price": "$$", "location": {"address1": "1016 Grayson St", "address2": "", "address3": "", "city": "Berkeley", "zip_code": "94710", "country": "US", "state": "CA", "display_address": ["1016 Grayson St", "Berkeley, CA 94710"]}, "phone": "+15109197279", "display_phone": "(510) 919-7279", "distance": 55970.37100014224}, {"id": "Qa7brHniluYGS6kvDLn_7Q", "alias": "3geeks-food-truck-santa-clara", "name": "3GEEKS FOOD TRUCK", "image_url": "https://s3-media2.fl.yelpcdn.com/bphoto/Ahw89hwfujcvycQ_3soddQ/o.jpg", "is_closed": false, "url": "https://www.yelp.com/biz/3geeks-food-truck-santa-clara?adjust_creative=-1a8ZLzJ76_AvFzvJVcndQ&utm_campaign=yelp_api_v3&utm_medium=api_v3_business_search&utm_source=-1a8ZLzJ76_AvFzvJVcndQ", "review_count": 86, "categories": [{"alias": "seafood", "title": "Seafood"}, {"alias": "cheesesteaks", "title": "Cheesesteaks"}, {"alias": "foodtrucks", "title": "Food Trucks"}], "rating": 3.0, "coordinates": {"latitude": 37.39911, "longitude": -121.95728}, "transactions": [], "price": "$$", "location": {"address1": null, "address2": null, "address3": "", "city": "Santa Clara", "zip_code": "95054", "country": "US", "state": "CA", "display_address": ["Santa Clara, CA 95054"]}, "phone": "+14089090709", "display_phone": "(408) 909-0709", "distance": 14874.311834398402}, {"id": "rTLv1Zlp64bK4BOe5SRjoA", "alias": "raoofs-san-jose-bean-pies-san-jose-2", "name": "Raoof's San Jose Bean Pies", "image_url": "https://s3-media3.fl.yelpcdn.com/bphoto/MxgzO7Fq5Fa6iw-MuTQ5CQ/o.jpg", "is_closed": false, "url": "https://www.yelp.com/biz/raoofs-san-jose-bean-pies-san-jose-2?adjust_creative=-1a8ZLzJ76_AvFzvJVcndQ&utm_campaign=yelp_api_v3&utm_medium=api_v3_business_search&utm_source=-1a8ZLzJ76_AvFzvJVcndQ", "review_count": 37, "categories": [{"alias": "bakeries", "title": "Bakeries"}, {"alias": "foodstands", "title": "Food Stands"}, {"alias": "desserts", "title": "Desserts"}], "rating": 5.0, "coordinates": {"latitude": 37.27898, "longitude": -121.95396}, "transactions": [], "price": "$$", "location": {"address1": "", "address2": "", "address3": "", "city": "San Jose", "zip_code": "95008", "country": "US", "state": "CA", "display_address": ["San Jose, CA 95008"]}, "phone": "+14085838129", "display_phone": "(408) 583-8129", "distance": 18572.664639814273}, {"id": "1e93gYXXlBHA0-XJXicJhQ", "alias": "inshallah-food-truck-south-san-francisco-2", "name": "Inshallah Food Truck", "image_url": "https://s3-media1.fl.yelpcdn.com/bphoto/IBFIlRI2k5jz_4uMvkIIUw/o.jpg", "is_closed": false, "url": "https://www.yelp.com/biz/inshallah-food-truck-south-san-francisco-2?adjust_creative=-1a8ZLzJ76_AvFzvJVcndQ&utm_campaign=yelp_api_v3&utm_medium=api_v3_business_search&utm_source=-1a8ZLzJ76_AvFzvJVcndQ", "review_count": 1, "categories": [{"alias": "mediterranean", "title": "Mediterranean"}, {"alias": "foodtrucks", "title": "Food Trucks"}], "rating": 3.0, "coordinates": {"latitude": 37.66737, "longitude": -122.38249}, "transactions": [], "location": {"address1": "395 Oyster Point", "address2": null, "address3": "", "city": "South San Francisco", "zip_code": "94080", "country": "US", "state": "CA", "display_address": ["395 Oyster Point", "South San Francisco, CA 94080"]}, "phone": "+16502716848", "display_phone": "(650) 271-6848", "distance": 40111.129836039916}, {"id": "-n8QlMaXL3URynVkfb73DA", "alias": "el-taco-ranchero-mountain-view-4", "name": "El Taco Ranchero", "image_url": "https://s3-media1.fl.yelpcdn.com/bphoto/IYVE20w2_TQqMXraHRmLxQ/o.jpg", "is_closed": false, "url": "https://www.yelp.com/biz/el-taco-ranchero-mountain-view-4?adjust_creative=-1a8ZLzJ76_AvFzvJVcndQ&utm_campaign=yelp_api_v3&utm_medium=api_v3_business_search&utm_source=-1a8ZLzJ76_AvFzvJVcndQ", "review_count": 42, "categories": [{"alias": "foodtrucks", "title": "Food Trucks"}, {"alias": "mexican", "title": "Mexican"}], "rating": 4.5, "coordinates": {"latitude": 37.421101, "longitude": -122.09785848856}, "transactions": [], "price": "$", "location": {"address1": "2485 Charleston Rd", "address2": null, "address3": "", "city": "Mountain View", "zip_code": "94043", "country": "US", "state": "CA", "display_address": ["2485 Charleston Rd", "Mountain View, CA 94043"]}, "phone": "+16504713868", "display_phone": "(650) 471-3868", "distance": 6416.047819453921}, {"id": "MQDbjcZzQ9E3DTcoBF6dEw", "alias": "brooklyn-pizzeria-mobile-food-truck-santa-clara-4", "name": "Brooklyn Pizzeria Mobile Food Truck", "image_url": "https://s3-media2.fl.yelpcdn.com/bphoto/szDWnD758aSGG_O0yoKpEg/o.jpg", "is_closed": false, "url": "https://www.yelp.com/biz/brooklyn-pizzeria-mobile-food-truck-santa-clara-4?adjust_creative=-1a8ZLzJ76_AvFzvJVcndQ&utm_campaign=yelp_api_v3&utm_medium=api_v3_business_search&utm_source=-1a8ZLzJ76_AvFzvJVcndQ", "review_count": 23, "categories": [{"alias": "foodtrucks", "title": "Food Trucks"}, {"alias": "pizza", "title": "Pizza"}], "rating": 3.5, "coordinates": {"latitude": 37.3380215690544, "longitude": -121.996589643474}, "transactions": [], "price": "$$", "location": {"address1": "", "address2": null, "address3": "", "city": "Santa clara", "zip_code": "95051", "country": "US", "state": "CA", "display_address": ["Santa clara, CA 95051"]}, "phone": "+14085026836", "display_phone": "(408) 502-6836", "distance": 12149.717417245301}, {"id": "iA2CQeT9iWbUifpYrqtRbw", "alias": "yeeshaans-grubb-san-mateo-san-mateo-3", "name": "YeeShaans Grubb - San Mateo", "image_url": "https://s3-media1.fl.yelpcdn.com/bphoto/4Feev8zrWsRWiaBTiBDXCQ/o.jpg", "is_closed": false, "url": "https://www.yelp.com/biz/yeeshaans-grubb-san-mateo-san-mateo-3?adjust_creative=-1a8ZLzJ76_AvFzvJVcndQ&utm_campaign=yelp_api_v3&utm_medium=api_v3_business_search&utm_source=-1a8ZLzJ76_AvFzvJVcndQ", "review_count": 4, "categories": [{"alias": "halal", "title": "Halal"}, {"alias": "burgers", "title": "Burgers"}, {"alias": "foodtrucks", "title": "Food Trucks"}], "rating": 5.0, "coordinates": {"latitude": 37.5528491, "longitude": -122.3145976}, "transactions": ["pickup", "delivery"], "location": {"address1": "1619 S El Camino Real", "address2": null, "address3": "", "city": "San Mateo", "zip_code": "94402", "country": "US", "state": "CA", "display_address": ["1619 S El Camino Real", "San Mateo, CA 94402"]}, "phone": "+15106059510", "display_phone": "(510) 605-9510", "distance": 26271.163432057994}, {"id": "wxzrUxZ2nKx10dMK3cNAPg", "alias": "prima-strada-ristorante-los-altos", "name": "Prima Strada Ristorante", "image_url": "", "is_closed": false, "url": "https://www.yelp.com/biz/prima-strada-ristorante-los-altos?adjust_creative=-1a8ZLzJ76_AvFzvJVcndQ&utm_campaign=yelp_api_v3&utm_medium=api_v3_business_search&utm_source=-1a8ZLzJ76_AvFzvJVcndQ", "review_count": 1, "categories": [{"alias": "restaurants", "title": "Restaurants"}], "rating": 1.0, "coordinates": {"latitude": 37.3799896240234, "longitude": -122.119049072266}, "transactions": [], "location": {"address1": "127 1st St", "address2": "", "address3": "", "city": "Los Altos", "zip_code": "94022", "country": "US", "state": "CA", "display_address": ["127 1st St", "Los Altos, CA 94022"]}, "phone": "+16509172000", "display_phone": "(650) 917-2000", "distance": 1501.7931747115872}, {"id": "ai1PcujD1397VPMNc8Ffcg", "alias": "cross-hatch-eatery-sunnyvale", "name": "Cross Hatch Eatery", "image_url": "https://s3-media1.fl.yelpcdn.com/bphoto/HPquQAnn8mSmsNlng5Z-_A/o.jpg", "is_closed": false, "url": "https://www.yelp.com/biz/cross-hatch-eatery-sunnyvale?adjust_creative=-1a8ZLzJ76_AvFzvJVcndQ&utm_campaign=yelp_api_v3&utm_medium=api_v3_business_search&utm_source=-1a8ZLzJ76_AvFzvJVcndQ", "review_count": 1, "categories": [{"alias": "asianfusion", "title": "Asian Fusion"}, {"alias": "foodtrucks", "title": "Food Trucks"}], "rating": 1.0, "coordinates": {"latitude": 37.3998374938965, "longitude": -121.997146606445}, "transactions": [], "location": {"address1": "", "address2": null, "address3": "", "city": "Sunnyvale", "zip_code": "94089", "country": "US", "state": "CA", "display_address": ["Sunnyvale, CA 94089"]}, "phone": "+16692322267", "display_phone": "(669) 232-2267", "distance": 10821.952013733118}, {"id": "xomxVUXe8Sy5R2nt7qBxxg", "alias": "fired-mobile-pizza-oven-stockton", "name": "FIRED Mobile Pizza Oven", "image_url": "https://s3-media4.fl.yelpcdn.com/bphoto/JV4MGBFFrJGZQbmtdoOLFQ/o.jpg", "is_closed": false, "url": "https://www.yelp.com/biz/fired-mobile-pizza-oven-stockton?adjust_creative=-1a8ZLzJ76_AvFzvJVcndQ&utm_campaign=yelp_api_v3&utm_medium=api_v3_business_search&utm_source=-1a8ZLzJ76_AvFzvJVcndQ", "review_count": 8, "categories": [{"alias": "pizza", "title": "Pizza"}, {"alias": "catering", "title": "Caterers"}, {"alias": "foodtrucks", "title": "Food Trucks"}], "rating": 5.0, "coordinates": {"latitude": 38.0521138, "longitude": -121.3484448}, "transactions": [], "location": {"address1": null, "address2": null, "address3": "", "city": "Stockton", "zip_code": "95209", "country": "US", "state": "CA", "display_address": ["Stockton, CA 95209"]}, "phone": "+12092424105", "display_phone": "(209) 242-4105", "distance": 102380.21683332123}, {"id": "sR0Wy3LYGdYV9HLszRlMmw", "alias": "tacos-la-palmita-stockton", "name": "Tacos La Palmita", "image_url": "https://s3-media2.fl.yelpcdn.com/bphoto/pzYoRmZjUQqxZ7qOyU7hUQ/o.jpg", "is_closed": false, "url": "https://www.yelp.com/biz/tacos-la-palmita-stockton?adjust_creative=-1a8ZLzJ76_AvFzvJVcndQ&utm_campaign=yelp_api_v3&utm_medium=api_v3_business_search&utm_source=-1a8ZLzJ76_AvFzvJVcndQ", "review_count": 90, "categories": [{"alias": "tacos", "title": "Tacos"}, {"alias": "foodtrucks", "title": "Food Trucks"}], "rating": 4.5, "coordinates": {"latitude": 38.008129, "longitude": -121.320219}, "transactions": ["pickup", "delivery"], "price": "$", "location": {"address1": "6393 Pacific Ave", "address2": null, "address3": null, "city": "Stockton", "zip_code": "95207", "country": "US", "state": "CA", "display_address": ["6393 Pacific Ave", "Stockton, CA 95207"]}, "phone": "+12093026825", "display_phone": "(209) 302-6825", "distance": 100559.95909154759}, {"id": "bUe6V7qwbr95Zg14Bpi8qw", "alias": "curbside-pies-knob-noster-mo-2", "name": "Curbside Pies", "image_url": "https://s3-media2.fl.yelpcdn.com/bphoto/3MO0dr4ok9hisoHpYSIwcA/o.jpg", "is_closed": false, "url": "https://www.yelp.com/biz/curbside-pies-knob-noster-mo-2?adjust_creative=-1a8ZLzJ76_AvFzvJVcndQ&utm_campaign=yelp_api_v3&utm_medium=api_v3_business_search&utm_source=-1a8ZLzJ76_AvFzvJVcndQ", "review_count": 2, "categories": [{"alias": "pizza", "title": "Pizza"}, {"alias": "foodtrucks", "title": "Food Trucks"}], "rating": 5.0, "coordinates": {"latitude": 38.772474, "longitude": -93.57255}, "transactions": [], "location": {"address1": "1601 W 7th Street Ter", "address2": "", "address3": null, "city": "Knob Noster MO", "zip_code": "65336", "country": "US", "state": "MO", "display_address": ["1601 W 7th Street Ter", "Knob Noster MO, MO 65336"]}, "phone": "+15057508525", "display_phone": "(505) 750-8525", "distance": 2494467.3598063495}]}