{"location": "Millbrae, CA", "term": "restaurant", "radius": 1635, "businesses": [{"id": "nDSxwe3s61uRbQdwMfqxUg", "alias": "noodles-and-things-millbrae-millbrae", "name": "Noodles & Things - Millbrae", "image_url": "https://s3-media2.fl.yelpcdn.com/bphoto/_yQ5VOWWoFNN9Xn_YtCKUw/o.jpg", "is_closed": false, "url": "https://www.yelp.com/biz/noodles-and-things-millbrae-millbrae?adjust_creative=-1a8ZLzJ76_AvFzvJVcndQ&utm_campaign=yelp_api_v3&utm_medium=api_v3_business_search&utm_source=-1a8ZLzJ76_AvFzvJVcndQ", "review_count": 52, "categories": [{"alias": "noodles", "title": "Noodles"}, {"alias": "soup", "title": "Soup"}], "rating": 4.0, "coordinates": {"latitude": 37.60186, "longitude": -122.39342}, "transactions": ["pickup", "delivery"], "price": "$$", "location": {"address1": "447 Broadway", "address2": "", "address3": null, "city": "Millbrae", "zip_code": "94030", "country": "US", "state": "CA", "display_address": ["447 Broadway", "Millbrae, CA 94030"]}, "phone": "+16506517105", "display_phone": "(650) 651-7105", "distance": 315.684550172645}, {"id": "PZCyRDzgDnWazgpyfKRIpQ", "alias": "stick-and-steam-millbrae-4", "name": "Stick & Steam", "image_url": "https://s3-media2.fl.yelpcdn.com/bphoto/K3uQbkzI3tOpvE8vUfFXEg/o.jpg", "is_closed": false, "url": "https://www.yelp.com/biz/stick-and-steam-millbrae-4?adjust_creative=-1a8ZLzJ76_AvFzvJVcndQ&utm_campaign=yelp_api_v3&utm_medium=api_v3_business_search&utm_source=-1a8ZLzJ76_AvFzvJVcndQ", "review_count": 252, "categories": [{"alias": "chinese", "title": "Chinese"}, {"alias": "tapasmallplates", "title": "Tapas/Small Plates"}, {"alias": "noodles", "title": "Noodles"}], "rating": 4.0, "coordinates": {"latitude": 37.60033, "longitude": -122.38266}, "transactions": ["restaurant_reservation"], "price": "$$", "location": {"address1": "350 Adrian Rd", "address2": null, "address3": "", "city": "Millbrae", "zip_code": "94030", "country": "US", "state": "CA", "display_address": ["350 Adrian Rd", "Millbrae, CA 94030"]}, "phone": "+16502399240", "display_phone": "(650) 239-9240", "distance": 1266.024626366317}, {"id": "RugBt_iLg_XWDwUlgGhlpg", "alias": "j-robata-ramen-and-grill-millbrae-2", "name": "J Robata Ramen and Grill", "image_url": "https://s3-media4.fl.yelpcdn.com/bphoto/7w0Pdb1wppGsGLVjmWS2mg/o.jpg", "is_closed": false, "url": "https://www.yelp.com/biz/j-robata-ramen-and-grill-millbrae-2?adjust_creative=-1a8ZLzJ76_AvFzvJVcndQ&utm_campaign=yelp_api_v3&utm_medium=api_v3_business_search&utm_source=-1a8ZLzJ76_AvFzvJVcndQ", "review_count": 70, "categories": [{"alias": "ramen", "title": "Ramen"}], "rating": 4.0, "coordinates": {"latitude": 37.60127067, "longitude": -122.3908}, "transactions": ["restaurant_reservation"], "price": "$$", "location": {"address1": "293 El Camino Real", "address2": "", "address3": null, "city": "Millbrae", "zip_code": "94030", "country": "US", "state": "CA", "display_address": ["293 El Camino Real", "Millbrae, CA 94030"]}, "phone": "+16507870962", "display_phone": "(650) 787-0962", "distance": 515.2606672629996}, {"id": "ntFEYGvjZRARcjyhV5Tj1w", "alias": "wonderful-millbrae-2", "name": "wonderful", "image_url": "https://s3-media3.fl.yelpcdn.com/bphoto/VLQ_-Bg7jLCIyfoXYx1hzw/o.jpg", "is_closed": false, "url": "https://www.yelp.com/biz/wonderful-millbrae-2?adjust_creative=-1a8ZLzJ76_AvFzvJVcndQ&utm_campaign=yelp_api_v3&utm_medium=api_v3_business_search&utm_source=-1a8ZLzJ76_AvFzvJVcndQ", "review_count": 678, "categories": [{"alias": "chinese", "title": "Chinese"}], "rating": 4.0, "coordinates": {"latitude": 37.6006971644202, "longitude": -122.391315776092}, "transactions": [], "price": "$$", "location": {"address1": "270 Broadway", "address2": null, "address3": "", "city": "Millbrae", "zip_code": "94030", "country": "US", "state": "CA", "display_address": ["270 Broadway", "Millbrae, CA 94030"]}, "phone": "+16506518888", "display_phone": "(650) 651-8888", "distance": 529.7631890148721}, {"id": "2wzgA2Irg81LG9GWyjYDTg", "alias": "ppq-dungeness-island-millbrae", "name": "PPQ Dungeness Island", "image_url": "https://s3-media2.fl.yelpcdn.com/bphoto/w7BA49Qkohh8nRBXPaIdAA/o.jpg", "is_closed": false, "url": "https://www.yelp.com/biz/ppq-dungeness-island-millbrae?adjust_creative=-1a8ZLzJ76_AvFzvJVcndQ&utm_campaign=yelp_api_v3&utm_medium=api_v3_business_search&utm_source=-1a8ZLzJ76_AvFzvJVcndQ", "review_count": 81, "categories": [{"alias": "seafood", "title": "Seafood"}, {"alias": "vietnamese", "title": "Vietnamese"}, {"alias": "asianfusion", "title": "Asian Fusion"}], "rating": 3.5, "coordinates": {"latitude": 37.60008, "longitude": -122.38977}, "transactions": ["restaurant_reservation"], "price": "$$", "location": {"address1": "195 El Camino Real", "address2": null, "address3": "", "city": "Millbrae", "zip_code": "94030", "country": "US", "state": "CA", "display_address": ["195 El Camino Real", "Millbrae, CA 94030"]}, "phone": "+16506866126", "display_phone": "(650) 686-6126", "distance": 664.9273242993291}, {"id": "MpwQAOTvW4MLE_smNHZxxw", "alias": "earl-spicy-millbrae-4", "name": "Earl Spicy", "image_url": "https://s3-media2.fl.yelpcdn.com/bphoto/DDFV8yBw4dXjnFOxp-nLIA/o.jpg", "is_closed": false, "url": "https://www.yelp.com/biz/earl-spicy-millbrae-4?adjust_creative=-1a8ZLzJ76_AvFzvJVcndQ&utm_campaign=yelp_api_v3&utm_medium=api_v3_business_search&utm_source=-1a8ZLzJ76_AvFzvJVcndQ", "review_count": 192, "categories": [{"alias": "szechuan", "title": "Szechuan"}, {"alias": "hotpot", "title": "Hot Pot"}], "rating": 4.5, "coordinates": {"latitude": 37.61414, "longitude": -122.40569}, "transactions": ["restaurant_reservation", "pickup", "delivery"], "price": "$$", "location": {"address1": "1711 El Camino Real", "address2": null, "address3": "", "city": "Millbrae", "zip_code": "94030", "country": "US", "state": "CA", "display_address": ["1711 El Camino Real", "Millbrae, CA 94030"]}, "phone": "+16508696222", "display_phone": "(650) 869-6222", "distance": 1416.3457566881316}, {"id": "aqTV1OMiviDay_JUl5nnqg", "alias": "hu-bei-restaurant-millbrae-2", "name": "Hu Bei Restaurant", "image_url": "https://s3-media1.fl.yelpcdn.com/bphoto/9cc9wodh91B56-PqlX6mmw/o.jpg", "is_closed": false, "url": "https://www.yelp.com/biz/hu-bei-restaurant-millbrae-2?adjust_creative=-1a8ZLzJ76_AvFzvJVcndQ&utm_campaign=yelp_api_v3&utm_medium=api_v3_business_search&utm_source=-1a8ZLzJ76_AvFzvJVcndQ", "review_count": 129, "categories": [{"alias": "chinese", "title": "Chinese"}], "rating": 4.0, "coordinates": {"latitude": 37.60607, "longitude": -122.397736666667}, "transactions": ["restaurant_reservation", "pickup", "delivery"], "price": "$$", "location": {"address1": "1055 El Camino Real", "address2": "", "address3": null, "city": "Millbrae", "zip_code": "94030", "country": "US", "state": "CA", "display_address": ["1055 El Camino Real", "Millbrae, CA 94030"]}, "phone": "+16506928858", "display_phone": "(650) 692-8858", "distance": 294.481740476051}, {"id": "T2xibSmmNFNcLtKVV6ppkg", "alias": "ben-tre-vietnamese-homestyle-cuisine-millbrae", "name": "Ben Tre Vietnamese Homestyle Cuisine", "image_url": "https://s3-media1.fl.yelpcdn.com/bphoto/mhOZShWP3S4Gd_XQwT5jRg/o.jpg", "is_closed": false, "url": "https://www.yelp.com/biz/ben-tre-vietnamese-homestyle-cuisine-millbrae?adjust_creative=-1a8ZLzJ76_AvFzvJVcndQ&utm_campaign=yelp_api_v3&utm_medium=api_v3_business_search&utm_source=-1a8ZLzJ76_AvFzvJVcndQ", "review_count": 827, "categories": [{"alias": "vietnamese", "title": "Vietnamese"}, {"alias": "soup", "title": "Soup"}, {"alias": "chicken_wings", "title": "Chicken Wings"}], "rating": 4.0, "coordinates": {"latitude": 37.60052, "longitude": -122.39033}, "transactions": [], "price": "$$", "location": {"address1": "219 El Camino Real", "address2": "", "address3": "", "city": "Millbrae", "zip_code": "94030", "country": "US", "state": "CA", "display_address": ["219 El Camino Real", "Millbrae, CA 94030"]}, "phone": "+16506895588", "display_phone": "(650) 689-5588", "distance": 603.2733503555204}, {"id": "XlGJnz2Fy9EaGCINCphd4Q", "alias": "millbrae-kebabs-and-gyros-millbrae-2", "name": "Millbrae Kebabs And Gyros", "image_url": "https://s3-media1.fl.yelpcdn.com/bphoto/Nes256ILUq9njtb2wH6SPQ/o.jpg", "is_closed": false, "url": "https://www.yelp.com/biz/millbrae-kebabs-and-gyros-millbrae-2?adjust_creative=-1a8ZLzJ76_AvFzvJVcndQ&utm_campaign=yelp_api_v3&utm_medium=api_v3_business_search&utm_source=-1a8ZLzJ76_AvFzvJVcndQ", "review_count": 268, "categories": [{"alias": "mediterranean", "title": "Mediterranean"}], "rating": 4.0, "coordinates": {"latitude": 37.6037387, "longitude": -122.3957604}, "transactions": ["pickup", "delivery"], "price": "$$", "location": {"address1": "675 Broadway", "address2": "", "address3": null, "city": "Millbrae", "zip_code": "94030", "country": "US", "state": "CA", "display_address": ["675 Broadway", "Millbrae, CA 94030"]}, "phone": "+16502318092", "display_phone": "(650) 231-8092", "distance": 88.20467962207579}, {"id": "6J2LxhqhVPb0w7X0tL0TqQ", "alias": "shanghai-dumpling-shop-millbrae", "name": "Shanghai Dumpling Shop", "image_url": "https://s3-media3.fl.yelpcdn.com/bphoto/wKmMLzc2OEn5RJ42BOdUXg/o.jpg", "is_closed": false, "url": "https://www.yelp.com/biz/shanghai-dumpling-shop-millbrae?adjust_creative=-1a8ZLzJ76_AvFzvJVcndQ&utm_campaign=yelp_api_v3&utm_medium=api_v3_business_search&utm_source=-1a8ZLzJ76_AvFzvJVcndQ", "review_count": 1144, "categories": [{"alias": "shanghainese", "title": "Shanghainese"}, {"alias": "dimsum", "title": "Dim Sum"}], "rating": 3.5, "coordinates": {"latitude": 37.6020494998889, "longitude": -122.393563533732}, "transactions": [], "price": "$$", "location": {"address1": "455 Broadway", "address2": "", "address3": "", "city": "Millbrae", "zip_code": "94030", "country": "US", "state": "CA", "display_address": ["455 Broadway", "Millbrae, CA 94030"]}, "phone": "+16506970682", "display_phone": "(650) 697-0682", "distance": 291.09102711089}, {"id": "ihsc-gyOo6O0I7xBumkxnw", "alias": "ipoh-garden-malaysian-cuisine-millbrae-4", "name": "IPOH Garden Malaysian Cuisine", "image_url": "https://s3-media3.fl.yelpcdn.com/bphoto/WRL1A0cc3GVDWSaiiTh5Yw/o.jpg", "is_closed": false, "url": "https://www.yelp.com/biz/ipoh-garden-malaysian-cuisine-millbrae-4?adjust_creative=-1a8ZLzJ76_AvFzvJVcndQ&utm_campaign=yelp_api_v3&utm_medium=api_v3_business_search&utm_source=-1a8ZLzJ76_AvFzvJVcndQ", "review_count": 393, "categories": [{"alias": "malaysian", "title": "Malaysian"}], "rating": 4.0, "coordinates": {"latitude": 37.599366, "longitude": -122.387811}, "transactions": ["pickup"], "price": "$$", "location": {"address1": "100 El Camino Real", "address2": null, "address3": "", "city": "Millbrae", "zip_code": "94030", "country": "US", "state": "CA", "display_address": ["100 El Camino Real", "Millbrae, CA 94030"]}, "phone": "+16506529588", "display_phone": "(650) 652-9588", "distance": 854.6789598510178}, {"id": "oXF3H0m8pV-u-L9-PTF66Q", "alias": "ipot-plus-millbrae", "name": "IPOT Plus", "image_url": "https://s3-media4.fl.yelpcdn.com/bphoto/JRsRTIvh3KFzXJpblTcGLQ/o.jpg", "is_closed": false, "url": "https://www.yelp.com/biz/ipot-plus-millbrae?adjust_creative=-1a8ZLzJ76_AvFzvJVcndQ&utm_campaign=yelp_api_v3&utm_medium=api_v3_business_search&utm_source=-1a8ZLzJ76_AvFzvJVcndQ", "review_count": 80, "categories": [{"alias": "hotpot", "title": "Hot Pot"}, {"alias": "chinese", "title": "Chinese"}, {"alias": "chicken_wings", "title": "Chicken Wings"}], "rating": 4.0, "coordinates": {"latitude": 37.599537, "longitude": -122.389134}, "transactions": [], "price": "$$", "location": {"address1": "121 El Camino Real", "address2": "", "address3": null, "city": "Millbrae", "zip_code": "94030", "country": "US", "state": "CA", "display_address": ["121 El Camino Real", "Millbrae, CA 94030"]}, "phone": "+16508678860", "display_phone": "(650) 867-8860", "distance": 755.5264607848565}, {"id": "DMfnZb0z8gFVWhXm9EqxlQ", "alias": "spicy-factory-burlingame", "name": "Spicy Factory", "image_url": "https://s3-media1.fl.yelpcdn.com/bphoto/imvafDHhJ70BbsdY3hKWng/o.jpg", "is_closed": false, "url": "https://www.yelp.com/biz/spicy-factory-burlingame?adjust_creative=-1a8ZLzJ76_AvFzvJVcndQ&utm_campaign=yelp_api_v3&utm_medium=api_v3_business_search&utm_source=-1a8ZLzJ76_AvFzvJVcndQ", "review_count": 142, "categories": [{"alias": "korean", "title": "Korean"}, {"alias": "chicken_wings", "title": "Chicken Wings"}], "rating": 4.0, "coordinates": {"latitude": 37.59400833, "longitude": -122.38422667}, "transactions": ["pickup", "delivery"], "price": "$$", "location": {"address1": "1803A El Camino Real", "address2": null, "address3": "", "city": "Burlingame", "zip_code": "94010", "country": "US", "state": "CA", "display_address": ["1803A El Camino Real", "Burlingame, CA 94010"]}, "phone": "+16502318288", "display_phone": "(650) 231-8288", "distance": 1488.4547209031339}, {"id": "apr80L4dTMhhgDSaspR-JQ", "alias": "zen-sushi-bistro-millbrae-2", "name": "Zen Sushi Bistro", "image_url": "https://s3-media2.fl.yelpcdn.com/bphoto/MmmbE0aXdAP5tPUWWZsluw/o.jpg", "is_closed": false, "url": "https://www.yelp.com/biz/zen-sushi-bistro-millbrae-2?adjust_creative=-1a8ZLzJ76_AvFzvJVcndQ&utm_campaign=yelp_api_v3&utm_medium=api_v3_business_search&utm_source=-1a8ZLzJ76_AvFzvJVcndQ", "review_count": 820, "categories": [{"alias": "sushi", "title": "Sushi Bars"}, {"alias": "ramen", "title": "Ramen"}], "rating": 3.5, "coordinates": {"latitude": 37.6020115582897, "longitude": -122.392739295352}, "transactions": ["restaurant_reservation", "pickup", "delivery"], "price": "$$", "location": {"address1": "420 Broadway", "address2": "", "address3": "", "city": "Millbrae", "zip_code": "94030", "country": "US", "state": "CA", "display_address": ["420 Broadway", "Millbrae, CA 94030"]}, "phone": "+16506979988", "display_phone": "(650) 697-9988", "distance": 337.1827734625147}, {"id": "qlU83VEwgHd8RXkIn-VSkQ", "alias": "millbrae-pancake-house-millbrae", "name": "Millbrae Pancake House", "image_url": "https://s3-media4.fl.yelpcdn.com/bphoto/VFgob8fiAH_5TsnxIziyhQ/o.jpg", "is_closed": false, "url": "https://www.yelp.com/biz/millbrae-pancake-house-millbrae?adjust_creative=-1a8ZLzJ76_AvFzvJVcndQ&utm_campaign=yelp_api_v3&utm_medium=api_v3_business_search&utm_source=-1a8ZLzJ76_AvFzvJVcndQ", "review_count": 2512, "categories": [{"alias": "tradamerican", "title": "American (Traditional)"}, {"alias": "pancakes", "title": "Pancakes"}], "rating": 4.0, "coordinates": {"latitude": 37.6085742618774, "longitude": -122.400288636078}, "transactions": [], "price": "$$", "location": {"address1": "1301 El Camino Real", "address2": "", "address3": "", "city": "Millbrae", "zip_code": "94030", "country": "US", "state": "CA", "display_address": ["1301 El Camino Real", "Millbrae, CA 94030"]}, "phone": "+16505892080", "display_phone": "(650) 589-2080", "distance": 650.2826258411179}, {"id": "LNoieavrpsXj5fsI2Y4Lkw", "alias": "flaming-kitchen-millbrae", "name": "Flaming Kitchen", "image_url": "https://s3-media2.fl.yelpcdn.com/bphoto/NiJGJElHOY5iG9zsM45GYQ/o.jpg", "is_closed": false, "url": "https://www.yelp.com/biz/flaming-kitchen-millbrae?adjust_creative=-1a8ZLzJ76_AvFzvJVcndQ&utm_campaign=yelp_api_v3&utm_medium=api_v3_business_search&utm_source=-1a8ZLzJ76_AvFzvJVcndQ", "review_count": 35, "categories": [{"alias": "desserts", "title": "Desserts"}, {"alias": "taiwanese", "title": "Taiwanese"}, {"alias": "hotpot", "title": "Hot Pot"}], "rating": 3.5, "coordinates": {"latitude": 37.60047, "longitude": -122.39027}, "transactions": ["pickup", "delivery"], "location": {"address1": "213 El Camino Real", "address2": "", "address3": null, "city": "Millbrae", "zip_code": "94030", "country": "US", "state": "CA", "display_address": ["213 El Camino Real", "Millbrae, CA 94030"]}, "phone": "+16506895695", "display_phone": "(650) 689-5695", "distance": 611.6388096796612}, {"id": "KcI1xebr9XqeeZDdIKN8rw", "alias": "tasty-place-millbrae-2", "name": "Tasty Place", "image_url": "https://s3-media4.fl.yelpcdn.com/bphoto/qcvDhRNNvzauKFmNdKkfzg/o.jpg", "is_closed": false, "url": "https://www.yelp.com/biz/tasty-place-millbrae-2?adjust_creative=-1a8ZLzJ76_AvFzvJVcndQ&utm_campaign=yelp_api_v3&utm_medium=api_v3_business_search&utm_source=-1a8ZLzJ76_AvFzvJVcndQ", "review_count": 208, "categories": [{"alias": "chinese", "title": "Chinese"}], "rating": 4.0, "coordinates": {"latitude": 37.6128872, "longitude": -122.4042987}, "transactions": ["pickup"], "price": "$$", "location": {"address1": "1625 El Camino Real", "address2": null, "address3": "", "city": "Millbrae", "zip_code": "94030", "country": "US", "state": "CA", "display_address": ["1625 El Camino Real", "Millbrae, CA 94030"]}, "phone": "+16508722338", "display_phone": "(650) 872-2338", "distance": 1247.460088794027}, {"id": "oedtQb54nAaCu9QimGlXvQ", "alias": "poke-lab-fish-bar-millbrae", "name": "Poke Lab Fish Bar", "image_url": "https://s3-media3.fl.yelpcdn.com/bphoto/cm8W3pp-KcbxfNnQgChPjQ/o.jpg", "is_closed": false, "url": "https://www.yelp.com/biz/poke-lab-fish-bar-millbrae?adjust_creative=-1a8ZLzJ76_AvFzvJVcndQ&utm_campaign=yelp_api_v3&utm_medium=api_v3_business_search&utm_source=-1a8ZLzJ76_AvFzvJVcndQ", "review_count": 260, "categories": [{"alias": "poke", "title": "Poke"}, {"alias": "hawaiian", "title": "Hawaiian"}, {"alias": "desserts", "title": "Desserts"}], "rating": 4.0, "coordinates": {"latitude": 37.6063567, "longitude": -122.3977282}, "transactions": ["pickup"], "price": "$$", "location": {"address1": "1069 El Camino Real", "address2": "", "address3": null, "city": "Millbrae", "zip_code": "94030", "country": "US", "state": "CA", "display_address": ["1069 El Camino Real", "Millbrae, CA 94030"]}, "phone": "+16506277772", "display_phone": "(650) 627-7772", "distance": 313.1651011619643}, {"id": "79wqHt3w3exi-9M8R-ZsQA", "alias": "yummy-szechuan-millbrae-2", "name": "Yummy Szechuan", "image_url": "https://s3-media2.fl.yelpcdn.com/bphoto/wPY7mGIJW5on7cy3X9oCbw/o.jpg", "is_closed": false, "url": "https://www.yelp.com/biz/yummy-szechuan-millbrae-2?adjust_creative=-1a8ZLzJ76_AvFzvJVcndQ&utm_campaign=yelp_api_v3&utm_medium=api_v3_business_search&utm_source=-1a8ZLzJ76_AvFzvJVcndQ", "review_count": 360, "categories": [{"alias": "szechuan", "title": "Szechuan"}], "rating": 4.0, "coordinates": {"latitude": 37.61321, "longitude": -122.40476}, "transactions": ["pickup"], "price": "$$", "location": {"address1": "1661 El Camino Real", "address2": null, "address3": "", "city": "Millbrae", "zip_code": "94030", "country": "US", "state": "CA", "display_address": ["1661 El Camino Real", "Millbrae, CA 94030"]}, "phone": "+16506159648", "display_phone": "(650) 615-9648", "distance": 1295.2468871105332}, {"id": "qouN9XcSEJ6RSUHkP2zthg", "alias": "the-kitchen-millbrae", "name": "The Kitchen", "image_url": "https://s3-media3.fl.yelpcdn.com/bphoto/ClLPSY970tUstp3wpk6KTg/o.jpg", "is_closed": false, "url": "https://www.yelp.com/biz/the-kitchen-millbrae?adjust_creative=-1a8ZLzJ76_AvFzvJVcndQ&utm_campaign=yelp_api_v3&utm_medium=api_v3_business_search&utm_source=-1a8ZLzJ76_AvFzvJVcndQ", "review_count": 860, "categories": [{"alias": "dimsum", "title": "Dim Sum"}, {"alias": "cantonese", "title": "Cantonese"}], "rating": 3.0, "coordinates": {"latitude": 37.600982, "longitude": -122.390884}, "transactions": [], "price": "$$", "location": {"address1": "279 El Camino Real", "address2": "", "address3": "", "city": "Millbrae", "zip_code": "94030", "country": "US", "state": "CA", "display_address": ["279 El Camino Real", "Millbrae, CA 94030"]}, "phone": "+16506929688", "display_phone": "(650) 692-9688", "distance": 531.7753986790133}, {"id": "x2tHVNB1f6zN_dWz5CbimA", "alias": "morning-wood-san-bruno", "name": "Morning Wood", "image_url": "https://s3-media2.fl.yelpcdn.com/bphoto/8QaAXxgt3ggbfCSxM-yaQg/o.jpg", "is_closed": false, "url": "https://www.yelp.com/biz/morning-wood-san-bruno?adjust_creative=-1a8ZLzJ76_AvFzvJVcndQ&utm_campaign=yelp_api_v3&utm_medium=api_v3_business_search&utm_source=-1a8ZLzJ76_AvFzvJVcndQ", "review_count": 1047, "categories": [{"alias": "japanese", "title": "Japanese"}, {"alias": "breakfast_brunch", "title": "Breakfast & Brunch"}, {"alias": "hawaiian", "title": "Hawaiian"}], "rating": 4.0, "coordinates": {"latitude": 37.61882, "longitude": -122.40924}, "transactions": [], "price": "$$", "location": {"address1": "260 El Camino Real", "address2": "", "address3": null, "city": "San Bruno", "zip_code": "94066", "country": "US", "state": "CA", "display_address": ["260 El Camino Real", "San Bruno, CA 94066"]}, "phone": "", "display_phone": "", "distance": 2049.195830693023}, {"id": "XlXxYzt5xtVHTbiK5fTM2g", "alias": "lai-lai-restaurant-millbrae", "name": "Lai Lai Restaurant", "image_url": "https://s3-media3.fl.yelpcdn.com/bphoto/9FVAYJyVcWV3E4AixzYrXQ/o.jpg", "is_closed": false, "url": "https://www.yelp.com/biz/lai-lai-restaurant-millbrae?adjust_creative=-1a8ZLzJ76_AvFzvJVcndQ&utm_campaign=yelp_api_v3&utm_medium=api_v3_business_search&utm_source=-1a8ZLzJ76_AvFzvJVcndQ", "review_count": 333, "categories": [{"alias": "chinese", "title": "Chinese"}, {"alias": "asianfusion", "title": "Asian Fusion"}], "rating": 4.0, "coordinates": {"latitude": 37.6013, "longitude": -122.39188}, "transactions": ["pickup"], "price": "$$", "location": {"address1": "334 Broadway", "address2": "", "address3": "", "city": "Millbrae", "zip_code": "94030", "country": "US", "state": "CA", "display_address": ["334 Broadway", "Millbrae, CA 94030"]}, "phone": "+16506928898", "display_phone": "(650) 692-8898", "distance": 448.5895449893385}, {"id": "k3RNeOZl77V1UebA2Blq2A", "alias": "boiling-szechuan-hotpot-millbrae-3", "name": "Boiling Szechuan Hotpot", "image_url": "https://s3-media4.fl.yelpcdn.com/bphoto/FXNT2lx7ICqpNFikVEa_vA/o.jpg", "is_closed": false, "url": "https://www.yelp.com/biz/boiling-szechuan-hotpot-millbrae-3?adjust_creative=-1a8ZLzJ76_AvFzvJVcndQ&utm_campaign=yelp_api_v3&utm_medium=api_v3_business_search&utm_source=-1a8ZLzJ76_AvFzvJVcndQ", "review_count": 125, "categories": [{"alias": "szechuan", "title": "Szechuan"}, {"alias": "hotpot", "title": "Hot Pot"}], "rating": 4.0, "coordinates": {"latitude": 37.5993392937915, "longitude": -122.388788332506}, "transactions": [], "price": "$$", "location": {"address1": "103 El Camino Real", "address2": "", "address3": null, "city": "Millbrae", "zip_code": "94030", "country": "US", "state": "CA", "display_address": ["103 El Camino Real", "Millbrae, CA 94030"]}, "phone": "+16506868886", "display_phone": "(650) 686-8886", "distance": 792.6735882306574}, {"id": "ZX5I4dK7uR9dTN1IwexsLw", "alias": "ichizen-japanese-cuisine-millbrae-4", "name": "Ichizen Japanese Cuisine", "image_url": "https://s3-media1.fl.yelpcdn.com/bphoto/O5CoVxCh_0Xs3yAfql58fw/o.jpg", "is_closed": false, "url": "https://www.yelp.com/biz/ichizen-japanese-cuisine-millbrae-4?adjust_creative=-1a8ZLzJ76_AvFzvJVcndQ&utm_campaign=yelp_api_v3&utm_medium=api_v3_business_search&utm_source=-1a8ZLzJ76_AvFzvJVcndQ", "review_count": 144, "categories": [{"alias": "japanese", "title": "Japanese"}, {"alias": "sushi", "title": "Sushi Bars"}], "rating": 4.0, "coordinates": {"latitude": 37.59813, "longitude": -122.38626}, "transactions": [], "price": "$$", "location": {"address1": "102 S El Camino Real", "address2": null, "address3": "", "city": "Millbrae", "zip_code": "94030", "country": "US", "state": "CA", "display_address": ["102 S El Camino Real", "Millbrae, CA 94030"]}, "phone": "+16502044217", "display_phone": "(650) 204-4217", "distance": 1042.5870495176498}, {"id": "iMxBMVIFHLTH1IHnC66ihQ", "alias": "easterly-millbrae-millbrae-2", "name": "Easterly Millbrae", "image_url": "https://s3-media4.fl.yelpcdn.com/bphoto/t37pRbYxoQUz6eFOIYs-yw/o.jpg", "is_closed": false, "url": "https://www.yelp.com/biz/easterly-millbrae-millbrae-2?adjust_creative=-1a8ZLzJ76_AvFzvJVcndQ&utm_campaign=yelp_api_v3&utm_medium=api_v3_business_search&utm_source=-1a8ZLzJ76_AvFzvJVcndQ", "review_count": 44, "categories": [{"alias": "chinese", "title": "Chinese"}], "rating": 3.0, "coordinates": {"latitude": 37.6008, "longitude": -122.39209}, "transactions": ["pickup", "delivery"], "location": {"address1": "309 Broadway", "address2": null, "address3": "", "city": "Millbrae", "zip_code": "94030", "country": "US", "state": "CA", "display_address": ["309 Broadway", "Millbrae, CA 94030"]}, "phone": "+16506866987", "display_phone": "(650) 686-6987", "distance": 476.6143268749898}, {"id": "UotjCRojMHF9zfxSBPEUXw", "alias": "quail-and-crane-san-francisco", "name": "Quail and Crane", "image_url": "https://s3-media3.fl.yelpcdn.com/bphoto/YGZ3jYz6mP60Ru-o3Cb8xw/o.jpg", "is_closed": false, "url": "https://www.yelp.com/biz/quail-and-crane-san-francisco?adjust_creative=-1a8ZLzJ76_AvFzvJVcndQ&utm_campaign=yelp_api_v3&utm_medium=api_v3_business_search&utm_source=-1a8ZLzJ76_AvFzvJVcndQ", "review_count": 2, "categories": [{"alias": "breakfast_brunch", "title": "Breakfast & Brunch"}, {"alias": "ramen", "title": "Ramen"}], "rating": 3.5, "coordinates": {"latitude": 37.612918, "longitude": -122.394068}, "transactions": [], "location": {"address1": "55 S McDonnell Rd", "address2": "", "address3": null, "city": "San Francisco", "zip_code": "94128", "country": "US", "state": "CA", "display_address": ["55 S McDonnell Rd", "San Francisco, CA 94128"]}, "phone": "+16504521234", "display_phone": "(650) 452-1234", "distance": 963.7412097686321}, {"id": "OKDiXoXRgbAuzNFub5FFyA", "alias": "uni-souffl\u00e9-millbrae", "name": "Uni Souffl\u00e9", "image_url": "https://s3-media3.fl.yelpcdn.com/bphoto/4wSP_-YDw61KjTaZyoOpxw/o.jpg", "is_closed": false, "url": "https://www.yelp.com/biz/uni-souffl%C3%A9-millbrae?adjust_creative=-1a8ZLzJ76_AvFzvJVcndQ&utm_campaign=yelp_api_v3&utm_medium=api_v3_business_search&utm_source=-1a8ZLzJ76_AvFzvJVcndQ", "review_count": 164, "categories": [{"alias": "desserts", "title": "Desserts"}, {"alias": "bubbletea", "title": "Bubble Tea"}, {"alias": "pancakes", "title": "Pancakes"}], "rating": 3.5, "coordinates": {"latitude": 37.601559, "longitude": -122.393002}, "transactions": [], "price": "$$", "location": {"address1": "405 Broadway", "address2": null, "address3": "", "city": "Millbrae", "zip_code": "94030", "country": "US", "state": "CA", "display_address": ["405 Broadway", "Millbrae, CA 94030"]}, "phone": "+16506866982", "display_phone": "(650) 686-6982", "distance": 365.05508602930536}, {"id": "2kwCBSmLZcFo2uvZP4qmLA", "alias": "fat-wongs-kitchen-san-bruno", "name": "Fat Wong's Kitchen", "image_url": "https://s3-media3.fl.yelpcdn.com/bphoto/nWUMAWCjaHmkXDWJasMXhw/o.jpg", "is_closed": false, "url": "https://www.yelp.com/biz/fat-wongs-kitchen-san-bruno?adjust_creative=-1a8ZLzJ76_AvFzvJVcndQ&utm_campaign=yelp_api_v3&utm_medium=api_v3_business_search&utm_source=-1a8ZLzJ76_AvFzvJVcndQ", "review_count": 879, "categories": [{"alias": "cantonese", "title": "Cantonese"}], "rating": 3.5, "coordinates": {"latitude": 37.615727, "longitude": -122.406295}, "transactions": [], "price": "$", "location": {"address1": "1780 El Camino Real", "address2": "", "address3": "", "city": "San Bruno", "zip_code": "94066", "country": "US", "state": "CA", "display_address": ["1780 El Camino Real", "San Bruno, CA 94066"]}, "phone": "+16508726682", "display_phone": "(650) 872-6682", "distance": 1600.2849549290409}, {"id": "Z9a7ed26x7OBBWNn1z1W-Q", "alias": "bashamichi-millbrae", "name": "Bashamichi", "image_url": "https://s3-media3.fl.yelpcdn.com/bphoto/ZwhnfzLDU-fQdox_SBbiTw/o.jpg", "is_closed": false, "url": "https://www.yelp.com/biz/bashamichi-millbrae?adjust_creative=-1a8ZLzJ76_AvFzvJVcndQ&utm_campaign=yelp_api_v3&utm_medium=api_v3_business_search&utm_source=-1a8ZLzJ76_AvFzvJVcndQ", "review_count": 172, "categories": [{"alias": "steak", "title": "Steakhouses"}, {"alias": "japanese", "title": "Japanese"}, {"alias": "tapasmallplates", "title": "Tapas/Small Plates"}], "rating": 4.0, "coordinates": {"latitude": 37.6104222, "longitude": -122.4008769}, "transactions": [], "price": "$$", "location": {"address1": "1390 El Camino Real", "address2": null, "address3": "", "city": "Millbrae", "zip_code": "94030", "country": "US", "state": "CA", "display_address": ["1390 El Camino Real", "Millbrae, CA 94030"]}, "phone": "+16507421003", "display_phone": "(650) 742-1003", "distance": 842.0450180702854}, {"id": "eLBn0MwVKZkZ__M5DbH01A", "alias": "royal-feast-millbrae", "name": "Royal Feast", "image_url": "https://s3-media3.fl.yelpcdn.com/bphoto/4DZWi4HozaPr61s9qh_fwg/o.jpg", "is_closed": false, "url": "https://www.yelp.com/biz/royal-feast-millbrae?adjust_creative=-1a8ZLzJ76_AvFzvJVcndQ&utm_campaign=yelp_api_v3&utm_medium=api_v3_business_search&utm_source=-1a8ZLzJ76_AvFzvJVcndQ", "review_count": 165, "categories": [{"alias": "chinese", "title": "Chinese"}], "rating": 4.0, "coordinates": {"latitude": 37.5998955745086, "longitude": -122.388331949995}, "transactions": ["pickup"], "price": "$$", "location": {"address1": "148 El Camino Real", "address2": "", "address3": null, "city": "Millbrae", "zip_code": "94030", "country": "US", "state": "CA", "display_address": ["148 El Camino Real", "Millbrae, CA 94030"]}, "phone": "+16506923388", "display_phone": "(650) 692-3388", "distance": 781.8404396228639}, {"id": "g-X7ife8yEjR5TrDB0928Q", "alias": "fiddlers-green-millbrae", "name": "Fiddler's Green", "image_url": "https://s3-media4.fl.yelpcdn.com/bphoto/qHRe2t6CvP1ChYeEr7_eaQ/o.jpg", "is_closed": false, "url": "https://www.yelp.com/biz/fiddlers-green-millbrae?adjust_creative=-1a8ZLzJ76_AvFzvJVcndQ&utm_campaign=yelp_api_v3&utm_medium=api_v3_business_search&utm_source=-1a8ZLzJ76_AvFzvJVcndQ", "review_count": 353, "categories": [{"alias": "irish", "title": "Irish"}, {"alias": "sportsbars", "title": "Sports Bars"}], "rating": 4.0, "coordinates": {"latitude": 37.601518513616, "longitude": -122.391592318155}, "transactions": [], "price": "$$", "location": {"address1": "333 El Camino Real", "address2": "", "address3": "", "city": "Millbrae", "zip_code": "94030", "country": "US", "state": "CA", "display_address": ["333 El Camino Real", "Millbrae, CA 94030"]}, "phone": "+16506973419", "display_phone": "(650) 697-3419", "distance": 446.6499855708715}, {"id": "4ftotDC6LOFZpbbw8oX_fg", "alias": "tai-wu-restaurant-millbrae-2", "name": "Tai Wu Restaurant", "image_url": "https://s3-media2.fl.yelpcdn.com/bphoto/lZS28n75oWwbzFAcUiYdOQ/o.jpg", "is_closed": false, "url": "https://www.yelp.com/biz/tai-wu-restaurant-millbrae-2?adjust_creative=-1a8ZLzJ76_AvFzvJVcndQ&utm_campaign=yelp_api_v3&utm_medium=api_v3_business_search&utm_source=-1a8ZLzJ76_AvFzvJVcndQ", "review_count": 471, "categories": [{"alias": "dimsum", "title": "Dim Sum"}, {"alias": "cantonese", "title": "Cantonese"}], "rating": 3.0, "coordinates": {"latitude": 37.6018807, "longitude": -122.390719}, "transactions": ["restaurant_reservation"], "price": "$$", "location": {"address1": "300 El Camino Real", "address2": "", "address3": "", "city": "Millbrae", "zip_code": "94030", "country": "US", "state": "CA", "display_address": ["300 El Camino Real", "Millbrae, CA 94030"]}, "phone": "+16506977888", "display_phone": "(650) 697-7888", "distance": 481.3215544116178}, {"id": "lDkqYaJ0ajXbW2HLNiStbg", "alias": "el-super-burrito-millbrae", "name": "El Super Burrito", "image_url": "https://s3-media2.fl.yelpcdn.com/bphoto/dyNDt9Mr4w-UoUvJJ4OF4A/o.jpg", "is_closed": false, "url": "https://www.yelp.com/biz/el-super-burrito-millbrae?adjust_creative=-1a8ZLzJ76_AvFzvJVcndQ&utm_campaign=yelp_api_v3&utm_medium=api_v3_business_search&utm_source=-1a8ZLzJ76_AvFzvJVcndQ", "review_count": 549, "categories": [{"alias": "mexican", "title": "Mexican"}], "rating": 3.5, "coordinates": {"latitude": 37.6046189, "longitude": -122.3947034}, "transactions": [], "price": "$$", "location": {"address1": "780 El Camino Real", "address2": "", "address3": "", "city": "Millbrae", "zip_code": "94030", "country": "US", "state": "CA", "display_address": ["780 El Camino Real", "Millbrae, CA 94030"]}, "phone": "+16505830487", "display_phone": "(650) 583-0487", "distance": 76.2575320929194}, {"id": "FZM5kbrd6iFYf3Rp8OhxGQ", "alias": "lotus-falafel-and-shawerma-millbrae-millbrae", "name": "Lotus Falafel & Shawerma Millbrae", "image_url": "https://s3-media4.fl.yelpcdn.com/bphoto/vmmDx0stdbi1q20k6PDyhA/o.jpg", "is_closed": false, "url": "https://www.yelp.com/biz/lotus-falafel-and-shawerma-millbrae-millbrae?adjust_creative=-1a8ZLzJ76_AvFzvJVcndQ&utm_campaign=yelp_api_v3&utm_medium=api_v3_business_search&utm_source=-1a8ZLzJ76_AvFzvJVcndQ", "review_count": 100, "categories": [{"alias": "mediterranean", "title": "Mediterranean"}], "rating": 4.5, "coordinates": {"latitude": 37.60062, "longitude": -122.38188}, "transactions": ["pickup", "delivery"], "price": "$", "location": {"address1": "360 Adrian Rd", "address2": null, "address3": "", "city": "Millbrae", "zip_code": "94010", "country": "US", "state": "CA", "display_address": ["360 Adrian Rd", "Millbrae, CA 94010"]}, "phone": "+16506517048", "display_phone": "(650) 651-7048", "distance": 1272.069313204154}, {"id": "FODGDtSQf4mcOt713PdMfg", "alias": "fish-and-chips-san-bruno", "name": "Fish & Chips", "image_url": "https://s3-media3.fl.yelpcdn.com/bphoto/E6c9hr8OYMSCyySNjBn2Mw/o.jpg", "is_closed": false, "url": "https://www.yelp.com/biz/fish-and-chips-san-bruno?adjust_creative=-1a8ZLzJ76_AvFzvJVcndQ&utm_campaign=yelp_api_v3&utm_medium=api_v3_business_search&utm_source=-1a8ZLzJ76_AvFzvJVcndQ", "review_count": 5, "categories": [{"alias": "fishnchips", "title": "Fish & Chips"}], "rating": 4.0, "coordinates": {"latitude": 37.6166616797069, "longitude": -122.407187037037}, "transactions": ["pickup", "delivery"], "location": {"address1": "130 El Camino Real", "address2": "", "address3": null, "city": "San Bruno", "zip_code": "94066", "country": "US", "state": "CA", "display_address": ["130 El Camino Real", "San Bruno, CA 94066"]}, "phone": "+16505885601", "display_phone": "(650) 588-5601", "distance": 1730.5706985864163}, {"id": "MNsB9Tn1DQpZzP1Q1Vit1g", "alias": "gintei-san-bruno", "name": "Gintei", "image_url": "https://s3-media3.fl.yelpcdn.com/bphoto/AD4drEDOUFj5OCHkcqniuA/o.jpg", "is_closed": false, "url": "https://www.yelp.com/biz/gintei-san-bruno?adjust_creative=-1a8ZLzJ76_AvFzvJVcndQ&utm_campaign=yelp_api_v3&utm_medium=api_v3_business_search&utm_source=-1a8ZLzJ76_AvFzvJVcndQ", "review_count": 429, "categories": [{"alias": "japanese", "title": "Japanese"}], "rating": 4.0, "coordinates": {"latitude": 37.618545, "longitude": -122.40979}, "transactions": ["delivery"], "price": "$$$", "location": {"address1": "235 El Camino Real", "address2": null, "address3": "", "city": "San Bruno", "zip_code": "94066", "country": "US", "state": "CA", "display_address": ["235 El Camino Real", "San Bruno, CA 94066"]}, "phone": "+16506364135", "display_phone": "(650) 636-4135", "distance": 2036.9753364648814}, {"id": "2-gH951C8_2hr8IXApFw9g", "alias": "seoul-kalbi-korean-bbq-san-bruno", "name": "Seoul Kalbi Korean BBQ", "image_url": "https://s3-media3.fl.yelpcdn.com/bphoto/2-huVoN-7EUoMHfx_cZYzg/o.jpg", "is_closed": false, "url": "https://www.yelp.com/biz/seoul-kalbi-korean-bbq-san-bruno?adjust_creative=-1a8ZLzJ76_AvFzvJVcndQ&utm_campaign=yelp_api_v3&utm_medium=api_v3_business_search&utm_source=-1a8ZLzJ76_AvFzvJVcndQ", "review_count": 627, "categories": [{"alias": "korean", "title": "Korean"}, {"alias": "bbq", "title": "Barbeque"}, {"alias": "diyfood", "title": "Do-It-Yourself Food"}], "rating": 3.5, "coordinates": {"latitude": 37.6132, "longitude": -122.40388}, "transactions": [], "price": "$$", "location": {"address1": "1610 El Camino Real", "address2": "", "address3": "", "city": "San Bruno", "zip_code": "94066", "country": "US", "state": "CA", "display_address": ["1610 El Camino Real", "San Bruno, CA 94066"]}, "phone": "+16505830702", "display_phone": "(650) 583-0702", "distance": 1241.9998976452277}, {"id": "hFnZLTDy-nEJmpamEHZfLQ", "alias": "sugandh-indian-restaurant-and-bar-millbrae", "name": "Sugandh Indian Restaurant & Bar", "image_url": "https://s3-media2.fl.yelpcdn.com/bphoto/30hzNtCuk87EfFge-j-L8Q/o.jpg", "is_closed": false, "url": "https://www.yelp.com/biz/sugandh-indian-restaurant-and-bar-millbrae?adjust_creative=-1a8ZLzJ76_AvFzvJVcndQ&utm_campaign=yelp_api_v3&utm_medium=api_v3_business_search&utm_source=-1a8ZLzJ76_AvFzvJVcndQ", "review_count": 248, "categories": [{"alias": "indpak", "title": "Indian"}, {"alias": "himalayan", "title": "Himalayan/Nepalese"}, {"alias": "lounges", "title": "Lounges"}], "rating": 4.5, "coordinates": {"latitude": 37.6009834, "longitude": -122.3921605}, "transactions": ["pickup", "delivery"], "price": "$$", "location": {"address1": "333 Broadway", "address2": "", "address3": "", "city": "Millbrae", "zip_code": "94030", "country": "US", "state": "CA", "display_address": ["333 Broadway", "Millbrae, CA 94030"]}, "phone": "+16507770907", "display_phone": "(650) 777-0907", "distance": 449.7670298986771}, {"id": "BNJBo4d57vJcicVaCFOztA", "alias": "o-sole-mio-restaurant-millbrae", "name": "O' Sole Mio Restaurant", "image_url": "https://s3-media2.fl.yelpcdn.com/bphoto/4-1w5bZgf9eQ2fBXa5G_0Q/o.jpg", "is_closed": false, "url": "https://www.yelp.com/biz/o-sole-mio-restaurant-millbrae?adjust_creative=-1a8ZLzJ76_AvFzvJVcndQ&utm_campaign=yelp_api_v3&utm_medium=api_v3_business_search&utm_source=-1a8ZLzJ76_AvFzvJVcndQ", "review_count": 283, "categories": [{"alias": "pizza", "title": "Pizza"}, {"alias": "italian", "title": "Italian"}], "rating": 4.0, "coordinates": {"latitude": 37.60143, "longitude": -122.39203}, "transactions": ["pickup", "delivery"], "price": "$$", "location": {"address1": "352 Broadway", "address2": "", "address3": "", "city": "Millbrae", "zip_code": "94030", "country": "US", "state": "CA", "display_address": ["352 Broadway", "Millbrae, CA 94030"]}, "phone": "+16506927905", "display_phone": "(650) 692-7905", "distance": 427.95127128513246}, {"id": "pE-1b_AjkY0M9MUTk_551g", "alias": "ramen-saryo-hachi-burlingame-3", "name": "Ramen Saryo Hachi", "image_url": "https://s3-media3.fl.yelpcdn.com/bphoto/sxFuwMwEANDQkgRoUBHMDg/o.jpg", "is_closed": false, "url": "https://www.yelp.com/biz/ramen-saryo-hachi-burlingame-3?adjust_creative=-1a8ZLzJ76_AvFzvJVcndQ&utm_campaign=yelp_api_v3&utm_medium=api_v3_business_search&utm_source=-1a8ZLzJ76_AvFzvJVcndQ", "review_count": 145, "categories": [{"alias": "ramen", "title": "Ramen"}], "rating": 4.0, "coordinates": {"latitude": 37.595704, "longitude": -122.385347}, "transactions": [], "price": "$$", "location": {"address1": "1861 El Camino Real", "address2": "", "address3": null, "city": "Burlingame", "zip_code": "94010", "country": "US", "state": "CA", "display_address": ["1861 El Camino Real", "Burlingame, CA 94010"]}, "phone": "+16502399391", "display_phone": "(650) 239-9391", "distance": 1302.9131358347136}, {"id": "M2M29agT-o7mldTLX2cemQ", "alias": "la-petite-camille-millbrae", "name": "La Petite Camille", "image_url": "https://s3-media2.fl.yelpcdn.com/bphoto/-vPz58c8dIlUShOCYmP6Cw/o.jpg", "is_closed": false, "url": "https://www.yelp.com/biz/la-petite-camille-millbrae?adjust_creative=-1a8ZLzJ76_AvFzvJVcndQ&utm_campaign=yelp_api_v3&utm_medium=api_v3_business_search&utm_source=-1a8ZLzJ76_AvFzvJVcndQ", "review_count": 624, "categories": [{"alias": "vietnamese", "title": "Vietnamese"}, {"alias": "noodles", "title": "Noodles"}, {"alias": "vegan", "title": "Vegan"}], "rating": 3.5, "coordinates": {"latitude": 37.6, "longitude": -122.38849}, "transactions": ["pickup"], "price": "$$", "location": {"address1": "170 El Camino Real", "address2": "", "address3": "", "city": "Millbrae", "zip_code": "94030", "country": "US", "state": "CA", "display_address": ["170 El Camino Real", "Millbrae, CA 94030"]}, "phone": "+16506924978", "display_phone": "(650) 692-4978", "distance": 749.3291594330333}, {"id": "WsXVL8DD7Akx8BLbew_nEw", "alias": "310-broadway-bar-and-grill-millbrae", "name": "310 Broadway Bar & Grill", "image_url": "https://s3-media1.fl.yelpcdn.com/bphoto/fg_F9sRBoqzjpzB9r7c0tw/o.jpg", "is_closed": false, "url": "https://www.yelp.com/biz/310-broadway-bar-and-grill-millbrae?adjust_creative=-1a8ZLzJ76_AvFzvJVcndQ&utm_campaign=yelp_api_v3&utm_medium=api_v3_business_search&utm_source=-1a8ZLzJ76_AvFzvJVcndQ", "review_count": 35, "categories": [{"alias": "sportsbars", "title": "Sports Bars"}, {"alias": "mexican", "title": "Mexican"}], "rating": 4.0, "coordinates": {"latitude": 37.60113, "longitude": -122.39167}, "transactions": [], "price": "$", "location": {"address1": "310 Broadway", "address2": "", "address3": null, "city": "Millbrae", "zip_code": "94030", "country": "US", "state": "CA", "display_address": ["310 Broadway", "Millbrae, CA 94030"]}, "phone": "+16506895060", "display_phone": "(650) 689-5060", "distance": 473.0098619741761}, {"id": "KsNnoDze7AuC_J_83P_VzQ", "alias": "9-noodle-house-millbrae", "name": "9 Noodle House", "image_url": "https://s3-media2.fl.yelpcdn.com/bphoto/t214dox_ULI0QHNAZK5kcQ/o.jpg", "is_closed": false, "url": "https://www.yelp.com/biz/9-noodle-house-millbrae?adjust_creative=-1a8ZLzJ76_AvFzvJVcndQ&utm_campaign=yelp_api_v3&utm_medium=api_v3_business_search&utm_source=-1a8ZLzJ76_AvFzvJVcndQ", "review_count": 107, "categories": [{"alias": "hkcafe", "title": "Hong Kong Style Cafe"}, {"alias": "chinese", "title": "Chinese"}, {"alias": "noodles", "title": "Noodles"}], "rating": 3.5, "coordinates": {"latitude": 37.6019117668403, "longitude": -122.39204518497}, "transactions": ["pickup", "delivery"], "price": "$$", "location": {"address1": "9 Hillcrest Blvd", "address2": "", "address3": null, "city": "Millbrae", "zip_code": "94030", "country": "US", "state": "CA", "display_address": ["9 Hillcrest Blvd", "Millbrae, CA 94030"]}, "phone": "+16505529031", "display_phone": "(650) 552-9031", "distance": 387.6046089721749}, {"id": "_yBcKbFaenNjhlcge-yBXg", "alias": "moms-tofu-house-millbrae-2", "name": "Mom's Tofu House", "image_url": "https://s3-media4.fl.yelpcdn.com/bphoto/nsWqTWchI_AFsXOnviIFvw/o.jpg", "is_closed": false, "url": "https://www.yelp.com/biz/moms-tofu-house-millbrae-2?adjust_creative=-1a8ZLzJ76_AvFzvJVcndQ&utm_campaign=yelp_api_v3&utm_medium=api_v3_business_search&utm_source=-1a8ZLzJ76_AvFzvJVcndQ", "review_count": 129, "categories": [{"alias": "korean", "title": "Korean"}, {"alias": "bbq", "title": "Barbeque"}], "rating": 3.5, "coordinates": {"latitude": 37.599717, "longitude": -122.389337}, "transactions": [], "price": "$$", "location": {"address1": "133 El Camino Real", "address2": "", "address3": null, "city": "Millbrae", "zip_code": "94030", "country": "US", "state": "CA", "display_address": ["133 El Camino Real", "Millbrae, CA 94030"]}, "phone": "+16502596430", "display_phone": "(650) 259-6430", "distance": 728.7431514449742}, {"id": "wK7XeDxBpDBy3a4BUnosPQ", "alias": "one-piece-sushi-millbrae-2", "name": "One Piece Sushi", "image_url": "https://s3-media2.fl.yelpcdn.com/bphoto/psrrLHVBxVAWXxOGlNFgDQ/o.jpg", "is_closed": false, "url": "https://www.yelp.com/biz/one-piece-sushi-millbrae-2?adjust_creative=-1a8ZLzJ76_AvFzvJVcndQ&utm_campaign=yelp_api_v3&utm_medium=api_v3_business_search&utm_source=-1a8ZLzJ76_AvFzvJVcndQ", "review_count": 383, "categories": [{"alias": "japanese", "title": "Japanese"}, {"alias": "sushi", "title": "Sushi Bars"}], "rating": 4.0, "coordinates": {"latitude": 37.6136033982038, "longitude": -122.405342906713}, "transactions": [], "price": "$$", "location": {"address1": "108 Park Pl", "address2": "", "address3": null, "city": "Millbrae", "zip_code": "94030", "country": "US", "state": "CA", "display_address": ["108 Park Pl", "Millbrae, CA 94030"]}, "phone": "+16506364105", "display_phone": "(650) 636-4105", "distance": 1381.6536826889524}, {"id": "EHfok4Qnb8n76ndlIyg88w", "alias": "hong-kong-flower-lounge-millbrae-2", "name": "Hong Kong Flower Lounge", "image_url": "https://s3-media2.fl.yelpcdn.com/bphoto/hSLNs6GmcIfC8bz4MrgTMw/o.jpg", "is_closed": false, "url": "https://www.yelp.com/biz/hong-kong-flower-lounge-millbrae-2?adjust_creative=-1a8ZLzJ76_AvFzvJVcndQ&utm_campaign=yelp_api_v3&utm_medium=api_v3_business_search&utm_source=-1a8ZLzJ76_AvFzvJVcndQ", "review_count": 1042, "categories": [{"alias": "dimsum", "title": "Dim Sum"}, {"alias": "seafood", "title": "Seafood"}], "rating": 3.0, "coordinates": {"latitude": 37.5979461669922, "longitude": -122.387809753418}, "transactions": ["pickup", "delivery"], "price": "$$", "location": {"address1": "51 Millbrae Ave", "address2": "", "address3": "", "city": "Millbrae", "zip_code": "94030", "country": "US", "state": "CA", "display_address": ["51 Millbrae Ave", "Millbrae, CA 94030"]}, "phone": "+16506926666", "display_phone": "(650) 692-6666", "distance": 951.8987888377851}, {"id": "noeX2rZfhXt1VIzyQkemRA", "alias": "in-n-out-burger-millbrae", "name": "In-N-Out Burger", "image_url": "https://s3-media3.fl.yelpcdn.com/bphoto/3bLiRIC2Q-XLlKzHxNqHnQ/o.jpg", "is_closed": false, "url": "https://www.yelp.com/biz/in-n-out-burger-millbrae?adjust_creative=-1a8ZLzJ76_AvFzvJVcndQ&utm_campaign=yelp_api_v3&utm_medium=api_v3_business_search&utm_source=-1a8ZLzJ76_AvFzvJVcndQ", "review_count": 853, "categories": [{"alias": "hotdogs", "title": "Fast Food"}, {"alias": "burgers", "title": "Burgers"}], "rating": 4.0, "coordinates": {"latitude": 37.6008282713993, "longitude": -122.382390251312}, "transactions": [], "price": "$", "location": {"address1": "11 Rollins Rd", "address2": null, "address3": "", "city": "Millbrae", "zip_code": "94030", "country": "US", "state": "CA", "display_address": ["11 Rollins Rd", "Millbrae, CA 94030"]}, "phone": "+18007861000", "display_phone": "(800) 786-1000", "distance": 1196.7717810735896}, {"id": "dWz3a_zC8iNeADj7VTQKCA", "alias": "leonardos-italian-deli-and-cafe-millbrae", "name": "Leonardo's Italian Deli & Cafe", "image_url": "https://s3-media1.fl.yelpcdn.com/bphoto/K3CJlUU_8IMVjuBjoU9FCA/o.jpg", "is_closed": false, "url": "https://www.yelp.com/biz/leonardos-italian-deli-and-cafe-millbrae?adjust_creative=-1a8ZLzJ76_AvFzvJVcndQ&utm_campaign=yelp_api_v3&utm_medium=api_v3_business_search&utm_source=-1a8ZLzJ76_AvFzvJVcndQ", "review_count": 197, "categories": [{"alias": "delis", "title": "Delis"}, {"alias": "coffee", "title": "Coffee & Tea"}, {"alias": "italian", "title": "Italian"}], "rating": 4.0, "coordinates": {"latitude": 37.60319, "longitude": -122.39444}, "transactions": ["delivery"], "price": "$$", "location": {"address1": "540 Broadway", "address2": "", "address3": "", "city": "Millbrae", "zip_code": "94030", "country": "US", "state": "CA", "display_address": ["540 Broadway", "Millbrae, CA 94030"]}, "phone": "+16506979779", "display_phone": "(650) 697-9779", "distance": 199.33953911316647}, {"id": "GwbM9M3c_ZlFSDo7WTGeag", "alias": "wingstop-millbrae", "name": "Wingstop", "image_url": "https://s3-media3.fl.yelpcdn.com/bphoto/8gGZ1zkajk7kOTavHnioLA/o.jpg", "is_closed": false, "url": "https://www.yelp.com/biz/wingstop-millbrae?adjust_creative=-1a8ZLzJ76_AvFzvJVcndQ&utm_campaign=yelp_api_v3&utm_medium=api_v3_business_search&utm_source=-1a8ZLzJ76_AvFzvJVcndQ", "review_count": 118, "categories": [{"alias": "chicken_wings", "title": "Chicken Wings"}], "rating": 3.5, "coordinates": {"latitude": 37.606233315112, "longitude": -122.398032626158}, "transactions": [], "price": "$$", "location": {"address1": "1085 El Camino Real", "address2": "", "address3": "", "city": "Millbrae", "zip_code": "94030", "country": "US", "state": "CA", "display_address": ["1085 El Camino Real", "Millbrae, CA 94030"]}, "phone": "+16506973300", "display_phone": "(650) 697-3300", "distance": 326.0382001841429}, {"id": "8JRsLynNnAZ-698Z2d20UA", "alias": "thai-stick-millbrae", "name": "Thai Stick", "image_url": "https://s3-media2.fl.yelpcdn.com/bphoto/rYVcj4Y8iyKwmQX4bHPv-A/o.jpg", "is_closed": false, "url": "https://www.yelp.com/biz/thai-stick-millbrae?adjust_creative=-1a8ZLzJ76_AvFzvJVcndQ&utm_campaign=yelp_api_v3&utm_medium=api_v3_business_search&utm_source=-1a8ZLzJ76_AvFzvJVcndQ", "review_count": 614, "categories": [{"alias": "thai", "title": "Thai"}], "rating": 3.0, "coordinates": {"latitude": 37.6013, "longitude": -122.39127}, "transactions": ["delivery", "pickup"], "price": "$$", "location": {"address1": "301 El Camino Real", "address2": "", "address3": "", "city": "Millbrae", "zip_code": "94030", "country": "US", "state": "CA", "display_address": ["301 El Camino Real", "Millbrae, CA 94030"]}, "phone": "+16506920414", "display_phone": "(650) 692-0414", "distance": 485.8576675983295}, {"id": "5pETqfD-_7AKxMV8dP9vNg", "alias": "l-and-l-hawaiian-barbecue-millbrae", "name": "L&L Hawaiian Barbecue", "image_url": "https://s3-media3.fl.yelpcdn.com/bphoto/XwGjchIjw5bj5gw3V38IVQ/o.jpg", "is_closed": false, "url": "https://www.yelp.com/biz/l-and-l-hawaiian-barbecue-millbrae?adjust_creative=-1a8ZLzJ76_AvFzvJVcndQ&utm_campaign=yelp_api_v3&utm_medium=api_v3_business_search&utm_source=-1a8ZLzJ76_AvFzvJVcndQ", "review_count": 214, "categories": [{"alias": "hawaiian", "title": "Hawaiian"}, {"alias": "bbq", "title": "Barbeque"}], "rating": 3.5, "coordinates": {"latitude": 37.6004156470299, "longitude": -122.381414920092}, "transactions": ["delivery"], "price": "$", "location": {"address1": "340 Adrian Rd", "address2": "", "address3": "", "city": "Millbrae", "zip_code": "94030", "country": "US", "state": "CA", "display_address": ["340 Adrian Rd", "Millbrae, CA 94030"]}, "phone": "+16502598063", "display_phone": "(650) 259-8063", "distance": 1264.1750973011935}, {"id": "P4D6lZnHAE7SLYwd20TrWw", "alias": "sixteen-mile-house-millbrae", "name": "Sixteen Mile House", "image_url": "https://s3-media2.fl.yelpcdn.com/bphoto/lmLL8bQUzxJTnNG9UR6kTQ/o.jpg", "is_closed": false, "url": "https://www.yelp.com/biz/sixteen-mile-house-millbrae?adjust_creative=-1a8ZLzJ76_AvFzvJVcndQ&utm_campaign=yelp_api_v3&utm_medium=api_v3_business_search&utm_source=-1a8ZLzJ76_AvFzvJVcndQ", "review_count": 324, "categories": [{"alias": "steak", "title": "Steakhouses"}, {"alias": "cocktailbars", "title": "Cocktail Bars"}, {"alias": "breakfast_brunch", "title": "Breakfast & Brunch"}], "rating": 3.5, "coordinates": {"latitude": 37.602268, "longitude": -122.393081}, "transactions": ["pickup", "delivery"], "price": "$$$", "location": {"address1": "448 Broadway", "address2": "", "address3": "", "city": "Millbrae", "zip_code": "94030", "country": "US", "state": "CA", "display_address": ["448 Broadway", "Millbrae, CA 94030"]}, "phone": "+16506976118", "display_phone": "(650) 697-6118", "distance": 295.18081648126713}, {"id": "aeQRRyYh5jnUrh7iAWYEEw", "alias": "la-collina-restaurant-millbrae", "name": "La Collina Restaurant", "image_url": "https://s3-media1.fl.yelpcdn.com/bphoto/Yq-n9d11MHTQNdhYa1aclg/o.jpg", "is_closed": false, "url": "https://www.yelp.com/biz/la-collina-restaurant-millbrae?adjust_creative=-1a8ZLzJ76_AvFzvJVcndQ&utm_campaign=yelp_api_v3&utm_medium=api_v3_business_search&utm_source=-1a8ZLzJ76_AvFzvJVcndQ", "review_count": 185, "categories": [{"alias": "italian", "title": "Italian"}], "rating": 3.5, "coordinates": {"latitude": 37.6016235351562, "longitude": -122.391670227051}, "transactions": ["pickup"], "price": "$$", "location": {"address1": "355 El Camino Real", "address2": "", "address3": "", "city": "Millbrae", "zip_code": "94030", "country": "US", "state": "CA", "display_address": ["355 El Camino Real", "Millbrae, CA 94030"]}, "phone": "+16506529655", "display_phone": "(650) 652-9655", "distance": 432.61091456229826}, {"id": "XcLM0kkQCQ01jQHyOx3EEQ", "alias": "gourmet-village-millbrae", "name": "Gourmet Village", "image_url": "https://s3-media4.fl.yelpcdn.com/bphoto/Acu72iSC7_BfaWk38Rz9PA/o.jpg", "is_closed": false, "url": "https://www.yelp.com/biz/gourmet-village-millbrae?adjust_creative=-1a8ZLzJ76_AvFzvJVcndQ&utm_campaign=yelp_api_v3&utm_medium=api_v3_business_search&utm_source=-1a8ZLzJ76_AvFzvJVcndQ", "review_count": 182, "categories": [{"alias": "chinese", "title": "Chinese"}, {"alias": "asianfusion", "title": "Asian Fusion"}], "rating": 3.0, "coordinates": {"latitude": 37.6021, "longitude": -122.3937}, "transactions": [], "price": "$$", "location": {"address1": "465 Broadway", "address2": "", "address3": "", "city": "Millbrae", "zip_code": "94030", "country": "US", "state": "CA", "display_address": ["465 Broadway", "Millbrae, CA 94030"]}, "phone": "+16502399183", "display_phone": "(650) 239-9183", "distance": 277.7314684965983}, {"id": "vOkiTLs9MVLx6_jtIjT-GA", "alias": "zorbas-pizza-millbrae", "name": "Zorba's Pizza", "image_url": "https://s3-media2.fl.yelpcdn.com/bphoto/qZi9KaL40XKALPWfFoVIdg/o.jpg", "is_closed": false, "url": "https://www.yelp.com/biz/zorbas-pizza-millbrae?adjust_creative=-1a8ZLzJ76_AvFzvJVcndQ&utm_campaign=yelp_api_v3&utm_medium=api_v3_business_search&utm_source=-1a8ZLzJ76_AvFzvJVcndQ", "review_count": 506, "categories": [{"alias": "italian", "title": "Italian"}, {"alias": "pizza", "title": "Pizza"}], "rating": 4.0, "coordinates": {"latitude": 37.61148, "longitude": -122.40303}, "transactions": ["pickup", "delivery"], "price": "$$", "location": {"address1": "1567 El Camino Real", "address2": "", "address3": "", "city": "Millbrae", "zip_code": "94030", "country": "US", "state": "CA", "display_address": ["1567 El Camino Real", "Millbrae, CA 94030"]}, "phone": "+16508751616", "display_phone": "(650) 875-1616", "distance": 1053.3723799988452}, {"id": "g3ZH_gIwLSgQP9ksNKawTg", "alias": "the-little-whale-millbrae", "name": "The Little Whale", "image_url": "https://s3-media3.fl.yelpcdn.com/bphoto/u_wfIUx30RzUHE7Tc2PEsw/o.jpg", "is_closed": false, "url": "https://www.yelp.com/biz/the-little-whale-millbrae?adjust_creative=-1a8ZLzJ76_AvFzvJVcndQ&utm_campaign=yelp_api_v3&utm_medium=api_v3_business_search&utm_source=-1a8ZLzJ76_AvFzvJVcndQ", "review_count": 71, "categories": [{"alias": "seafood", "title": "Seafood"}], "rating": 3.5, "coordinates": {"latitude": 37.603221, "longitude": -122.3961197}, "transactions": ["pickup"], "price": "$$", "location": {"address1": "716 Magnolia Ave", "address2": "", "address3": "", "city": "Millbrae", "zip_code": "94030", "country": "US", "state": "CA", "display_address": ["716 Magnolia Ave", "Millbrae, CA 94030"]}, "phone": "+16506974004", "display_phone": "(650) 697-4004", "distance": 122.09315861650484}, {"id": "wfp9fhCN-XRlJI01JQxHnw", "alias": "cheung-hing-restaurant-millbrae", "name": "Cheung Hing Restaurant", "image_url": "https://s3-media3.fl.yelpcdn.com/bphoto/WyNNysx8wLOA0IHnw8JhrA/o.jpg", "is_closed": false, "url": "https://www.yelp.com/biz/cheung-hing-restaurant-millbrae?adjust_creative=-1a8ZLzJ76_AvFzvJVcndQ&utm_campaign=yelp_api_v3&utm_medium=api_v3_business_search&utm_source=-1a8ZLzJ76_AvFzvJVcndQ", "review_count": 307, "categories": [{"alias": "chinese", "title": "Chinese"}], "rating": 3.0, "coordinates": {"latitude": 37.6007772002234, "longitude": -122.390512557415}, "transactions": ["pickup", "delivery"], "price": "$", "location": {"address1": "245 El Camino Real", "address2": "", "address3": "", "city": "Millbrae", "zip_code": "94030", "country": "US", "state": "CA", "display_address": ["245 El Camino Real", "Millbrae, CA 94030"]}, "phone": "+16506523938", "display_phone": "(650) 652-3938", "distance": 572.3904212887892}, {"id": "ZmWGvWf7T3wPKRVeEazimg", "alias": "cafe-orchid-millbrae", "name": "Cafe Orchid", "image_url": "https://s3-media4.fl.yelpcdn.com/bphoto/e7HF1XZLxHSXb89MyaIzCQ/o.jpg", "is_closed": false, "url": "https://www.yelp.com/biz/cafe-orchid-millbrae?adjust_creative=-1a8ZLzJ76_AvFzvJVcndQ&utm_campaign=yelp_api_v3&utm_medium=api_v3_business_search&utm_source=-1a8ZLzJ76_AvFzvJVcndQ", "review_count": 159, "categories": [{"alias": "chinese", "title": "Chinese"}], "rating": 3.0, "coordinates": {"latitude": 37.5986199, "longitude": -122.38819}, "transactions": [], "price": "$", "location": {"address1": "9B El Camino Real", "address2": "", "address3": "", "city": "Millbrae", "zip_code": "94030", "country": "US", "state": "CA", "display_address": ["9B El Camino Real", "Millbrae, CA 94030"]}, "phone": "+16506973988", "display_phone": "(650) 697-3988", "distance": 900.8365307974232}, {"id": "mpLeT6vG8CkxbdFLwFlpsw", "alias": "amami-sushi-san-bruno-3", "name": "Amami Sushi", "image_url": "https://s3-media2.fl.yelpcdn.com/bphoto/_DN4DsrmnZ0Sgh34FdJ9Hw/o.jpg", "is_closed": false, "url": "https://www.yelp.com/biz/amami-sushi-san-bruno-3?adjust_creative=-1a8ZLzJ76_AvFzvJVcndQ&utm_campaign=yelp_api_v3&utm_medium=api_v3_business_search&utm_source=-1a8ZLzJ76_AvFzvJVcndQ", "review_count": 1269, "categories": [{"alias": "japanese", "title": "Japanese"}, {"alias": "sushi", "title": "Sushi Bars"}], "rating": 3.5, "coordinates": {"latitude": 37.61486, "longitude": -122.40642}, "transactions": ["pickup", "delivery"], "price": "$$", "location": {"address1": "1789 El Camino Real", "address2": "", "address3": "", "city": "San Bruno", "zip_code": "94066", "country": "US", "state": "CA", "display_address": ["1789 El Camino Real", "San Bruno, CA 94066"]}, "phone": "+16508722218", "display_phone": "(650) 872-2218", "distance": 1537.199300203228}, {"id": "zeAyrFZhpT2WUH6S92bmBA", "alias": "totos-pizzeria-san-bruno", "name": "Toto's Pizzeria", "image_url": "https://s3-media1.fl.yelpcdn.com/bphoto/PeVRWM0z0-HbXDM7-mJmFA/o.jpg", "is_closed": false, "url": "https://www.yelp.com/biz/totos-pizzeria-san-bruno?adjust_creative=-1a8ZLzJ76_AvFzvJVcndQ&utm_campaign=yelp_api_v3&utm_medium=api_v3_business_search&utm_source=-1a8ZLzJ76_AvFzvJVcndQ", "review_count": 881, "categories": [{"alias": "pizza", "title": "Pizza"}, {"alias": "italian", "title": "Italian"}], "rating": 4.0, "coordinates": {"latitude": 37.61385, "longitude": -122.40434}, "transactions": ["delivery"], "price": "$$", "location": {"address1": "1690 El Camino Real", "address2": "", "address3": "", "city": "San Bruno", "zip_code": "94066", "country": "US", "state": "CA", "display_address": ["1690 El Camino Real", "San Bruno, CA 94066"]}, "phone": "+16508738686", "display_phone": "(650) 873-8686", "distance": 1337.4279371941664}, {"id": "HvgX5duLWb3DXM0OnSRZeg", "alias": "hs-cafe-millbrae-3", "name": "HS Cafe", "image_url": "https://s3-media4.fl.yelpcdn.com/bphoto/O3JH57RX6bRhqtZzPQbc8w/o.jpg", "is_closed": false, "url": "https://www.yelp.com/biz/hs-cafe-millbrae-3?adjust_creative=-1a8ZLzJ76_AvFzvJVcndQ&utm_campaign=yelp_api_v3&utm_medium=api_v3_business_search&utm_source=-1a8ZLzJ76_AvFzvJVcndQ", "review_count": 261, "categories": [{"alias": "desserts", "title": "Desserts"}, {"alias": "chinese", "title": "Chinese"}, {"alias": "noodles", "title": "Noodles"}], "rating": 2.5, "coordinates": {"latitude": 37.601228, "longitude": -122.3918088}, "transactions": [], "price": "$", "location": {"address1": "328 Broadway", "address2": null, "address3": "", "city": "Millbrae", "zip_code": "94030", "country": "US", "state": "CA", "display_address": ["328 Broadway", "Millbrae, CA 94030"]}, "phone": "+16506979488", "display_phone": "(650) 697-9488", "distance": 456.74004799666403}, {"id": "WQDObc8YJbye43QoKS1jTg", "alias": "naked-fish-millbrae-millbrae", "name": "Naked Fish Millbrae", "image_url": "https://s3-media1.fl.yelpcdn.com/bphoto/0BHXMjF4pDcBhDLHBBZKhw/o.jpg", "is_closed": false, "url": "https://www.yelp.com/biz/naked-fish-millbrae-millbrae?adjust_creative=-1a8ZLzJ76_AvFzvJVcndQ&utm_campaign=yelp_api_v3&utm_medium=api_v3_business_search&utm_source=-1a8ZLzJ76_AvFzvJVcndQ", "review_count": 393, "categories": [{"alias": "japanese", "title": "Japanese"}, {"alias": "sushi", "title": "Sushi Bars"}, {"alias": "bars", "title": "Bars"}], "rating": 3.0, "coordinates": {"latitude": 37.604522, "longitude": -122.396784}, "transactions": ["pickup", "delivery"], "price": "$$", "location": {"address1": "979 Broadway", "address2": "", "address3": "", "city": "Millbrae", "zip_code": "94030", "country": "US", "state": "CA", "display_address": ["979 Broadway", "Millbrae, CA 94030"]}, "phone": "+16506926288", "display_phone": "(650) 692-6288", "distance": 137.47984997294506}, {"id": "DPmVQEzJzyQx6uoaEQ6wDw", "alias": "zen-peninsula-millbrae", "name": "Zen Peninsula", "image_url": "https://s3-media4.fl.yelpcdn.com/bphoto/GMdqK6lxmn8wVRonumr_dQ/o.jpg", "is_closed": false, "url": "https://www.yelp.com/biz/zen-peninsula-millbrae?adjust_creative=-1a8ZLzJ76_AvFzvJVcndQ&utm_campaign=yelp_api_v3&utm_medium=api_v3_business_search&utm_source=-1a8ZLzJ76_AvFzvJVcndQ", "review_count": 611, "categories": [{"alias": "dimsum", "title": "Dim Sum"}], "rating": 3.0, "coordinates": {"latitude": 37.60776, "longitude": -122.39839}, "transactions": [], "price": "$$", "location": {"address1": "1180 El Camino Real", "address2": "", "address3": "", "city": "Millbrae", "zip_code": "94030", "country": "US", "state": "CA", "display_address": ["1180 El Camino Real", "Millbrae, CA 94030"]}, "phone": "+16506169388", "display_phone": "(650) 616-9388", "distance": 470.17223894913144}, {"id": "XWUI0BwbhGnyl0RION9pJw", "alias": "la-matcha-cafe-burlingame-2", "name": "La Matcha Cafe", "image_url": "https://s3-media3.fl.yelpcdn.com/bphoto/fw2fSwlic0cRnSFvxjUQPQ/o.jpg", "is_closed": false, "url": "https://www.yelp.com/biz/la-matcha-cafe-burlingame-2?adjust_creative=-1a8ZLzJ76_AvFzvJVcndQ&utm_campaign=yelp_api_v3&utm_medium=api_v3_business_search&utm_source=-1a8ZLzJ76_AvFzvJVcndQ", "review_count": 53, "categories": [{"alias": "sandwiches", "title": "Sandwiches"}, {"alias": "macarons", "title": "Macarons"}, {"alias": "bubbletea", "title": "Bubble Tea"}], "rating": 4.5, "coordinates": {"latitude": 37.595603, "longitude": -122.383679}, "transactions": [], "location": {"address1": "1828 El Camino Real", "address2": "Ste 102", "address3": "", "city": "Burlingame", "zip_code": "94010", "country": "US", "state": "CA", "display_address": ["1828 El Camino Real", "Ste 102", "Burlingame, CA 94010"]}, "phone": "+16502318060", "display_phone": "(650) 231-8060", "distance": 1398.4690344324156}, {"id": "USntlB2f8sliq4Shc0VrHw", "alias": "patio-filipino-san-bruno", "name": "Patio Filipino", "image_url": "https://s3-media3.fl.yelpcdn.com/bphoto/k1x5-Pjywf9hniIvK53oyw/o.jpg", "is_closed": false, "url": "https://www.yelp.com/biz/patio-filipino-san-bruno?adjust_creative=-1a8ZLzJ76_AvFzvJVcndQ&utm_campaign=yelp_api_v3&utm_medium=api_v3_business_search&utm_source=-1a8ZLzJ76_AvFzvJVcndQ", "review_count": 1071, "categories": [{"alias": "filipino", "title": "Filipino"}, {"alias": "catering", "title": "Caterers"}], "rating": 3.5, "coordinates": {"latitude": 37.6149586, "longitude": -122.4057271}, "transactions": ["pickup"], "price": "$$", "location": {"address1": "1770 El Camino Real", "address2": "", "address3": "", "city": "San Bruno", "zip_code": "94066", "country": "US", "state": "CA", "display_address": ["1770 El Camino Real", "San Bruno, CA 94066"]}, "phone": "+16508729888", "display_phone": "(650) 872-9888", "distance": 1482.937867696296}, {"id": "307ursIncRYeh8XSpepbUg", "alias": "the-manufactory-food-hall-san-francisco", "name": "The Manufactory Food Hall", "image_url": "https://s3-media4.fl.yelpcdn.com/bphoto/8zuegs6MpkbAepgaDPWxwQ/o.jpg", "is_closed": false, "url": "https://www.yelp.com/biz/the-manufactory-food-hall-san-francisco?adjust_creative=-1a8ZLzJ76_AvFzvJVcndQ&utm_campaign=yelp_api_v3&utm_medium=api_v3_business_search&utm_source=-1a8ZLzJ76_AvFzvJVcndQ", "review_count": 20, "categories": [{"alias": "food_court", "title": "Food Court"}], "rating": 4.0, "coordinates": {"latitude": 37.612827, "longitude": -122.389262}, "transactions": [], "price": "$$", "location": {"address1": "780 McDonnell Rd", "address2": "", "address3": "International Terminal Boarding Area A", "city": "San Francisco", "zip_code": "94128", "country": "US", "state": "CA", "display_address": ["780 McDonnell Rd", "International Terminal Boarding Area A", "San Francisco, CA 94128"]}, "phone": "", "display_phone": "", "distance": 1084.794026996945}, {"id": "P5zhjy5FsQNPkSM2PREEHQ", "alias": "little-lucca-burlingame-2", "name": "Little Lucca", "image_url": "https://s3-media3.fl.yelpcdn.com/bphoto/w9WAM8KM0syeS-ZutJ1FiA/o.jpg", "is_closed": false, "url": "https://www.yelp.com/biz/little-lucca-burlingame-2?adjust_creative=-1a8ZLzJ76_AvFzvJVcndQ&utm_campaign=yelp_api_v3&utm_medium=api_v3_business_search&utm_source=-1a8ZLzJ76_AvFzvJVcndQ", "review_count": 993, "categories": [{"alias": "sandwiches", "title": "Sandwiches"}], "rating": 4.0, "coordinates": {"latitude": 37.5941590204541, "longitude": -122.384402}, "transactions": ["pickup"], "price": "$$", "location": {"address1": "1809 El Camino Real", "address2": "", "address3": "Burlingame Shopping Plz", "city": "Burlingame", "zip_code": "94010", "country": "US", "state": "CA", "display_address": ["1809 El Camino Real", "Burlingame Shopping Plz", "Burlingame, CA 94010"]}, "phone": "+16506978389", "display_phone": "(650) 697-8389", "distance": 1478.1745883463966}, {"id": "suKBH6LuOJLn5mYfJjAeAw", "alias": "chef-wang-restaurant-millbrae", "name": "Chef Wang Restaurant", "image_url": "https://s3-media1.fl.yelpcdn.com/bphoto/X4zLReAJS2NlZwKXjZkj2A/o.jpg", "is_closed": false, "url": "https://www.yelp.com/biz/chef-wang-restaurant-millbrae?adjust_creative=-1a8ZLzJ76_AvFzvJVcndQ&utm_campaign=yelp_api_v3&utm_medium=api_v3_business_search&utm_source=-1a8ZLzJ76_AvFzvJVcndQ", "review_count": 197, "categories": [{"alias": "chinese", "title": "Chinese"}], "rating": 3.5, "coordinates": {"latitude": 37.6093501800879, "longitude": -122.400156150141}, "transactions": ["pickup", "delivery"], "price": "$", "location": {"address1": "1320 El Camino Real", "address2": "", "address3": "", "city": "Millbrae", "zip_code": "94030", "country": "US", "state": "CA", "display_address": ["1320 El Camino Real", "Millbrae, CA 94030"]}, "phone": "+16505883648", "display_phone": "(650) 588-3648", "distance": 708.5661128316336}, {"id": "ZhMoTkZBCxNi-iBXP5a2Dw", "alias": "chicken-pho-you-millbrae", "name": "Chicken Pho You", "image_url": "https://s3-media1.fl.yelpcdn.com/bphoto/Pb0Ab1yShhLduDcPAoJXEw/o.jpg", "is_closed": false, "url": "https://www.yelp.com/biz/chicken-pho-you-millbrae?adjust_creative=-1a8ZLzJ76_AvFzvJVcndQ&utm_campaign=yelp_api_v3&utm_medium=api_v3_business_search&utm_source=-1a8ZLzJ76_AvFzvJVcndQ", "review_count": 246, "categories": [{"alias": "vietnamese", "title": "Vietnamese"}, {"alias": "chinese", "title": "Chinese"}, {"alias": "asianfusion", "title": "Asian Fusion"}], "rating": 3.0, "coordinates": {"latitude": 37.600767, "longitude": -122.391431}, "transactions": [], "price": "$", "location": {"address1": "292 Broadway", "address2": "", "address3": "", "city": "Millbrae", "zip_code": "94030", "country": "US", "state": "CA", "display_address": ["292 Broadway", "Millbrae, CA 94030"]}, "phone": "+16506928865", "display_phone": "(650) 692-8865", "distance": 517.2567256210605}, {"id": "V8OScvscIu3y8TPhKyRhAg", "alias": "broadway-bistro-millbrae", "name": "Broadway Bistro", "image_url": "https://s3-media3.fl.yelpcdn.com/bphoto/U5_vJVCh0kTmrqtpWbKzbA/o.jpg", "is_closed": false, "url": "https://www.yelp.com/biz/broadway-bistro-millbrae?adjust_creative=-1a8ZLzJ76_AvFzvJVcndQ&utm_campaign=yelp_api_v3&utm_medium=api_v3_business_search&utm_source=-1a8ZLzJ76_AvFzvJVcndQ", "review_count": 337, "categories": [{"alias": "chinese", "title": "Chinese"}], "rating": 2.5, "coordinates": {"latitude": 37.601075, "longitude": -122.392428}, "transactions": ["pickup"], "price": "$", "location": {"address1": "349 Broadway", "address2": "", "address3": "", "city": "Millbrae", "zip_code": "94030", "country": "US", "state": "CA", "display_address": ["349 Broadway", "Millbrae, CA 94030"]}, "phone": "+16506923378", "display_phone": "(650) 692-3378", "distance": 436.4023356095349}, {"id": "k_mlzQpZ0Ezw6Dg_I2EXHw", "alias": "t4-millbrae-10", "name": "T4", "image_url": "https://s3-media3.fl.yelpcdn.com/bphoto/UlHt773y4FqC3H0vyBedpg/o.jpg", "is_closed": false, "url": "https://www.yelp.com/biz/t4-millbrae-10?adjust_creative=-1a8ZLzJ76_AvFzvJVcndQ&utm_campaign=yelp_api_v3&utm_medium=api_v3_business_search&utm_source=-1a8ZLzJ76_AvFzvJVcndQ", "review_count": 279, "categories": [{"alias": "bubbletea", "title": "Bubble Tea"}, {"alias": "juicebars", "title": "Juice Bars & Smoothies"}, {"alias": "cafes", "title": "Cafes"}], "rating": 3.5, "coordinates": {"latitude": 37.601183, "longitude": -122.392173}, "transactions": ["pickup", "delivery"], "price": "$", "location": {"address1": "315 Broadway", "address2": "", "address3": "", "city": "Millbrae", "zip_code": "94030", "country": "US", "state": "CA", "display_address": ["315 Broadway", "Millbrae, CA 94030"]}, "phone": "+16503024755", "display_phone": "(650) 302-4755", "distance": 440.047850300285}, {"id": "wFMHdUvuXHUkc5dVc680Iw", "alias": "asian-pearl-seafood-restaurant-millbrae", "name": "Asian Pearl Seafood Restaurant", "image_url": "https://s3-media3.fl.yelpcdn.com/bphoto/n9GYPb-3n1LMmhjOU3Krzw/o.jpg", "is_closed": false, "url": "https://www.yelp.com/biz/asian-pearl-seafood-restaurant-millbrae?adjust_creative=-1a8ZLzJ76_AvFzvJVcndQ&utm_campaign=yelp_api_v3&utm_medium=api_v3_business_search&utm_source=-1a8ZLzJ76_AvFzvJVcndQ", "review_count": 638, "categories": [{"alias": "dimsum", "title": "Dim Sum"}, {"alias": "seafood", "title": "Seafood"}, {"alias": "noodles", "title": "Noodles"}], "rating": 2.5, "coordinates": {"latitude": 37.613423, "longitude": -122.404887}, "transactions": ["pickup", "delivery"], "price": "$$", "location": {"address1": "1671 El Camino Real", "address2": "", "address3": "", "city": "Millbrae", "zip_code": "94030", "country": "US", "state": "CA", "display_address": ["1671 El Camino Real", "Millbrae, CA 94030"]}, "phone": "+16506168288", "display_phone": "(650) 616-8288", "distance": 1322.730725207579}, {"id": "YHsTxRl-z3vVMIaYRDmxGw", "alias": "amy-s-drive-thru-san-francisco", "name": "Amy\u2019s Drive Thru", "image_url": "https://s3-media4.fl.yelpcdn.com/bphoto/bqNeLr5RN7YajH0HnzHjFw/o.jpg", "is_closed": false, "url": "https://www.yelp.com/biz/amy-s-drive-thru-san-francisco?adjust_creative=-1a8ZLzJ76_AvFzvJVcndQ&utm_campaign=yelp_api_v3&utm_medium=api_v3_business_search&utm_source=-1a8ZLzJ76_AvFzvJVcndQ", "review_count": 24, "categories": [{"alias": "vegan", "title": "Vegan"}, {"alias": "vegetarian", "title": "Vegetarian"}], "rating": 4.0, "coordinates": {"latitude": 37.6222839355469, "longitude": -122.397659301758}, "transactions": [], "location": {"address1": "296 Domestic Terminals Arrivals Level", "address2": "Gate B6", "address3": "Terminal 1 - Space B.2.235", "city": "San Francisco", "zip_code": "94128", "country": "US", "state": "CA", "display_address": ["296 Domestic Terminals Arrivals Level", "Gate B6", "Terminal 1 - Space B.2.235", "San Francisco, CA 94128"]}, "phone": "", "display_phone": "", "distance": 1429.600018507655}, {"id": "YuNx9SYeRmDmIgfUoArr1w", "alias": "sushi-kei-millbrae", "name": "Sushi Kei", "image_url": "https://s3-media1.fl.yelpcdn.com/bphoto/6LjkE6D_Vo9ExbU-IN1Wtw/o.jpg", "is_closed": false, "url": "https://www.yelp.com/biz/sushi-kei-millbrae?adjust_creative=-1a8ZLzJ76_AvFzvJVcndQ&utm_campaign=yelp_api_v3&utm_medium=api_v3_business_search&utm_source=-1a8ZLzJ76_AvFzvJVcndQ", "review_count": 189, "categories": [{"alias": "sushi", "title": "Sushi Bars"}, {"alias": "japanese", "title": "Japanese"}], "rating": 3.5, "coordinates": {"latitude": 37.60163, "longitude": -122.39312}, "transactions": [], "price": "$$", "location": {"address1": "407 Broadway", "address2": "", "address3": "", "city": "Millbrae", "zip_code": "94030", "country": "US", "state": "CA", "display_address": ["407 Broadway", "Millbrae, CA 94030"]}, "phone": "+16506920100", "display_phone": "(650) 692-0100", "distance": 360.6998851910963}, {"id": "lYZ_UnhFXmRYn34uGFnFlA", "alias": "mcdonalds-millbrae", "name": "McDonald's", "image_url": "https://s3-media4.fl.yelpcdn.com/bphoto/0uLsSxcOjd5dQz9kUqoUdg/o.jpg", "is_closed": false, "url": "https://www.yelp.com/biz/mcdonalds-millbrae?adjust_creative=-1a8ZLzJ76_AvFzvJVcndQ&utm_campaign=yelp_api_v3&utm_medium=api_v3_business_search&utm_source=-1a8ZLzJ76_AvFzvJVcndQ", "review_count": 133, "categories": [{"alias": "burgers", "title": "Burgers"}, {"alias": "hotdogs", "title": "Fast Food"}, {"alias": "coffee", "title": "Coffee & Tea"}], "rating": 2.5, "coordinates": {"latitude": 37.6065481429491, "longitude": -122.398427155567}, "transactions": [], "price": "$", "location": {"address1": "1101 El Camino Real", "address2": "", "address3": null, "city": "Millbrae", "zip_code": "94030", "country": "US", "state": "CA", "display_address": ["1101 El Camino Real", "Millbrae, CA 94030"]}, "phone": "+16508733680", "display_phone": "(650) 873-3680", "distance": 375.2633204862443}, {"id": "HgCEqG68gnO78fz2hfP9_A", "alias": "the-famous-rib-shack-san-bruno-2", "name": "The Famous Rib Shack", "image_url": "https://s3-media3.fl.yelpcdn.com/bphoto/hjIMU-ORTUrYSHHIXVk7PA/o.jpg", "is_closed": false, "url": "https://www.yelp.com/biz/the-famous-rib-shack-san-bruno-2?adjust_creative=-1a8ZLzJ76_AvFzvJVcndQ&utm_campaign=yelp_api_v3&utm_medium=api_v3_business_search&utm_source=-1a8ZLzJ76_AvFzvJVcndQ", "review_count": 519, "categories": [{"alias": "tradamerican", "title": "American (Traditional)"}, {"alias": "bbq", "title": "Barbeque"}], "rating": 3.0, "coordinates": {"latitude": 37.61836, "longitude": -122.40965}, "transactions": ["pickup", "delivery"], "price": "$$", "location": {"address1": "223 El Camino Real", "address2": "", "address3": "", "city": "San Bruno", "zip_code": "94066", "country": "US", "state": "CA", "display_address": ["223 El Camino Real", "San Bruno, CA 94066"]}, "phone": "+16509522809", "display_phone": "(650) 952-2809", "distance": 2026.3465283604987}, {"id": "YER_XXjTs0Ct3BGep_0P4w", "alias": "mariscos-el-pariente-san-bruno", "name": "Mariscos El Pariente", "image_url": "https://s3-media1.fl.yelpcdn.com/bphoto/QaobFxE-hWEXC1YaHhPr6w/o.jpg", "is_closed": false, "url": "https://www.yelp.com/biz/mariscos-el-pariente-san-bruno?adjust_creative=-1a8ZLzJ76_AvFzvJVcndQ&utm_campaign=yelp_api_v3&utm_medium=api_v3_business_search&utm_source=-1a8ZLzJ76_AvFzvJVcndQ", "review_count": 73, "categories": [{"alias": "mexican", "title": "Mexican"}, {"alias": "foodtrucks", "title": "Food Trucks"}], "rating": 4.5, "coordinates": {"latitude": 37.6168624078381, "longitude": -122.407715264573}, "transactions": [], "price": "$", "location": {"address1": "160 El Camino Real", "address2": "", "address3": "", "city": "San Bruno", "zip_code": "94066", "country": "US", "state": "CA", "display_address": ["160 El Camino Real", "San Bruno, CA 94066"]}, "phone": "+14152335175", "display_phone": "(415) 233-5175", "distance": 1776.7247571395474}, {"id": "Qbq9F4Oi963eumF64FteTw", "alias": "little-caesars-pizza-millbrae", "name": "Little Caesars Pizza", "image_url": "https://s3-media1.fl.yelpcdn.com/bphoto/VzeDEO3SfQXpbFWwhLQRAw/o.jpg", "is_closed": false, "url": "https://www.yelp.com/biz/little-caesars-pizza-millbrae?adjust_creative=-1a8ZLzJ76_AvFzvJVcndQ&utm_campaign=yelp_api_v3&utm_medium=api_v3_business_search&utm_source=-1a8ZLzJ76_AvFzvJVcndQ", "review_count": 66, "categories": [{"alias": "pizza", "title": "Pizza"}], "rating": 3.5, "coordinates": {"latitude": 37.6032129, "longitude": -122.3960928}, "transactions": [], "price": "$", "location": {"address1": "660 Magnolia Ave", "address2": "", "address3": "", "city": "Millbrae", "zip_code": "94030", "country": "US", "state": "CA", "display_address": ["660 Magnolia Ave", "Millbrae, CA 94030"]}, "phone": "+16506927200", "display_phone": "(650) 692-7200", "distance": 118.73601954786658}, {"id": "MAVVQzqftDE87rKlEtwaag", "alias": "neals-coffee-shop-burlingame-3", "name": "Neal's Coffee Shop", "image_url": "https://s3-media3.fl.yelpcdn.com/bphoto/W7sBUdgUYDCbvYo3QvL2pg/o.jpg", "is_closed": false, "url": "https://www.yelp.com/biz/neals-coffee-shop-burlingame-3?adjust_creative=-1a8ZLzJ76_AvFzvJVcndQ&utm_campaign=yelp_api_v3&utm_medium=api_v3_business_search&utm_source=-1a8ZLzJ76_AvFzvJVcndQ", "review_count": 295, "categories": [{"alias": "breakfast_brunch", "title": "Breakfast & Brunch"}, {"alias": "tradamerican", "title": "American (Traditional)"}, {"alias": "diners", "title": "Diners"}], "rating": 4.0, "coordinates": {"latitude": 37.5951, "longitude": -122.38537}, "transactions": ["pickup"], "price": "$$", "location": {"address1": "1845 El Camino Real", "address2": "", "address3": "", "city": "Burlingame", "zip_code": "94010", "country": "US", "state": "CA", "display_address": ["1845 El Camino Real", "Burlingame, CA 94010"]}, "phone": "+16506924281", "display_phone": "(650) 692-4281", "distance": 1344.4461255172773}, {"id": "ywVGlwiFjYSf3XwALTvolA", "alias": "starbird-san-francisco-2", "name": "Starbird", "image_url": "https://s3-media3.fl.yelpcdn.com/bphoto/IVkqlbP4QZ6TU7i_dbZ7Qg/o.jpg", "is_closed": false, "url": "https://www.yelp.com/biz/starbird-san-francisco-2?adjust_creative=-1a8ZLzJ76_AvFzvJVcndQ&utm_campaign=yelp_api_v3&utm_medium=api_v3_business_search&utm_source=-1a8ZLzJ76_AvFzvJVcndQ", "review_count": 46, "categories": [{"alias": "hotdogs", "title": "Fast Food"}], "rating": 3.5, "coordinates": {"latitude": 37.6143073726908, "longitude": -122.385290376842}, "transactions": [], "price": "$$", "location": {"address1": "780 S Airport Blvd", "address2": "Terminal 1", "address3": null, "city": "San Francisco", "zip_code": "94128", "country": "US", "state": "CA", "display_address": ["780 S Airport Blvd", "Terminal 1", "San Francisco, CA 94128"]}, "phone": "", "display_phone": "", "distance": 1416.8044189956654}, {"id": "5Cq7KL3rAcEHuoRUHOqxYg", "alias": "the-american-bull-bar-and-grill-burlingame", "name": "The American Bull Bar & Grill", "image_url": "https://s3-media2.fl.yelpcdn.com/bphoto/2kKKksFaY6J2zUhhFbzUmQ/o.jpg", "is_closed": false, "url": "https://www.yelp.com/biz/the-american-bull-bar-and-grill-burlingame?adjust_creative=-1a8ZLzJ76_AvFzvJVcndQ&utm_campaign=yelp_api_v3&utm_medium=api_v3_business_search&utm_source=-1a8ZLzJ76_AvFzvJVcndQ", "review_count": 167, "categories": [{"alias": "sportsbars", "title": "Sports Bars"}, {"alias": "tradamerican", "title": "American (Traditional)"}], "rating": 3.5, "coordinates": {"latitude": 37.5942730893292, "longitude": -122.384732463746}, "transactions": [], "price": "$$", "location": {"address1": "1819 El Camino Real", "address2": "", "address3": "", "city": "Burlingame", "zip_code": "94010", "country": "US", "state": "CA", "display_address": ["1819 El Camino Real", "Burlingame, CA 94010"]}, "phone": "+16506524908", "display_phone": "(650) 652-4908", "distance": 1449.7441425254854}, {"id": "YEC_LyZroAClS6HNTHKlvQ", "alias": "kfc-millbrae-4", "name": "KFC", "image_url": "https://s3-media2.fl.yelpcdn.com/bphoto/o9JCvZriJxzCTQzUEdlUMQ/o.jpg", "is_closed": false, "url": "https://www.yelp.com/biz/kfc-millbrae-4?adjust_creative=-1a8ZLzJ76_AvFzvJVcndQ&utm_campaign=yelp_api_v3&utm_medium=api_v3_business_search&utm_source=-1a8ZLzJ76_AvFzvJVcndQ", "review_count": 67, "categories": [{"alias": "chicken_wings", "title": "Chicken Wings"}, {"alias": "hotdogs", "title": "Fast Food"}, {"alias": "chickenshop", "title": "Chicken Shop"}], "rating": 2.0, "coordinates": {"latitude": 37.606064, "longitude": -122.395798}, "transactions": ["pickup", "delivery"], "price": "$", "location": {"address1": "950 El Camino Real", "address2": "", "address3": "", "city": "Millbrae", "zip_code": "94030", "country": "US", "state": "CA", "display_address": ["950 El Camino Real", "Millbrae, CA 94030"]}, "phone": "+16505899860", "display_phone": "(650) 589-9860", "distance": 201.8775875228016}, {"id": "t8pRVsd4JStnU6PI5cqaSw", "alias": "full-house-burlingame", "name": "Full House", "image_url": "https://s3-media2.fl.yelpcdn.com/bphoto/B5pqYr5MYDvovgegH2Bahg/o.jpg", "is_closed": false, "url": "https://www.yelp.com/biz/full-house-burlingame?adjust_creative=-1a8ZLzJ76_AvFzvJVcndQ&utm_campaign=yelp_api_v3&utm_medium=api_v3_business_search&utm_source=-1a8ZLzJ76_AvFzvJVcndQ", "review_count": 116, "categories": [{"alias": "chinese", "title": "Chinese"}], "rating": 3.0, "coordinates": {"latitude": 37.594914869277, "longitude": -122.385983936431}, "transactions": ["pickup", "delivery"], "price": "$$", "location": {"address1": "1851 El Camino Real", "address2": "", "address3": "", "city": "Burlingame", "zip_code": "94010", "country": "US", "state": "CA", "display_address": ["1851 El Camino Real", "Burlingame, CA 94010"]}, "phone": "+16506974588", "display_phone": "(650) 697-4588", "distance": 1324.9749834564213}, {"id": "MUTLuVx7HERXjoze2lSj7g", "alias": "terrace-cafe-millbrae", "name": "Terrace Cafe", "image_url": "https://s3-media3.fl.yelpcdn.com/bphoto/RzumeiBJkdWnQ4qU6ZHjcw/o.jpg", "is_closed": false, "url": "https://www.yelp.com/biz/terrace-cafe-millbrae?adjust_creative=-1a8ZLzJ76_AvFzvJVcndQ&utm_campaign=yelp_api_v3&utm_medium=api_v3_business_search&utm_source=-1a8ZLzJ76_AvFzvJVcndQ", "review_count": 59, "categories": [{"alias": "breakfast_brunch", "title": "Breakfast & Brunch"}, {"alias": "tradamerican", "title": "American (Traditional)"}, {"alias": "cafes", "title": "Cafes"}], "rating": 3.5, "coordinates": {"latitude": 37.6081314086914, "longitude": -122.396995544434}, "transactions": [], "price": "$$", "location": {"address1": "1100 El Camino Real", "address2": "", "address3": "", "city": "Millbrae", "zip_code": "94030", "country": "US", "state": "CA", "display_address": ["1100 El Camino Real", "Millbrae, CA 94030"]}, "phone": "+16507425588", "display_phone": "(650) 742-5588", "distance": 447.8258227188135}, {"id": "igHn3D1GP4jP_1nFIjomgw", "alias": "koi-palace-express-san-francisco-3", "name": "Koi Palace Express", "image_url": "https://s3-media3.fl.yelpcdn.com/bphoto/H_BpnFWwpzv30i-UHffvtA/o.jpg", "is_closed": false, "url": "https://www.yelp.com/biz/koi-palace-express-san-francisco-3?adjust_creative=-1a8ZLzJ76_AvFzvJVcndQ&utm_campaign=yelp_api_v3&utm_medium=api_v3_business_search&utm_source=-1a8ZLzJ76_AvFzvJVcndQ", "review_count": 39, "categories": [{"alias": "chinese", "title": "Chinese"}], "rating": 3.0, "coordinates": {"latitude": 37.6162139791143, "longitude": -122.389770066748}, "transactions": [], "price": "$$", "location": {"address1": "Sfo International Airport", "address2": "International Terminal G", "address3": null, "city": "San Francisco", "zip_code": "94128", "country": "US", "state": "CA", "display_address": ["Sfo International Airport", "International Terminal G", "San Francisco, CA 94128"]}, "phone": "", "display_phone": "", "distance": 1409.7752082023578}, {"id": "adOjWK7KZjXnGcT7Dn61mA", "alias": "tapas-and-taps-san-francisco", "name": "Tapas & Taps", "image_url": "https://s3-media2.fl.yelpcdn.com/bphoto/seDI_zJKUBWQlK57SE-tjQ/o.jpg", "is_closed": false, "url": "https://www.yelp.com/biz/tapas-and-taps-san-francisco?adjust_creative=-1a8ZLzJ76_AvFzvJVcndQ&utm_campaign=yelp_api_v3&utm_medium=api_v3_business_search&utm_source=-1a8ZLzJ76_AvFzvJVcndQ", "review_count": 28, "categories": [{"alias": "cocktailbars", "title": "Cocktail Bars"}, {"alias": "tapas", "title": "Tapas Bars"}], "rating": 4.0, "coordinates": {"latitude": 37.6173103161888, "longitude": -122.390840004853}, "transactions": [], "price": "$$", "location": {"address1": "780 S Airport Blvd", "address2": "", "address3": "Terminal G", "city": "San Francisco", "zip_code": "94128", "country": "US", "state": "CA", "display_address": ["780 S Airport Blvd", "Terminal G", "San Francisco, CA 94128"]}, "phone": "+16508216940", "display_phone": "(650) 821-6940", "distance": 1497.7334232603878}, {"id": "nfNbBaIFhBIcbWPXP7XyYg", "alias": "tyler-florence-rotisserie-san-francisco", "name": "Tyler Florence Rotisserie", "image_url": "https://s3-media2.fl.yelpcdn.com/bphoto/8x1HtLP3Pb8PNbp3CjnfxA/o.jpg", "is_closed": false, "url": "https://www.yelp.com/biz/tyler-florence-rotisserie-san-francisco?adjust_creative=-1a8ZLzJ76_AvFzvJVcndQ&utm_campaign=yelp_api_v3&utm_medium=api_v3_business_search&utm_source=-1a8ZLzJ76_AvFzvJVcndQ", "review_count": 100, "categories": [{"alias": "newamerican", "title": "American (New)"}], "rating": 4.0, "coordinates": {"latitude": 37.617180412602, "longitude": -122.382542788982}, "transactions": [], "price": "$$", "location": {"address1": "780 S Airport Blvd", "address2": "", "address3": "Terminal 2", "city": "San Francisco", "zip_code": "94128", "country": "US", "state": "CA", "display_address": ["780 S Airport Blvd", "Terminal 2", "San Francisco, CA 94128"]}, "phone": "", "display_phone": "", "distance": 1817.5282726986325}, {"id": "cnTLV9OnIAhzwd8Hysr_PA", "alias": "bun-mee-san-francisco-10", "name": "Bun Mee", "image_url": "https://s3-media2.fl.yelpcdn.com/bphoto/UNx2T71Ibx_SPXUzNfe58Q/o.jpg", "is_closed": false, "url": "https://www.yelp.com/biz/bun-mee-san-francisco-10?adjust_creative=-1a8ZLzJ76_AvFzvJVcndQ&utm_campaign=yelp_api_v3&utm_medium=api_v3_business_search&utm_source=-1a8ZLzJ76_AvFzvJVcndQ", "review_count": 19, "categories": [{"alias": "asianfusion", "title": "Asian Fusion"}, {"alias": "sandwiches", "title": "Sandwiches"}, {"alias": "vietnamese", "title": "Vietnamese"}], "rating": 3.5, "coordinates": {"latitude": 37.6119932970895, "longitude": -122.385118044913}, "transactions": [], "price": "$$", "location": {"address1": "Terminal 1", "address2": "", "address3": null, "city": "San Francisco", "zip_code": "94128", "country": "US", "state": "CA", "display_address": ["Terminal 1", "San Francisco, CA 94128"]}, "phone": "", "display_phone": "", "distance": 1236.0643495783477}, {"id": "nv9EbFdlaSQDRXVh55emxA", "alias": "chipotle-mexican-grill-millbrae", "name": "Chipotle Mexican Grill", "image_url": "https://s3-media2.fl.yelpcdn.com/bphoto/WYNpPRELfoeCgnxhS0vxEw/o.jpg", "is_closed": false, "url": "https://www.yelp.com/biz/chipotle-mexican-grill-millbrae?adjust_creative=-1a8ZLzJ76_AvFzvJVcndQ&utm_campaign=yelp_api_v3&utm_medium=api_v3_business_search&utm_source=-1a8ZLzJ76_AvFzvJVcndQ", "review_count": 347, "categories": [{"alias": "hotdogs", "title": "Fast Food"}, {"alias": "mexican", "title": "Mexican"}], "rating": 2.5, "coordinates": {"latitude": 37.5966428748177, "longitude": -122.386168877892}, "transactions": [], "price": "$", "location": {"address1": "135 S El Camino Real", "address2": "", "address3": "", "city": "Millbrae", "zip_code": "94030", "country": "US", "state": "CA", "display_address": ["135 S El Camino Real", "Millbrae, CA 94030"]}, "phone": "+16502599301", "display_phone": "(650) 259-9301", "distance": 1168.3464627834705}, {"id": "OUe3dR_Bn8Yv5_Jeg0mpEg", "alias": "el-ranchito-taco-truck-burlingame", "name": "El Ranchito Taco Truck", "image_url": "https://s3-media1.fl.yelpcdn.com/bphoto/uFZDQkh1l80HR4Mh7G2-9w/o.jpg", "is_closed": false, "url": "https://www.yelp.com/biz/el-ranchito-taco-truck-burlingame?adjust_creative=-1a8ZLzJ76_AvFzvJVcndQ&utm_campaign=yelp_api_v3&utm_medium=api_v3_business_search&utm_source=-1a8ZLzJ76_AvFzvJVcndQ", "review_count": 18, "categories": [{"alias": "foodtrucks", "title": "Food Trucks"}, {"alias": "tacos", "title": "Tacos"}], "rating": 4.0, "coordinates": {"latitude": 37.596576, "longitude": -122.384749}, "transactions": [], "price": "$", "location": {"address1": "1870 el camino real", "address2": "", "address3": "", "city": "Burlingame", "zip_code": "94066", "country": "US", "state": "CA", "display_address": ["1870 el camino real", "Burlingame, CA 94066"]}, "phone": "", "display_phone": "", "distance": 1262.3450690407715}, {"id": "49c1Uq32FSlCxoywoMyczw", "alias": "peters-cafe-millbrae-2", "name": "Peter's Cafe", "image_url": "https://s3-media2.fl.yelpcdn.com/bphoto/pneMZserpQh9o3v7yNPZ0g/o.jpg", "is_closed": false, "url": "https://www.yelp.com/biz/peters-cafe-millbrae-2?adjust_creative=-1a8ZLzJ76_AvFzvJVcndQ&utm_campaign=yelp_api_v3&utm_medium=api_v3_business_search&utm_source=-1a8ZLzJ76_AvFzvJVcndQ", "review_count": 478, "categories": [{"alias": "tradamerican", "title": "American (Traditional)"}, {"alias": "breakfast_brunch", "title": "Breakfast & Brunch"}, {"alias": "cafes", "title": "Cafes"}], "rating": 3.5, "coordinates": {"latitude": 37.598903, "longitude": -122.387252}, "transactions": [], "price": "$$", "location": {"address1": "10 El Camino Real", "address2": "", "address3": "", "city": "Millbrae", "zip_code": "94030", "country": "US", "state": "CA", "display_address": ["10 El Camino Real", "Millbrae, CA 94030"]}, "phone": "+16506972434", "display_phone": "(650) 697-2434", "distance": 925.5242270305586}, {"id": "W1-BMfEbxScsgbdjcjCXLQ", "alias": "mumfresh-vietnamese-eatery-san-francisco-2", "name": "Mumfresh Vietnamese Eatery", "image_url": "https://s3-media3.fl.yelpcdn.com/bphoto/EbOAfknUX9J9LdpLhr5axw/o.jpg", "is_closed": false, "url": "https://www.yelp.com/biz/mumfresh-vietnamese-eatery-san-francisco-2?adjust_creative=-1a8ZLzJ76_AvFzvJVcndQ&utm_campaign=yelp_api_v3&utm_medium=api_v3_business_search&utm_source=-1a8ZLzJ76_AvFzvJVcndQ", "review_count": 57, "categories": [{"alias": "vietnamese", "title": "Vietnamese"}], "rating": 3.0, "coordinates": {"latitude": 37.618051, "longitude": -122.392072}, "transactions": [], "price": "$$", "location": {"address1": "Sfo International Airport", "address2": "Boarding Area G", "address3": null, "city": "San Francisco", "zip_code": "94128", "country": "US", "state": "CA", "display_address": ["Sfo International Airport", "Boarding Area G", "San Francisco, CA 94128"]}, "phone": "", "display_phone": "", "distance": 1554.2697083795133}, {"id": "E6AI9C6ysgdEpNvzsCRQuA", "alias": "panera-bread-millbrae", "name": "Panera Bread", "image_url": "https://s3-media4.fl.yelpcdn.com/bphoto/fG_6XyMRticvC9T2RGKcSA/o.jpg", "is_closed": false, "url": "https://www.yelp.com/biz/panera-bread-millbrae?adjust_creative=-1a8ZLzJ76_AvFzvJVcndQ&utm_campaign=yelp_api_v3&utm_medium=api_v3_business_search&utm_source=-1a8ZLzJ76_AvFzvJVcndQ", "review_count": 433, "categories": [{"alias": "sandwiches", "title": "Sandwiches"}, {"alias": "salad", "title": "Salad"}, {"alias": "soup", "title": "Soup"}], "rating": 3.5, "coordinates": {"latitude": 37.6005643, "longitude": -122.3817951}, "transactions": [], "price": "$$", "location": {"address1": "320 Adrian Rd", "address2": null, "address3": "", "city": "Millbrae", "zip_code": "94030", "country": "US", "state": "CA", "display_address": ["320 Adrian Rd", "Millbrae, CA 94030"]}, "phone": "+16506923100", "display_phone": "(650) 692-3100", "distance": 1255.917907140674}, {"id": "PhuQm4UgyTIzSuea58ja4A", "alias": "camino-corner-restaurant-san-bruno", "name": "Camino Corner Restaurant", "image_url": "https://s3-media3.fl.yelpcdn.com/bphoto/5kII1OG5F-JfKEt2LgsZvQ/o.jpg", "is_closed": false, "url": "https://www.yelp.com/biz/camino-corner-restaurant-san-bruno?adjust_creative=-1a8ZLzJ76_AvFzvJVcndQ&utm_campaign=yelp_api_v3&utm_medium=api_v3_business_search&utm_source=-1a8ZLzJ76_AvFzvJVcndQ", "review_count": 262, "categories": [{"alias": "breakfast_brunch", "title": "Breakfast & Brunch"}], "rating": 4.0, "coordinates": {"latitude": 37.6160341, "longitude": -122.4068078}, "transactions": [], "price": "$$", "location": {"address1": "110 El Camino Real", "address2": "", "address3": "", "city": "San Bruno", "zip_code": "94066", "country": "US", "state": "CA", "display_address": ["110 El Camino Real", "San Bruno, CA 94066"]}, "phone": "+16505838782", "display_phone": "(650) 583-8782", "distance": 1652.7453256140266}, {"id": "KON4QbSBjennr3b-l-pLdA", "alias": "lim\u00f3n-rotisserie-san-francisco-12", "name": "Lim\u00f3n Rotisserie", "image_url": "https://s3-media1.fl.yelpcdn.com/bphoto/bQszlOf1oLO66vvhk9jKMQ/o.jpg", "is_closed": false, "url": "https://www.yelp.com/biz/lim%C3%B3n-rotisserie-san-francisco-12?adjust_creative=-1a8ZLzJ76_AvFzvJVcndQ&utm_campaign=yelp_api_v3&utm_medium=api_v3_business_search&utm_source=-1a8ZLzJ76_AvFzvJVcndQ", "review_count": 52, "categories": [{"alias": "peruvian", "title": "Peruvian"}], "rating": 3.0, "coordinates": {"latitude": 37.6273155212402, "longitude": -122.401092529297}, "transactions": [], "price": "$$", "location": {"address1": "10 Domestic Terminals Departures Level", "address2": "", "address3": null, "city": "San Francisco", "zip_code": "94128", "country": "US", "state": "CA", "display_address": ["10 Domestic Terminals Departures Level", "San Francisco, CA 94128"]}, "phone": "", "display_phone": "", "distance": 1654.593919376044}, {"id": "oRqOqrDb1wnUH---ijXFjA", "alias": "tartine-sfo-san-francisco-2", "name": "Tartine - SFO", "image_url": "https://s3-media2.fl.yelpcdn.com/bphoto/KrsT9A2ZJaYc4uDa7Bi9aw/o.jpg", "is_closed": false, "url": "https://www.yelp.com/biz/tartine-sfo-san-francisco-2?adjust_creative=-1a8ZLzJ76_AvFzvJVcndQ&utm_campaign=yelp_api_v3&utm_medium=api_v3_business_search&utm_source=-1a8ZLzJ76_AvFzvJVcndQ", "review_count": 3, "categories": [{"alias": "bakeries", "title": "Bakeries"}, {"alias": "sandwiches", "title": "Sandwiches"}, {"alias": "salad", "title": "Salad"}], "rating": 3.5, "coordinates": {"latitude": 37.6128403557853, "longitude": -122.389348595154}, "transactions": [], "location": {"address1": "780 S Airport Blvd", "address2": "", "address3": "The Manufactory Food Hall", "city": "San Francisco", "zip_code": "94128", "country": "US", "state": "CA", "display_address": ["780 S Airport Blvd", "The Manufactory Food Hall", "San Francisco, CA 94128"]}, "phone": "", "display_phone": "", "distance": 1082.408948409443}, {"id": "RjbHoQL2-rEzFIn6SskskA", "alias": "round-table-pizza-millbrae", "name": "Round Table Pizza", "image_url": "https://s3-media4.fl.yelpcdn.com/bphoto/wMEC3c4CQMQSAocoDH-Vvg/o.jpg", "is_closed": false, "url": "https://www.yelp.com/biz/round-table-pizza-millbrae?adjust_creative=-1a8ZLzJ76_AvFzvJVcndQ&utm_campaign=yelp_api_v3&utm_medium=api_v3_business_search&utm_source=-1a8ZLzJ76_AvFzvJVcndQ", "review_count": 77, "categories": [{"alias": "pizza", "title": "Pizza"}], "rating": 3.0, "coordinates": {"latitude": 37.60195, "longitude": -122.39268}, "transactions": ["pickup", "delivery"], "price": "$$", "location": {"address1": "414 Broadway", "address2": "", "address3": "", "city": "Millbrae", "zip_code": "94030", "country": "US", "state": "CA", "display_address": ["414 Broadway", "Millbrae, CA 94030"]}, "phone": "+16506975520", "display_phone": "(650) 697-5520", "distance": 345.0064866225905}, {"id": "iJHLD6ZrRCUlc-BV4hB9RA", "alias": "samovar-tea-lounge-san-francisco-10", "name": "Samovar Tea Lounge", "image_url": "https://s3-media1.fl.yelpcdn.com/bphoto/ZTtk8623Zuq8PL5bp3ga3w/o.jpg", "is_closed": false, "url": "https://www.yelp.com/biz/samovar-tea-lounge-san-francisco-10?adjust_creative=-1a8ZLzJ76_AvFzvJVcndQ&utm_campaign=yelp_api_v3&utm_medium=api_v3_business_search&utm_source=-1a8ZLzJ76_AvFzvJVcndQ", "review_count": 45, "categories": [{"alias": "tea", "title": "Tea Rooms"}, {"alias": "tradamerican", "title": "American (Traditional)"}], "rating": 3.5, "coordinates": {"latitude": 37.615034, "longitude": -122.390015}, "transactions": [], "price": "$$", "location": {"address1": "780 S Airport Blvd", "address2": null, "address3": "", "city": "San Francisco", "zip_code": "94128", "country": "US", "state": "CA", "display_address": ["780 S Airport Blvd", "San Francisco, CA 94128"]}, "phone": "+16508218949", "display_phone": "(650) 821-8949", "distance": 1279.3472590475512}, {"id": "M-6PPs0DRdK-JXYUpSJAzQ", "alias": "taco-bell-millbrae", "name": "Taco Bell", "image_url": "https://s3-media3.fl.yelpcdn.com/bphoto/jjrL9SKY9ycZDA8m1fcxtg/o.jpg", "is_closed": false, "url": "https://www.yelp.com/biz/taco-bell-millbrae?adjust_creative=-1a8ZLzJ76_AvFzvJVcndQ&utm_campaign=yelp_api_v3&utm_medium=api_v3_business_search&utm_source=-1a8ZLzJ76_AvFzvJVcndQ", "review_count": 75, "categories": [{"alias": "hotdogs", "title": "Fast Food"}, {"alias": "tacos", "title": "Tacos"}], "rating": 2.0, "coordinates": {"latitude": 37.601199, "longitude": -122.389942}, "transactions": ["delivery"], "price": "$", "location": {"address1": "210 El Camino Real", "address2": "", "address3": "", "city": "Millbrae", "zip_code": "94030", "country": "US", "state": "CA", "display_address": ["210 El Camino Real", "Millbrae, CA 94030"]}, "phone": "+16506921542", "display_phone": "(650) 692-1542", "distance": 580.9790837739373}, {"id": "M5CT8U_ya4-HsxAFlLxNxg", "alias": "tomokazu-japanese-cuisine-south-san-francisco", "name": "Tomokazu Japanese Cuisine", "image_url": "https://s3-media4.fl.yelpcdn.com/bphoto/fQFafWcW154g0etbHkMPsQ/o.jpg", "is_closed": false, "url": "https://www.yelp.com/biz/tomokazu-japanese-cuisine-south-san-francisco?adjust_creative=-1a8ZLzJ76_AvFzvJVcndQ&utm_campaign=yelp_api_v3&utm_medium=api_v3_business_search&utm_source=-1a8ZLzJ76_AvFzvJVcndQ", "review_count": 462, "categories": [{"alias": "japanese", "title": "Japanese"}], "rating": 2.5, "coordinates": {"latitude": 37.617777402639, "longitude": -122.391757653802}, "transactions": [], "price": "$$", "location": {"address1": "780 S Airport Blvd", "address2": "", "address3": "International Terminal G", "city": "South San Francisco", "zip_code": "94128", "country": "US", "state": "CA", "display_address": ["780 S Airport Blvd", "International Terminal G", "South San Francisco, CA 94128"]}, "phone": "+16508218899", "display_phone": "(650) 821-8899", "distance": 1529.6786020927234}, {"id": "UJu4mTOYmSH1NaBFMjr7IA", "alias": "a-and-w-millbrae-2", "name": "A&W", "image_url": "https://s3-media3.fl.yelpcdn.com/bphoto/ukFXCkEj68wQnXacLiBWlg/o.jpg", "is_closed": false, "url": "https://www.yelp.com/biz/a-and-w-millbrae-2?adjust_creative=-1a8ZLzJ76_AvFzvJVcndQ&utm_campaign=yelp_api_v3&utm_medium=api_v3_business_search&utm_source=-1a8ZLzJ76_AvFzvJVcndQ", "review_count": 59, "categories": [{"alias": "hotdogs", "title": "Fast Food"}, {"alias": "burgers", "title": "Burgers"}, {"alias": "hotdog", "title": "Hot Dogs"}], "rating": 2.0, "coordinates": {"latitude": 37.6058491, "longitude": -122.3962883}, "transactions": [], "price": "$", "location": {"address1": "950 El Camino Real", "address2": "", "address3": "", "city": "Millbrae", "zip_code": "94030", "country": "US", "state": "CA", "display_address": ["950 El Camino Real", "Millbrae, CA 94030"]}, "phone": "+16505899860", "display_phone": "(650) 589-9860", "distance": 201.9267663711796}, {"id": "dDfwSYtN0wbaXHN0gTahpw", "alias": "b-b-q-king-san-bruno", "name": "B.B.Q king", "image_url": "https://s3-media2.fl.yelpcdn.com/bphoto/iv3nyA21Vs2YLTimUvPzXQ/o.jpg", "is_closed": false, "url": "https://www.yelp.com/biz/b-b-q-king-san-bruno?adjust_creative=-1a8ZLzJ76_AvFzvJVcndQ&utm_campaign=yelp_api_v3&utm_medium=api_v3_business_search&utm_source=-1a8ZLzJ76_AvFzvJVcndQ", "review_count": 99, "categories": [{"alias": "bbq", "title": "Barbeque"}, {"alias": "chinese", "title": "Chinese"}], "rating": 2.5, "coordinates": {"latitude": 37.6173263344788, "longitude": -122.408736668601}, "transactions": ["pickup", "delivery"], "price": "$$", "location": {"address1": "189 El Camino Real", "address2": "", "address3": "", "city": "San Bruno", "zip_code": "94066", "country": "US", "state": "CA", "display_address": ["189 El Camino Real", "San Bruno, CA 94066"]}, "phone": "+16508880058", "display_phone": "(650) 888-0058", "distance": 1873.2872901724747}, {"id": "B8kDgiSOoabBePS-Xi4uVw", "alias": "subway-restaurants-millbrae", "name": "Subway Restaurants", "image_url": "https://s3-media3.fl.yelpcdn.com/bphoto/MSxzj4e1MnUPK5uHp47s3g/o.jpg", "is_closed": false, "url": "https://www.yelp.com/biz/subway-restaurants-millbrae?adjust_creative=-1a8ZLzJ76_AvFzvJVcndQ&utm_campaign=yelp_api_v3&utm_medium=api_v3_business_search&utm_source=-1a8ZLzJ76_AvFzvJVcndQ", "review_count": 51, "categories": [{"alias": "sandwiches", "title": "Sandwiches"}], "rating": 2.5, "coordinates": {"latitude": 37.60470117, "longitude": -122.39727783}, "transactions": [], "price": "$", "location": {"address1": "979 Broadway Ave", "address2": "", "address3": "", "city": "Millbrae", "zip_code": "94030", "country": "US", "state": "CA", "display_address": ["979 Broadway Ave", "Millbrae, CA 94030"]}, "phone": "+16506529315", "display_phone": "(650) 652-9315", "distance": 182.60552009241982}, {"id": "o1dsJJrvNoT1B02SQ65U3g", "alias": "celias-mexican-restaurant-san-bruno-san-bruno", "name": "Celia's Mexican Restaurant - San Bruno", "image_url": "https://s3-media3.fl.yelpcdn.com/bphoto/R7-JU7e70h4JaXPKutRdzQ/o.jpg", "is_closed": false, "url": "https://www.yelp.com/biz/celias-mexican-restaurant-san-bruno-san-bruno?adjust_creative=-1a8ZLzJ76_AvFzvJVcndQ&utm_campaign=yelp_api_v3&utm_medium=api_v3_business_search&utm_source=-1a8ZLzJ76_AvFzvJVcndQ", "review_count": 309, "categories": [{"alias": "mexican", "title": "Mexican"}, {"alias": "sportsbars", "title": "Sports Bars"}], "rating": 3.5, "coordinates": {"latitude": 37.617738, "longitude": -122.409107}, "transactions": [], "price": "$$", "location": {"address1": "201 El Camino Real", "address2": "", "address3": "", "city": "San Bruno", "zip_code": "94066", "country": "US", "state": "CA", "display_address": ["201 El Camino Real", "San Bruno, CA 94066"]}, "phone": "+16508778245", "display_phone": "(650) 877-8245", "distance": 1929.3687346840743}, {"id": "3Ws_ll8gy1xRO2AObG8jOA", "alias": "papa-murphys-millbrae-3", "name": "Papa Murphy's", "image_url": "https://s3-media2.fl.yelpcdn.com/bphoto/xHk4ydZUduSmeZKeK_sqCg/o.jpg", "is_closed": false, "url": "https://www.yelp.com/biz/papa-murphys-millbrae-3?adjust_creative=-1a8ZLzJ76_AvFzvJVcndQ&utm_campaign=yelp_api_v3&utm_medium=api_v3_business_search&utm_source=-1a8ZLzJ76_AvFzvJVcndQ", "review_count": 51, "categories": [{"alias": "pizza", "title": "Pizza"}], "rating": 4.5, "coordinates": {"latitude": 37.609912, "longitude": -122.40168}, "transactions": ["pickup", "delivery"], "price": "$$", "location": {"address1": "1395 El Camino Real", "address2": "Unit B", "address3": "", "city": "Millbrae", "zip_code": "94030", "country": "US", "state": "CA", "display_address": ["1395 El Camino Real", "Unit B", "Millbrae, CA 94030"]}, "phone": "+16508270200", "display_phone": "(650) 827-0200", "distance": 842.7929541264407}, {"id": "wEr8PfiiFGH5nKK1hIhqjA", "alias": "vino-volo-san-francisco-2", "name": "Vino Volo", "image_url": "https://s3-media4.fl.yelpcdn.com/bphoto/uoZraH1Kc90ZHcuiprJIGA/o.jpg", "is_closed": false, "url": "https://www.yelp.com/biz/vino-volo-san-francisco-2?adjust_creative=-1a8ZLzJ76_AvFzvJVcndQ&utm_campaign=yelp_api_v3&utm_medium=api_v3_business_search&utm_source=-1a8ZLzJ76_AvFzvJVcndQ", "review_count": 129, "categories": [{"alias": "wine_bars", "title": "Wine Bars"}, {"alias": "tapasmallplates", "title": "Tapas/Small Plates"}], "rating": 4.0, "coordinates": {"latitude": 37.6172335274731, "longitude": -122.382395482063}, "transactions": [], "price": "$$", "location": {"address1": "San Francisco International Airport", "address2": "", "address3": "Terminal 2", "city": "San Francisco", "zip_code": "94128", "country": "US", "state": "CA", "display_address": ["San Francisco International Airport", "Terminal 2", "San Francisco, CA 94128"]}, "phone": "+16508219292", "display_phone": "(650) 821-9292", "distance": 1830.1834801838856}, {"id": "5O-Sy2Za2UI2irVDqgvNcQ", "alias": "north-south-seafood-restaurant-san-bruno", "name": "North South Seafood Restaurant", "image_url": "https://s3-media1.fl.yelpcdn.com/bphoto/oLpdZYdkegmGL_zRahJiYQ/o.jpg", "is_closed": false, "url": "https://www.yelp.com/biz/north-south-seafood-restaurant-san-bruno?adjust_creative=-1a8ZLzJ76_AvFzvJVcndQ&utm_campaign=yelp_api_v3&utm_medium=api_v3_business_search&utm_source=-1a8ZLzJ76_AvFzvJVcndQ", "review_count": 36, "categories": [{"alias": "chinese", "title": "Chinese"}, {"alias": "seafood", "title": "Seafood"}], "rating": 3.5, "coordinates": {"latitude": 37.6165771484375, "longitude": -122.407157897949}, "transactions": [], "price": "$$", "location": {"address1": "130 El Camino Real", "address2": "", "address3": "", "city": "San Bruno", "zip_code": "94066", "country": "US", "state": "CA", "display_address": ["130 El Camino Real", "San Bruno, CA 94066"]}, "phone": "+16505893088", "display_phone": "(650) 589-3088", "distance": 1727.2897697837725}, {"id": "ROyRGowBvQ-nOLVA9xdjfA", "alias": "happy-chef-restaurant-burlingame", "name": "Happy Chef Restaurant", "image_url": "https://s3-media3.fl.yelpcdn.com/bphoto/o03Gs8xw1pa_BKvMMqUPZQ/o.jpg", "is_closed": false, "url": "https://www.yelp.com/biz/happy-chef-restaurant-burlingame?adjust_creative=-1a8ZLzJ76_AvFzvJVcndQ&utm_campaign=yelp_api_v3&utm_medium=api_v3_business_search&utm_source=-1a8ZLzJ76_AvFzvJVcndQ", "review_count": 96, "categories": [{"alias": "chinese", "title": "Chinese"}], "rating": 3.5, "coordinates": {"latitude": 37.5939930975437, "longitude": -122.383859083056}, "transactions": ["pickup", "delivery"], "price": "$", "location": {"address1": "1520 Trousdale Dr", "address2": null, "address3": "", "city": "Burlingame", "zip_code": "94010", "country": "US", "state": "CA", "display_address": ["1520 Trousdale Dr", "Burlingame, CA 94010"]}, "phone": "+16506976449", "display_phone": "(650) 697-6449", "distance": 1512.258523734604}, {"id": "yP_8j38c1rudiSRZdeX8Rg", "alias": "the-little-chihuahua-san-francisco-5", "name": "The Little Chihuahua", "image_url": "https://s3-media3.fl.yelpcdn.com/bphoto/-or65RKPJjWu86njgAe0hg/o.jpg", "is_closed": false, "url": "https://www.yelp.com/biz/the-little-chihuahua-san-francisco-5?adjust_creative=-1a8ZLzJ76_AvFzvJVcndQ&utm_campaign=yelp_api_v3&utm_medium=api_v3_business_search&utm_source=-1a8ZLzJ76_AvFzvJVcndQ", "review_count": 23, "categories": [{"alias": "breakfast_brunch", "title": "Breakfast & Brunch"}, {"alias": "mexican", "title": "Mexican"}], "rating": 2.5, "coordinates": {"latitude": 37.6132825372946, "longitude": -122.38553608613}, "transactions": [], "location": {"address1": "135 Domestic Terminals Departures Level", "address2": "", "address3": null, "city": "San Francisco", "zip_code": "94128", "country": "US", "state": "CA", "display_address": ["135 Domestic Terminals Departures Level", "San Francisco, CA 94128"]}, "phone": "", "display_phone": "", "distance": 1315.0099025721045}, {"id": "CPsBAUzxXoJOdykCm-DTsA", "alias": "black-point-cafe-san-francisco-4", "name": "Black Point Cafe", "image_url": "https://s3-media4.fl.yelpcdn.com/bphoto/-lcNltlg_T2p3qfCTJkGsg/o.jpg", "is_closed": false, "url": "https://www.yelp.com/biz/black-point-cafe-san-francisco-4?adjust_creative=-1a8ZLzJ76_AvFzvJVcndQ&utm_campaign=yelp_api_v3&utm_medium=api_v3_business_search&utm_source=-1a8ZLzJ76_AvFzvJVcndQ", "review_count": 14, "categories": [{"alias": "cafes", "title": "Cafes"}], "rating": 2.0, "coordinates": {"latitude": 37.6139454493463, "longitude": -122.388537183511}, "transactions": [], "location": {"address1": "International Terminal at the SFO", "address2": "Terminal A", "address3": null, "city": "San Francisco", "zip_code": "94128", "country": "US", "state": "CA", "display_address": ["International Terminal at the SFO", "Terminal A", "San Francisco, CA 94128"]}, "phone": "", "display_phone": "", "distance": 1224.5207615136808}, {"id": "MTpSXMIQBEny6EE6045o5g", "alias": "wakaba-sushi-and-noodle-san-francisco", "name": "Wakaba Sushi & Noodle", "image_url": "https://s3-media3.fl.yelpcdn.com/bphoto/v4r9FrCmetJESQYBznjrkg/o.jpg", "is_closed": false, "url": "https://www.yelp.com/biz/wakaba-sushi-and-noodle-san-francisco?adjust_creative=-1a8ZLzJ76_AvFzvJVcndQ&utm_campaign=yelp_api_v3&utm_medium=api_v3_business_search&utm_source=-1a8ZLzJ76_AvFzvJVcndQ", "review_count": 311, "categories": [{"alias": "sushi", "title": "Sushi Bars"}, {"alias": "noodles", "title": "Noodles"}], "rating": 3.0, "coordinates": {"latitude": 37.6177009367031, "longitude": -122.38135188818}, "transactions": [], "price": "$$", "location": {"address1": "780 S Airport Blvd", "address2": "", "address3": "San Francisco International Airport, Terminal 2", "city": "San Francisco", "zip_code": "94128", "country": "US", "state": "CA", "display_address": ["780 S Airport Blvd", "San Francisco International Airport, Terminal 2", "San Francisco, CA 94128"]}, "phone": "+16508210818", "display_phone": "(650) 821-0818", "distance": 1928.2988917754299}, {"id": "vZ8m1AUb7P8oHQ8bnF3C2g", "alias": "il-fornaio-caffe-del-mundo-oakland", "name": "Il Fornaio, Caffe Del Mundo", "image_url": "https://s3-media3.fl.yelpcdn.com/bphoto/An1C2ucaNbaPSWmm4MgK3Q/o.jpg", "is_closed": false, "url": "https://www.yelp.com/biz/il-fornaio-caffe-del-mundo-oakland?adjust_creative=-1a8ZLzJ76_AvFzvJVcndQ&utm_campaign=yelp_api_v3&utm_medium=api_v3_business_search&utm_source=-1a8ZLzJ76_AvFzvJVcndQ", "review_count": 8, "categories": [{"alias": "restaurants", "title": "Restaurants"}], "rating": 2.0, "coordinates": {"latitude": 37.6117941329237, "longitude": -122.389697880305}, "transactions": [], "price": "$", "location": {"address1": "Terminal A11", "address2": "", "address3": "", "city": "Oakland", "zip_code": "94607", "country": "US", "state": "CA", "display_address": ["Terminal A11", "Oakland, CA 94607"]}, "phone": "", "display_phone": "", "distance": 966.0213759053914}, {"id": "of14qP0uTQlkC9wVsfIw9g", "alias": "joe-and-the-juice-san-francisco-2", "name": "JOE & THE JUICE", "image_url": "https://s3-media3.fl.yelpcdn.com/bphoto/Rg0dj8CyFhbKnLLPT09VVw/o.jpg", "is_closed": false, "url": "https://www.yelp.com/biz/joe-and-the-juice-san-francisco-2?adjust_creative=-1a8ZLzJ76_AvFzvJVcndQ&utm_campaign=yelp_api_v3&utm_medium=api_v3_business_search&utm_source=-1a8ZLzJ76_AvFzvJVcndQ", "review_count": 79, "categories": [{"alias": "juicebars", "title": "Juice Bars & Smoothies"}, {"alias": "coffee", "title": "Coffee & Tea"}, {"alias": "cafes", "title": "Cafes"}], "rating": 3.5, "coordinates": {"latitude": 37.6187509542489, "longitude": -122.393226251598}, "transactions": [], "price": "$$", "location": {"address1": "780 S Airport Blvd", "address2": "Gate G101", "address3": "Terminal G", "city": "San Francisco", "zip_code": "94128", "country": "US", "state": "CA", "display_address": ["780 S Airport Blvd", "Gate G101", "Terminal G", "San Francisco, CA 94128"]}, "phone": "", "display_phone": "", "distance": 1616.5528670619112}, {"id": "Tu650WgOaQirPVkNY-TIkg", "alias": "burger-king-millbrae", "name": "Burger King", "image_url": "https://s3-media1.fl.yelpcdn.com/bphoto/FrKjXp2NgAg1nAOHIMLVuw/o.jpg", "is_closed": false, "url": "https://www.yelp.com/biz/burger-king-millbrae?adjust_creative=-1a8ZLzJ76_AvFzvJVcndQ&utm_campaign=yelp_api_v3&utm_medium=api_v3_business_search&utm_source=-1a8ZLzJ76_AvFzvJVcndQ", "review_count": 54, "categories": [{"alias": "burgers", "title": "Burgers"}, {"alias": "hotdogs", "title": "Fast Food"}], "rating": 2.0, "coordinates": {"latitude": 37.6029472351074, "longitude": -122.391975402832}, "transactions": [], "price": "$", "location": {"address1": "420 El Camino Real", "address2": "", "address3": "", "city": "Millbrae", "zip_code": "94030", "country": "US", "state": "CA", "display_address": ["420 El Camino Real", "Millbrae, CA 94030"]}, "phone": "+16506975866", "display_phone": "(650) 697-5866", "distance": 320.334226334968}, {"id": "uaWftAUXVu_t9A4Cu2UECA", "alias": "green-beans-cafe-san-francisco", "name": "Green Beans Cafe", "image_url": "https://s3-media4.fl.yelpcdn.com/bphoto/_3EiDswIqSfMihzRmEKdug/o.jpg", "is_closed": false, "url": "https://www.yelp.com/biz/green-beans-cafe-san-francisco?adjust_creative=-1a8ZLzJ76_AvFzvJVcndQ&utm_campaign=yelp_api_v3&utm_medium=api_v3_business_search&utm_source=-1a8ZLzJ76_AvFzvJVcndQ", "review_count": 1, "categories": [{"alias": "cafes", "title": "Cafes"}], "rating": 5.0, "coordinates": {"latitude": 37.62023, "longitude": -122.39891}, "transactions": [], "location": {"address1": "72 Domestic Terminals Departures", "address2": "", "address3": null, "city": "San Francisco", "zip_code": "94128", "country": "US", "state": "CA", "display_address": ["72 Domestic Terminals Departures", "San Francisco, CA 94128"]}, "phone": "", "display_phone": "", "distance": 1460.9815614615736}, {"id": "kxjZjTTMnl4xzVcr3zxQ-A", "alias": "cat-coras-kitchen-san-francisco", "name": "Cat Cora's Kitchen", "image_url": "https://s3-media2.fl.yelpcdn.com/bphoto/2oV0jfuAOs4jwE3YjGS2JA/o.jpg", "is_closed": false, "url": "https://www.yelp.com/biz/cat-coras-kitchen-san-francisco?adjust_creative=-1a8ZLzJ76_AvFzvJVcndQ&utm_campaign=yelp_api_v3&utm_medium=api_v3_business_search&utm_source=-1a8ZLzJ76_AvFzvJVcndQ", "review_count": 431, "categories": [{"alias": "newamerican", "title": "American (New)"}], "rating": 3.5, "coordinates": {"latitude": 37.6176127665505, "longitude": -122.381172180176}, "transactions": [], "price": "$$", "location": {"address1": "780 S Airport Blvd", "address2": "", "address3": "Terminal 2, Gate 55", "city": "San Francisco", "zip_code": "94128", "country": "US", "state": "CA", "display_address": ["780 S Airport Blvd", "Terminal 2, Gate 55", "San Francisco, CA 94128"]}, "phone": "+16508219288", "display_phone": "(650) 821-9288", "distance": 1930.8608321198558}, {"id": "N2Kq4-36805J47tCC0gqvw", "alias": "tokyo-meet-hanoi-burlingame-2", "name": "Tokyo Meet Hanoi", "image_url": "https://s3-media3.fl.yelpcdn.com/bphoto/Y-jsJ9PS_JnCy9dbE3K84Q/o.jpg", "is_closed": false, "url": "https://www.yelp.com/biz/tokyo-meet-hanoi-burlingame-2?adjust_creative=-1a8ZLzJ76_AvFzvJVcndQ&utm_campaign=yelp_api_v3&utm_medium=api_v3_business_search&utm_source=-1a8ZLzJ76_AvFzvJVcndQ", "review_count": 1, "categories": [{"alias": "japanese", "title": "Japanese"}, {"alias": "foodtrucks", "title": "Food Trucks"}, {"alias": "vietnamese", "title": "Vietnamese"}], "rating": 5.0, "coordinates": {"latitude": 37.57779, "longitude": -122.3468}, "transactions": [], "location": {"address1": "261 Park Rd", "address2": "", "address3": "", "city": "Burlingame", "zip_code": "94010", "country": "US", "state": "CA", "display_address": ["261 Park Rd", "Burlingame, CA 94010"]}, "phone": "+14153707721", "display_phone": "(415) 370-7721", "distance": 5185.420305279839}, {"id": "Ew2UU1hB44ZQLrztHxR_Yw", "alias": "andreas-market-millbrae", "name": "Andrea's Market", "image_url": "https://s3-media3.fl.yelpcdn.com/bphoto/XRQXuwWxDlgAEx8wKLYAfQ/o.jpg", "is_closed": false, "url": "https://www.yelp.com/biz/andreas-market-millbrae?adjust_creative=-1a8ZLzJ76_AvFzvJVcndQ&utm_campaign=yelp_api_v3&utm_medium=api_v3_business_search&utm_source=-1a8ZLzJ76_AvFzvJVcndQ", "review_count": 9, "categories": [{"alias": "grocery", "title": "Grocery"}, {"alias": "intlgrocery", "title": "International Grocery"}, {"alias": "brazilian", "title": "Brazilian"}], "rating": 3.5, "coordinates": {"latitude": 37.6126670837402, "longitude": -122.404228210449}, "transactions": [], "price": "$$", "location": {"address1": "1601 El Camino Real", "address2": "", "address3": "", "city": "Millbrae", "zip_code": "94030", "country": "US", "state": "CA", "display_address": ["1601 El Camino Real", "Millbrae, CA 94030"]}, "phone": "+16507941719", "display_phone": "(650) 794-1719", "distance": 1204.4371426436503}, {"id": "D8WqEftHHGU5OjI8i8nFww", "alias": "amoura-cafe-san-francisco", "name": "Amoura Cafe", "image_url": "https://s3-media1.fl.yelpcdn.com/bphoto/qmx5WIIc_VK8nQuDkIaT-g/o.jpg", "is_closed": false, "url": "https://www.yelp.com/biz/amoura-cafe-san-francisco?adjust_creative=-1a8ZLzJ76_AvFzvJVcndQ&utm_campaign=yelp_api_v3&utm_medium=api_v3_business_search&utm_source=-1a8ZLzJ76_AvFzvJVcndQ", "review_count": 148, "categories": [{"alias": "sandwiches", "title": "Sandwiches"}, {"alias": "mediterranean", "title": "Mediterranean"}], "rating": 3.0, "coordinates": {"latitude": 37.6130811521882, "longitude": -122.389054305479}, "transactions": [], "price": "$$", "location": {"address1": "San Francisco International Airport", "address2": "", "address3": "International Terminal 3/Boarding Area A", "city": "San Francisco", "zip_code": "94128", "country": "US", "state": "CA", "display_address": ["San Francisco International Airport", "International Terminal 3/Boarding Area A", "San Francisco, CA 94128"]}, "phone": "", "display_phone": "", "distance": 1118.386154620892}, {"id": "hdIZpnkAmCJ-I0JekWeT8w", "alias": "napa-farms-market-san-francisco", "name": "Napa Farms Market", "image_url": "https://s3-media2.fl.yelpcdn.com/bphoto/9KJpRm7IgGHI_Ki_ImTGRA/o.jpg", "is_closed": false, "url": "https://www.yelp.com/biz/napa-farms-market-san-francisco?adjust_creative=-1a8ZLzJ76_AvFzvJVcndQ&utm_campaign=yelp_api_v3&utm_medium=api_v3_business_search&utm_source=-1a8ZLzJ76_AvFzvJVcndQ", "review_count": 524, "categories": [{"alias": "newamerican", "title": "American (New)"}, {"alias": "pizza", "title": "Pizza"}, {"alias": "sandwiches", "title": "Sandwiches"}], "rating": 4.0, "coordinates": {"latitude": 37.6171910355792, "longitude": -122.382545471192}, "transactions": [], "price": "$$", "location": {"address1": "780 South Airport Blvd", "address2": "", "address3": "Terminal 2", "city": "San Francisco", "zip_code": "94128", "country": "US", "state": "CA", "display_address": ["780 South Airport Blvd", "Terminal 2", "San Francisco, CA 94128"]}, "phone": "+16508219312", "display_phone": "(650) 821-9312", "distance": 1818.313678779976}, {"id": "GrlSGcAKs4W5-pOMF9soPQ", "alias": "1300-on-fillmore-san-francisco-3", "name": "1300 on Fillmore", "image_url": "https://s3-media1.fl.yelpcdn.com/bphoto/1VjTjReF0nC-gQXoPm3fBw/o.jpg", "is_closed": false, "url": "https://www.yelp.com/biz/1300-on-fillmore-san-francisco-3?adjust_creative=-1a8ZLzJ76_AvFzvJVcndQ&utm_campaign=yelp_api_v3&utm_medium=api_v3_business_search&utm_source=-1a8ZLzJ76_AvFzvJVcndQ", "review_count": 125, "categories": [{"alias": "salad", "title": "Salad"}, {"alias": "breakfast_brunch", "title": "Breakfast & Brunch"}, {"alias": "sandwiches", "title": "Sandwiches"}], "rating": 3.0, "coordinates": {"latitude": 37.6185131156895, "longitude": -122.393471080831}, "transactions": [], "price": "$$", "location": {"address1": "780 S Airport Blvd", "address2": "", "address3": "Terminal G", "city": "San Francisco", "zip_code": "94128", "country": "US", "state": "CA", "display_address": ["780 S Airport Blvd", "Terminal G", "San Francisco, CA 94128"]}, "phone": "+19254836078", "display_phone": "(925) 483-6078", "distance": 1587.999269119727}, {"id": "UJoE89nZBdT5yAMs0GVL6w", "alias": "burger-joint-san-francisco-5", "name": "Burger Joint", "image_url": "https://s3-media3.fl.yelpcdn.com/bphoto/B_HaSnKZcY92lMb3Ayr_Xw/o.jpg", "is_closed": false, "url": "https://www.yelp.com/biz/burger-joint-san-francisco-5?adjust_creative=-1a8ZLzJ76_AvFzvJVcndQ&utm_campaign=yelp_api_v3&utm_medium=api_v3_business_search&utm_source=-1a8ZLzJ76_AvFzvJVcndQ", "review_count": 153, "categories": [{"alias": "burgers", "title": "Burgers"}], "rating": 3.0, "coordinates": {"latitude": 37.6177285562475, "longitude": -122.381660342217}, "transactions": [], "price": "$$", "location": {"address1": "780 S Airport Blvd", "address2": "", "address3": "Terminal 2", "city": "San Francisco", "zip_code": "94128", "country": "US", "state": "CA", "display_address": ["780 S Airport Blvd", "Terminal 2", "San Francisco, CA 94128"]}, "phone": "+16508219308", "display_phone": "(650) 821-9308", "distance": 1913.5616269312798}, {"id": "FdLRZ-QXtDJMn_P4v9MuhQ", "alias": "gotts-roadside-san-francisco-5", "name": "Gott's Roadside", "image_url": "https://s3-media2.fl.yelpcdn.com/bphoto/imV3XeGUaZF7oCLBMTYnmw/o.jpg", "is_closed": false, "url": "https://www.yelp.com/biz/gotts-roadside-san-francisco-5?adjust_creative=-1a8ZLzJ76_AvFzvJVcndQ&utm_campaign=yelp_api_v3&utm_medium=api_v3_business_search&utm_source=-1a8ZLzJ76_AvFzvJVcndQ", "review_count": 129, "categories": [{"alias": "burgers", "title": "Burgers"}, {"alias": "salad", "title": "Salad"}, {"alias": "sandwiches", "title": "Sandwiches"}], "rating": 2.5, "coordinates": {"latitude": 37.611575, "longitude": -122.389898}, "transactions": [], "price": "$$", "location": {"address1": "SFO International Terminal", "address2": "Gate A-10", "address3": "", "city": "San Francisco", "zip_code": "94128", "country": "US", "state": "CA", "display_address": ["SFO International Terminal", "Gate A-10", "San Francisco, CA 94128"]}, "phone": "+16508216440", "display_phone": "(650) 821-6440", "distance": 936.0888558170449}, {"id": "9nWUT9iM0yI-poH9k4IcmQ", "alias": "caffe-roma-coffee-roasting-millbrae", "name": "Caffe Roma Coffee Roasting", "image_url": "https://s3-media2.fl.yelpcdn.com/bphoto/tyrkSN0QVUyDjGZAvJTCMg/o.jpg", "is_closed": false, "url": "https://www.yelp.com/biz/caffe-roma-coffee-roasting-millbrae?adjust_creative=-1a8ZLzJ76_AvFzvJVcndQ&utm_campaign=yelp_api_v3&utm_medium=api_v3_business_search&utm_source=-1a8ZLzJ76_AvFzvJVcndQ", "review_count": 382, "categories": [{"alias": "coffee", "title": "Coffee & Tea"}, {"alias": "breakfast_brunch", "title": "Breakfast & Brunch"}, {"alias": "newamerican", "title": "American (New)"}], "rating": 3.5, "coordinates": {"latitude": 37.5963897736938, "longitude": -122.386364240631}, "transactions": [], "price": "$", "location": {"address1": "143 S El Camino Real", "address2": "", "address3": null, "city": "Millbrae", "zip_code": "94030", "country": "US", "state": "CA", "display_address": ["143 S El Camino Real", "Millbrae, CA 94030"]}, "phone": "+16506927700", "display_phone": "(650) 692-7700", "distance": 1177.5074088875497}, {"id": "ZApEn5y4WxESdpXLtdV_SQ", "alias": "wendys-san-francisco-6", "name": "Wendy's", "image_url": "https://s3-media3.fl.yelpcdn.com/bphoto/UuwaE-sL0_bn2UBAL3Z86Q/o.jpg", "is_closed": false, "url": "https://www.yelp.com/biz/wendys-san-francisco-6?adjust_creative=-1a8ZLzJ76_AvFzvJVcndQ&utm_campaign=yelp_api_v3&utm_medium=api_v3_business_search&utm_source=-1a8ZLzJ76_AvFzvJVcndQ", "review_count": 15, "categories": [{"alias": "hotdogs", "title": "Fast Food"}, {"alias": "breakfast_brunch", "title": "Breakfast & Brunch"}, {"alias": "burgers", "title": "Burgers"}], "rating": 3.5, "coordinates": {"latitude": 37.6148166206935, "longitude": -122.389162487943}, "transactions": [], "price": "$", "location": {"address1": "", "address2": "", "address3": "International Food Court South", "city": "San Francisco", "zip_code": "94128", "country": "US", "state": "CA", "display_address": ["International Food Court South", "San Francisco, CA 94128"]}, "phone": "+16508218218", "display_phone": "(650) 821-8218", "distance": 1286.2730783259763}, {"id": "mWzmU9rCZa-thtUlfzVZBQ", "alias": "firewood-grill-san-francisco-2", "name": "Firewood Grill", "image_url": "https://s3-media2.fl.yelpcdn.com/bphoto/aCHVwJPUeJRaBuwGtXi7RQ/o.jpg", "is_closed": false, "url": "https://www.yelp.com/biz/firewood-grill-san-francisco-2?adjust_creative=-1a8ZLzJ76_AvFzvJVcndQ&utm_campaign=yelp_api_v3&utm_medium=api_v3_business_search&utm_source=-1a8ZLzJ76_AvFzvJVcndQ", "review_count": 214, "categories": [{"alias": "newamerican", "title": "American (New)"}], "rating": 2.5, "coordinates": {"latitude": 37.6139258291752, "longitude": -122.388549025302}, "transactions": [], "price": "$$", "location": {"address1": "780 S Airport Blvd", "address2": "", "address3": "San Francisco International Airport, International Terminal", "city": "San Francisco", "zip_code": "94128", "country": "US", "state": "CA", "display_address": ["780 S Airport Blvd", "San Francisco International Airport, International Terminal", "San Francisco, CA 94128"]}, "phone": "", "display_phone": "", "distance": 1222.1066403962861}, {"id": "s7HIPXtQAr-aBckcgGdEGA", "alias": "boudin-bakery-and-cafe-san-francisco-16", "name": "Boudin Bakery & Cafe", "image_url": "https://s3-media2.fl.yelpcdn.com/bphoto/u7cslPwhlubPlIHBDhuzPQ/o.jpg", "is_closed": false, "url": "https://www.yelp.com/biz/boudin-bakery-and-cafe-san-francisco-16?adjust_creative=-1a8ZLzJ76_AvFzvJVcndQ&utm_campaign=yelp_api_v3&utm_medium=api_v3_business_search&utm_source=-1a8ZLzJ76_AvFzvJVcndQ", "review_count": 38, "categories": [{"alias": "pizza", "title": "Pizza"}, {"alias": "bakeries", "title": "Bakeries"}, {"alias": "sandwiches", "title": "Sandwiches"}], "rating": 3.5, "coordinates": {"latitude": 37.6155936, "longitude": -122.3917029}, "transactions": [], "price": "$$", "location": {"address1": null, "address2": null, "address3": null, "city": "San Francisco", "zip_code": "94128", "country": "US", "state": "CA", "display_address": ["San Francisco, CA 94128"]}, "phone": "", "display_phone": "", "distance": 1293.8861689167404}, {"id": "SvrHJSRolcHMMXvKXGzKOA", "alias": "bay-watch-burlingame-burlingame", "name": "Bay Watch Burlingame", "image_url": "https://s3-media2.fl.yelpcdn.com/bphoto/pARgYFMGLknaV1qBbWYXuQ/o.jpg", "is_closed": false, "url": "https://www.yelp.com/biz/bay-watch-burlingame-burlingame?adjust_creative=-1a8ZLzJ76_AvFzvJVcndQ&utm_campaign=yelp_api_v3&utm_medium=api_v3_business_search&utm_source=-1a8ZLzJ76_AvFzvJVcndQ", "review_count": 230, "categories": [{"alias": "breakfast_brunch", "title": "Breakfast & Brunch"}, {"alias": "tradamerican", "title": "American (Traditional)"}], "rating": 3.5, "coordinates": {"latitude": 37.5947202541439, "longitude": -122.385340543985}, "transactions": ["pickup", "delivery"], "price": "$$", "location": {"address1": "1841 El Camino Real", "address2": "", "address3": "", "city": "Burlingame", "zip_code": "94010", "country": "US", "state": "CA", "display_address": ["1841 El Camino Real", "Burlingame, CA 94010"]}, "phone": "+16506922226", "display_phone": "(650) 692-2226", "distance": 1377.2952744850013}, {"id": "vQhAIRTrQOeGc_ZtVaY6xQ", "alias": "three-twins-ice-cream-san-francisco-3", "name": "Three Twins Ice Cream", "image_url": "https://s3-media2.fl.yelpcdn.com/bphoto/5ViUwNWPqWjBQPS2nTDGyQ/o.jpg", "is_closed": false, "url": "https://www.yelp.com/biz/three-twins-ice-cream-san-francisco-3?adjust_creative=-1a8ZLzJ76_AvFzvJVcndQ&utm_campaign=yelp_api_v3&utm_medium=api_v3_business_search&utm_source=-1a8ZLzJ76_AvFzvJVcndQ", "review_count": 155, "categories": [{"alias": "icecream", "title": "Ice Cream & Frozen Yogurt"}, {"alias": "coffee", "title": "Coffee & Tea"}, {"alias": "creperies", "title": "Creperies"}], "rating": 3.5, "coordinates": {"latitude": 37.6152275690986, "longitude": -122.383211371396}, "transactions": [], "price": "$$", "location": {"address1": "780 S Airport Blvd", "address2": "Terminal 1", "address3": "", "city": "San Francisco", "zip_code": "94128", "country": "US", "state": "CA", "display_address": ["780 S Airport Blvd", "Terminal 1", "San Francisco, CA 94128"]}, "phone": "+16508210160", "display_phone": "(650) 821-0160", "distance": 1612.543852654334}, {"id": "cUAaUh8sHRXBkWLgPI69zw", "alias": "stephans-deli-millbrae", "name": "Stephan's Deli", "image_url": "https://s3-media1.fl.yelpcdn.com/bphoto/Af5XLJqcvRHyg6JEb01khg/o.jpg", "is_closed": false, "url": "https://www.yelp.com/biz/stephans-deli-millbrae?adjust_creative=-1a8ZLzJ76_AvFzvJVcndQ&utm_campaign=yelp_api_v3&utm_medium=api_v3_business_search&utm_source=-1a8ZLzJ76_AvFzvJVcndQ", "review_count": 6, "categories": [{"alias": "delis", "title": "Delis"}, {"alias": "mideastern", "title": "Middle Eastern"}], "rating": 1.5, "coordinates": {"latitude": 37.6005347, "longitude": -122.3911132}, "transactions": [], "price": "$", "location": {"address1": "260 Broadway", "address2": "", "address3": "", "city": "Millbrae", "zip_code": "94030", "country": "US", "state": "CA", "display_address": ["260 Broadway", "Millbrae, CA 94030"]}, "phone": "+16506927027", "display_phone": "(650) 692-7027", "distance": 534.9284943539894}, {"id": "eFMyl7FHaC2WhcorMCR54A", "alias": "jack-in-the-box-san-bruno-2", "name": "Jack in the Box", "image_url": "https://s3-media4.fl.yelpcdn.com/bphoto/zWL-11jwXhZ6Xk46pLMMTQ/o.jpg", "is_closed": false, "url": "https://www.yelp.com/biz/jack-in-the-box-san-bruno-2?adjust_creative=-1a8ZLzJ76_AvFzvJVcndQ&utm_campaign=yelp_api_v3&utm_medium=api_v3_business_search&utm_source=-1a8ZLzJ76_AvFzvJVcndQ", "review_count": 71, "categories": [{"alias": "hotdogs", "title": "Fast Food"}, {"alias": "burgers", "title": "Burgers"}, {"alias": "tacos", "title": "Tacos"}], "rating": 1.5, "coordinates": {"latitude": 37.6142061, "longitude": -122.404845356941}, "transactions": [], "price": "$", "location": {"address1": "1700 El Camino Real", "address2": "", "address3": "", "city": "San Bruno", "zip_code": "94066", "country": "US", "state": "CA", "display_address": ["1700 El Camino Real", "San Bruno, CA 94066"]}, "phone": "+16508695261", "display_phone": "(650) 869-5261", "distance": 1388.3854249291912}, {"id": "rSQiZDVIAFqHVupUASi4kw", "alias": "sushi-machi-san-francisco", "name": "Sushi Machi", "image_url": "https://s3-media3.fl.yelpcdn.com/bphoto/LeMHZg9VQyc_Bv6kQz-EnA/o.jpg", "is_closed": false, "url": "https://www.yelp.com/biz/sushi-machi-san-francisco?adjust_creative=-1a8ZLzJ76_AvFzvJVcndQ&utm_campaign=yelp_api_v3&utm_medium=api_v3_business_search&utm_source=-1a8ZLzJ76_AvFzvJVcndQ", "review_count": 21, "categories": [{"alias": "japanese", "title": "Japanese"}], "rating": 2.5, "coordinates": {"latitude": 37.6165177956187, "longitude": -122.388885326312}, "transactions": [], "price": "$$", "location": {"address1": "San Francisco International Airport", "address2": "", "address3": "Terminal G", "city": "San Francisco", "zip_code": "94128", "country": "US", "state": "CA", "display_address": ["San Francisco International Airport", "Terminal G", "San Francisco, CA 94128"]}, "phone": "+16505888694", "display_phone": "(650) 588-8694", "distance": 1469.4877876891412}, {"id": "bURmQajxsu00Bb8BLok0OQ", "alias": "ruddys-taco-truck-san-bruno", "name": "Ruddy's Taco Truck", "image_url": "https://s3-media4.fl.yelpcdn.com/bphoto/awXFz1M99CN1nNDRrRZibA/o.jpg", "is_closed": false, "url": "https://www.yelp.com/biz/ruddys-taco-truck-san-bruno?adjust_creative=-1a8ZLzJ76_AvFzvJVcndQ&utm_campaign=yelp_api_v3&utm_medium=api_v3_business_search&utm_source=-1a8ZLzJ76_AvFzvJVcndQ", "review_count": 178, "categories": [{"alias": "foodtrucks", "title": "Food Trucks"}, {"alias": "mexican", "title": "Mexican"}], "rating": 4.0, "coordinates": {"latitude": 37.6302505724828, "longitude": -122.417277731001}, "transactions": ["pickup", "delivery"], "price": "$", "location": {"address1": "890 El Camino Real", "address2": "", "address3": "", "city": "San Bruno", "zip_code": "94066", "country": "US", "state": "CA", "display_address": ["890 El Camino Real", "San Bruno, CA 94066"]}, "phone": "+16507710410", "display_phone": "(650) 771-0410", "distance": 3477.115996454979}, {"id": "7dHj1XDVA_7AYXTfp5i-BQ", "alias": "momo-noodle-san-francisco", "name": "MOMO noodle", "image_url": "https://s3-media4.fl.yelpcdn.com/bphoto/7zlv0Fz-2CTVIPLa767RVw/o.jpg", "is_closed": false, "url": "https://www.yelp.com/biz/momo-noodle-san-francisco?adjust_creative=-1a8ZLzJ76_AvFzvJVcndQ&utm_campaign=yelp_api_v3&utm_medium=api_v3_business_search&utm_source=-1a8ZLzJ76_AvFzvJVcndQ", "review_count": 46, "categories": [{"alias": "noodles", "title": "Noodles"}, {"alias": "foodtrucks", "title": "Food Trucks"}, {"alias": "szechuan", "title": "Szechuan"}], "rating": 4.0, "coordinates": {"latitude": 37.79106, "longitude": -122.40175}, "transactions": [], "price": "$$", "location": {"address1": null, "address2": null, "address3": "", "city": "San Francisco", "zip_code": "94104", "country": "US", "state": "CA", "display_address": ["San Francisco, CA 94104"]}, "phone": "+14088006819", "display_phone": "(408) 800-6819", "distance": 20781.48839929737}, {"id": "y4ogWB1Lz1WdR3HCJ1BPrA", "alias": "union-street-gastropub-san-francisco", "name": "Union Street Gastropub", "image_url": "https://s3-media1.fl.yelpcdn.com/bphoto/-aoAR4aXh3ZwSjPPvBZumw/o.jpg", "is_closed": false, "url": "https://www.yelp.com/biz/union-street-gastropub-san-francisco?adjust_creative=-1a8ZLzJ76_AvFzvJVcndQ&utm_campaign=yelp_api_v3&utm_medium=api_v3_business_search&utm_source=-1a8ZLzJ76_AvFzvJVcndQ", "review_count": 158, "categories": [{"alias": "gastropubs", "title": "Gastropubs"}], "rating": 2.5, "coordinates": {"latitude": 37.61846, "longitude": -122.386043}, "transactions": [], "price": "$$", "location": {"address1": "780 S Airport Blvd", "address2": "", "address3": "Terminal 3, Gate 70", "city": "San Francisco", "zip_code": "94128", "country": "US", "state": "CA", "display_address": ["780 S Airport Blvd", "Terminal 3, Gate 70", "San Francisco, CA 94128"]}, "phone": "+16508218465", "display_phone": "(650) 821-8465", "distance": 1770.901529745295}, {"id": "CagZp8gWOTjVDKlrMR-CQg", "alias": "amoura-employee-cafe-san-francisco", "name": "Amoura Employee Cafe", "image_url": "https://s3-media2.fl.yelpcdn.com/bphoto/933qmjHCfIDNaszY355Nlw/o.jpg", "is_closed": false, "url": "https://www.yelp.com/biz/amoura-employee-cafe-san-francisco?adjust_creative=-1a8ZLzJ76_AvFzvJVcndQ&utm_campaign=yelp_api_v3&utm_medium=api_v3_business_search&utm_source=-1a8ZLzJ76_AvFzvJVcndQ", "review_count": 42, "categories": [{"alias": "breakfast_brunch", "title": "Breakfast & Brunch"}, {"alias": "burgers", "title": "Burgers"}], "rating": 3.5, "coordinates": {"latitude": 37.6130776674099, "longitude": -122.389092313564}, "transactions": [], "price": "$", "location": {"address1": "San Francisco International Airport", "address2": "", "address3": "Terminal 1", "city": "San Francisco", "zip_code": "94128", "country": "US", "state": "CA", "display_address": ["San Francisco International Airport", "Terminal 1", "San Francisco, CA 94128"]}, "phone": "+16508210040", "display_phone": "(650) 821-0040", "distance": 1116.4178397524017}, {"id": "CxaWxnfTuBvJ1MTZXaolCA", "alias": "gordon-biersch-south-san-francisco", "name": "Gordon Biersch", "image_url": "https://s3-media3.fl.yelpcdn.com/bphoto/9v3KErNHMLYi5ncatcVxCg/o.jpg", "is_closed": false, "url": "https://www.yelp.com/biz/gordon-biersch-south-san-francisco?adjust_creative=-1a8ZLzJ76_AvFzvJVcndQ&utm_campaign=yelp_api_v3&utm_medium=api_v3_business_search&utm_source=-1a8ZLzJ76_AvFzvJVcndQ", "review_count": 278, "categories": [{"alias": "breweries", "title": "Breweries"}, {"alias": "tradamerican", "title": "American (Traditional)"}], "rating": 2.0, "coordinates": {"latitude": 37.6183106888727, "longitude": -122.386493682861}, "transactions": [], "price": "$$", "location": {"address1": "780 S Airport Blvd", "address2": "", "address3": "Terminal 3", "city": "South San Francisco", "zip_code": "94128", "country": "US", "state": "CA", "display_address": ["780 S Airport Blvd", "Terminal 3", "South San Francisco, CA 94128"]}, "phone": "+16508276635", "display_phone": "(650) 827-6635", "distance": 1738.1854079765942}, {"id": "ADFGHvCR1e5MvF-BD-6qdA", "alias": "the-plant-cafe-organic-san-francisco-9", "name": "The Plant Cafe Organic", "image_url": "https://s3-media2.fl.yelpcdn.com/bphoto/DzSs9dy-mbUTRydPzNCPUw/o.jpg", "is_closed": false, "url": "https://www.yelp.com/biz/the-plant-cafe-organic-san-francisco-9?adjust_creative=-1a8ZLzJ76_AvFzvJVcndQ&utm_campaign=yelp_api_v3&utm_medium=api_v3_business_search&utm_source=-1a8ZLzJ76_AvFzvJVcndQ", "review_count": 308, "categories": [{"alias": "vegetarian", "title": "Vegetarian"}, {"alias": "juicebars", "title": "Juice Bars & Smoothies"}, {"alias": "organic_stores", "title": "Organic Stores"}], "rating": 3.0, "coordinates": {"latitude": 37.6175309700488, "longitude": -122.38140553236}, "transactions": [], "price": "$$", "location": {"address1": "780 S Airport Blvd", "address2": "", "address3": "San Francisco International Airport, Terminal 2", "city": "San Francisco", "zip_code": "94128", "country": "US", "state": "CA", "display_address": ["780 S Airport Blvd", "San Francisco International Airport, Terminal 2", "San Francisco, CA 94128"]}, "phone": "+16508219290", "display_phone": "(650) 821-9290", "distance": 1910.7152650780197}, {"id": "DLOnb1vc_d9TsfeyeOGvMA", "alias": "pick-up-stix-san-francisco", "name": "Pick Up Stix", "image_url": "https://s3-media1.fl.yelpcdn.com/bphoto/MaWJWjE0bm9bRM-kjoIaLA/o.jpg", "is_closed": false, "url": "https://www.yelp.com/biz/pick-up-stix-san-francisco?adjust_creative=-1a8ZLzJ76_AvFzvJVcndQ&utm_campaign=yelp_api_v3&utm_medium=api_v3_business_search&utm_source=-1a8ZLzJ76_AvFzvJVcndQ", "review_count": 26, "categories": [{"alias": "asianfusion", "title": "Asian Fusion"}, {"alias": "noodles", "title": "Noodles"}], "rating": 2.0, "coordinates": {"latitude": 37.7771186828613, "longitude": -122.419639587402}, "transactions": [], "price": "$", "location": {"address1": "2456 Domestic Terminals Arrivals Level", "address2": "", "address3": null, "city": "San Francisco", "zip_code": "94128", "country": "US", "state": "CA", "display_address": ["2456 Domestic Terminals Arrivals Level", "San Francisco, CA 94128"]}, "phone": "", "display_phone": "", "distance": 1647.3150685055418}, {"id": "ftNhN-kPMXw9kZk_RNfH0g", "alias": "elcamarada-tacos-millbrae", "name": "ElCamarada Tacos", "image_url": "https://s3-media3.fl.yelpcdn.com/bphoto/vIksg9zj8PLKga-AHtMAMw/o.jpg", "is_closed": false, "url": "https://www.yelp.com/biz/elcamarada-tacos-millbrae?adjust_creative=-1a8ZLzJ76_AvFzvJVcndQ&utm_campaign=yelp_api_v3&utm_medium=api_v3_business_search&utm_source=-1a8ZLzJ76_AvFzvJVcndQ", "review_count": 2, "categories": [{"alias": "foodtrucks", "title": "Food Trucks"}, {"alias": "mexican", "title": "Mexican"}], "rating": 5.0, "coordinates": {"latitude": 37.60373, "longitude": -122.39886}, "transactions": [], "location": {"address1": null, "address2": null, "address3": "", "city": "Millbrae", "zip_code": "94030", "country": "US", "state": "CA", "display_address": ["Millbrae, CA 94030"]}, "phone": "+16508898597", "display_phone": "(650) 889-8597", "distance": 2244.4833808143085}, {"id": "q2x8AtIh8tF487nWNqV44w", "alias": "mission-bar-and-grill-san-francisco", "name": "Mission Bar & Grill", "image_url": "https://s3-media4.fl.yelpcdn.com/bphoto/M1NquZpNURC1vLyRpK9KLw/o.jpg", "is_closed": false, "url": "https://www.yelp.com/biz/mission-bar-and-grill-san-francisco?adjust_creative=-1a8ZLzJ76_AvFzvJVcndQ&utm_campaign=yelp_api_v3&utm_medium=api_v3_business_search&utm_source=-1a8ZLzJ76_AvFzvJVcndQ", "review_count": 331, "categories": [{"alias": "burgers", "title": "Burgers"}, {"alias": "bars", "title": "Bars"}, {"alias": "breakfast_brunch", "title": "Breakfast & Brunch"}], "rating": 3.5, "coordinates": {"latitude": 37.6184634875007, "longitude": -122.384613550232}, "transactions": [], "price": "$$", "location": {"address1": "780 S Airport Blvd", "address2": "", "address3": "Terminal 3", "city": "San Francisco", "zip_code": "94128", "country": "US", "state": "CA", "display_address": ["780 S Airport Blvd", "Terminal 3", "San Francisco, CA 94128"]}, "phone": "+16508218304", "display_phone": "(650) 821-8304", "distance": 1832.3108403111362}, {"id": "18Cl3u2qzJxaKnLoWRngJQ", "alias": "yankee-pier-san-francisco", "name": "Yankee Pier", "image_url": "https://s3-media2.fl.yelpcdn.com/bphoto/X0evDuT4FfSPhnBQ_m29wg/o.jpg", "is_closed": false, "url": "https://www.yelp.com/biz/yankee-pier-san-francisco?adjust_creative=-1a8ZLzJ76_AvFzvJVcndQ&utm_campaign=yelp_api_v3&utm_medium=api_v3_business_search&utm_source=-1a8ZLzJ76_AvFzvJVcndQ", "review_count": 649, "categories": [{"alias": "seafood", "title": "Seafood"}, {"alias": "breakfast_brunch", "title": "Breakfast & Brunch"}, {"alias": "newamerican", "title": "American (New)"}], "rating": 2.5, "coordinates": {"latitude": 37.618368, "longitude": -122.387106}, "transactions": [], "price": "$$", "location": {"address1": "780 S Airport Blvd", "address2": "Terminal 3,Boarding Area F near Gate 72,", "address3": "", "city": "San Francisco", "zip_code": "94128", "country": "US", "state": "CA", "display_address": ["780 S Airport Blvd", "Terminal 3,Boarding Area F near Gate 72,", "San Francisco, CA 94128"]}, "phone": "+16508218938", "display_phone": "(650) 821-8938", "distance": 1720.7281264587452}, {"id": "nOprl0l0KnMoEOJXBD1frA", "alias": "burger-king-san-francisco-25", "name": "Burger King", "image_url": "https://s3-media4.fl.yelpcdn.com/bphoto/9QovxcJmG3ClQRiDeXtOqg/o.jpg", "is_closed": false, "url": "https://www.yelp.com/biz/burger-king-san-francisco-25?adjust_creative=-1a8ZLzJ76_AvFzvJVcndQ&utm_campaign=yelp_api_v3&utm_medium=api_v3_business_search&utm_source=-1a8ZLzJ76_AvFzvJVcndQ", "review_count": 3, "categories": [{"alias": "hotdogs", "title": "Fast Food"}], "rating": 3.5, "coordinates": {"latitude": 37.6183733375095, "longitude": -122.386283582108}, "transactions": [], "price": "$", "location": {"address1": "Domestic Terminals Departures Level", "address2": "", "address3": "Terminal 3, Gate 70", "city": "San Francisco", "zip_code": "94016", "country": "US", "state": "CA", "display_address": ["Domestic Terminals Departures Level", "Terminal 3, Gate 70", "San Francisco, CA 94016"]}, "phone": "", "display_phone": "", "distance": 1752.6909749098343}, {"id": "8xDPfxmlMWVn-OQPTPU_wA", "alias": "crazy-curry-belmont-2", "name": "Crazy Curry", "image_url": "https://s3-media4.fl.yelpcdn.com/bphoto/6V2onr7ftDPTZyg9t0UOMw/o.jpg", "is_closed": false, "url": "https://www.yelp.com/biz/crazy-curry-belmont-2?adjust_creative=-1a8ZLzJ76_AvFzvJVcndQ&utm_campaign=yelp_api_v3&utm_medium=api_v3_business_search&utm_source=-1a8ZLzJ76_AvFzvJVcndQ", "review_count": 3, "categories": [{"alias": "japacurry", "title": "Japanese Curry"}, {"alias": "foodtrucks", "title": "Food Trucks"}], "rating": 3.5, "coordinates": {"latitude": 37.5265, "longitude": -122.28178}, "transactions": [], "location": {"address1": "407 Old County Rd", "address2": null, "address3": "", "city": "Belmont", "zip_code": "94002", "country": "US", "state": "CA", "display_address": ["407 Old County Rd", "Belmont, CA 94002"]}, "phone": "+14154832691", "display_phone": "(415) 483-2691", "distance": 13216.698594854319}, {"id": "ur36j5_YFR4sHIO0eUHaRQ", "alias": "potrero-grill-san-francisco-2", "name": "Potrero Grill", "image_url": "https://s3-media4.fl.yelpcdn.com/bphoto/Ui7mzZCounOEyHkmZtqE-w/o.jpg", "is_closed": false, "url": "https://www.yelp.com/biz/potrero-grill-san-francisco-2?adjust_creative=-1a8ZLzJ76_AvFzvJVcndQ&utm_campaign=yelp_api_v3&utm_medium=api_v3_business_search&utm_source=-1a8ZLzJ76_AvFzvJVcndQ", "review_count": 25, "categories": [{"alias": "coffee", "title": "Coffee & Tea"}, {"alias": "breakfast_brunch", "title": "Breakfast & Brunch"}, {"alias": "tradamerican", "title": "American (Traditional)"}], "rating": 2.0, "coordinates": {"latitude": 37.6161787379598, "longitude": -122.38906764199}, "transactions": [], "price": "$$", "location": {"address1": "San Francisco International Airport", "address2": "", "address3": null, "city": "San Francisco", "zip_code": "94128", "country": "US", "state": "CA", "display_address": ["San Francisco International Airport", "San Francisco, CA 94128"]}, "phone": "", "display_phone": "", "distance": 1428.5116337368713}, {"id": "YI1IRqkVPSXvh5i3_y6sVw", "alias": "maxs-evoo-cafe-san-francisco", "name": "Max's EVOO Cafe", "image_url": "https://s3-media1.fl.yelpcdn.com/bphoto/22XIGGhVJbOE9w5XvXzK6g/o.jpg", "is_closed": false, "url": "https://www.yelp.com/biz/maxs-evoo-cafe-san-francisco?adjust_creative=-1a8ZLzJ76_AvFzvJVcndQ&utm_campaign=yelp_api_v3&utm_medium=api_v3_business_search&utm_source=-1a8ZLzJ76_AvFzvJVcndQ", "review_count": 47, "categories": [{"alias": "salad", "title": "Salad"}, {"alias": "soup", "title": "Soup"}, {"alias": "sandwiches", "title": "Sandwiches"}], "rating": 3.0, "coordinates": {"latitude": 37.618068569231, "longitude": -122.385919851123}, "transactions": [], "price": "$$", "location": {"address1": "Sfo Terminal 3", "address2": "", "address3": "Gate 70", "city": "San Francisco", "zip_code": "94127", "country": "US", "state": "CA", "display_address": ["Sfo Terminal 3", "Gate 70", "San Francisco, CA 94127"]}, "phone": "+16508218462", "display_phone": "(650) 821-8462", "distance": 1737.4267154060258}, {"id": "YdAOUUgq8rXxKv6wTsXaHg", "alias": "andale-mexican-restaurant-san-francisco-4", "name": "Andale Mexican Restaurant", "image_url": "https://s3-media3.fl.yelpcdn.com/bphoto/5zSaBZygqOyJ8DCM0lIqQA/o.jpg", "is_closed": false, "url": "https://www.yelp.com/biz/andale-mexican-restaurant-san-francisco-4?adjust_creative=-1a8ZLzJ76_AvFzvJVcndQ&utm_campaign=yelp_api_v3&utm_medium=api_v3_business_search&utm_source=-1a8ZLzJ76_AvFzvJVcndQ", "review_count": 269, "categories": [{"alias": "mexican", "title": "Mexican"}], "rating": 2.5, "coordinates": {"latitude": 37.6176414484188, "longitude": -122.381716668606}, "transactions": [], "price": "$$", "location": {"address1": "780 S Airport Blvd", "address2": "", "address3": "San Francisco International Airport, Terminal 2", "city": "San Francisco", "zip_code": "94128", "country": "US", "state": "CA", "display_address": ["780 S Airport Blvd", "San Francisco International Airport, Terminal 2", "San Francisco, CA 94128"]}, "phone": "+16508219306", "display_phone": "(650) 821-9306", "distance": 1902.9026468068284}, {"id": "aif0fjOAHRK7Y515R_iJUQ", "alias": "urban-tortilla-san-francisco", "name": "Urban Tortilla", "image_url": "https://s3-media2.fl.yelpcdn.com/bphoto/sw1AXiLqvUZ3VdPV5ROjHA/o.jpg", "is_closed": false, "url": "https://www.yelp.com/biz/urban-tortilla-san-francisco?adjust_creative=-1a8ZLzJ76_AvFzvJVcndQ&utm_campaign=yelp_api_v3&utm_medium=api_v3_business_search&utm_source=-1a8ZLzJ76_AvFzvJVcndQ", "review_count": 205, "categories": [{"alias": "mexican", "title": "Mexican"}], "rating": 2.5, "coordinates": {"latitude": 37.6189843792457, "longitude": -122.384507131275}, "transactions": [], "price": "$$", "location": {"address1": "San Francisco International Airport", "address2": "", "address3": "Terminal 3, Gate 63", "city": "San Francisco", "zip_code": "94128", "country": "US", "state": "CA", "display_address": ["San Francisco International Airport", "Terminal 3, Gate 63", "San Francisco, CA 94128"]}, "phone": "+16508212317", "display_phone": "(650) 821-2317", "distance": 1887.0033674236238}, {"id": "lGLyIlp2qqAVu5Zxeomy9Q", "alias": "gondo-fusion-south-san-francisco", "name": "Gondo Fusion", "image_url": "https://s3-media2.fl.yelpcdn.com/bphoto/Ry4KFwoAev_BGRpe2WtcYA/o.jpg", "is_closed": false, "url": "https://www.yelp.com/biz/gondo-fusion-south-san-francisco?adjust_creative=-1a8ZLzJ76_AvFzvJVcndQ&utm_campaign=yelp_api_v3&utm_medium=api_v3_business_search&utm_source=-1a8ZLzJ76_AvFzvJVcndQ", "review_count": 13, "categories": [{"alias": "foodtrucks", "title": "Food Trucks"}, {"alias": "cuban", "title": "Cuban"}, {"alias": "mexican", "title": "Mexican"}], "rating": 4.0, "coordinates": {"latitude": 37.65774, "longitude": -122.41407}, "transactions": [], "location": {"address1": "", "address2": null, "address3": "", "city": "South San Francisco", "zip_code": "94080", "country": "US", "state": "CA", "display_address": ["South San Francisco, CA 94080"]}, "phone": "+16502185404", "display_phone": "(650) 218-5404", "distance": 5806.2750299958425}, {"id": "_YJ0d4DWIMTljW7x1tTqHw", "alias": "lark-creek-grill-san-francisco-4", "name": "Lark Creek Grill", "image_url": "https://s3-media4.fl.yelpcdn.com/bphoto/N0TWC9Z5CuI6crDWKWwofw/o.jpg", "is_closed": false, "url": "https://www.yelp.com/biz/lark-creek-grill-san-francisco-4?adjust_creative=-1a8ZLzJ76_AvFzvJVcndQ&utm_campaign=yelp_api_v3&utm_medium=api_v3_business_search&utm_source=-1a8ZLzJ76_AvFzvJVcndQ", "review_count": 574, "categories": [{"alias": "cafes", "title": "Cafes"}], "rating": 3.0, "coordinates": {"latitude": 37.617357, "longitude": -122.381835}, "transactions": [], "price": "$$", "location": {"address1": "780 S Airport Blvd", "address2": null, "address3": "Terminal 2", "city": "San Francisco", "zip_code": "94130", "country": "US", "state": "CA", "display_address": ["780 S Airport Blvd", "Terminal 2", "San Francisco, CA 94130"]}, "phone": "+16508219315", "display_phone": "(650) 821-9315", "distance": 1871.7561912534234}, {"id": "1e93gYXXlBHA0-XJXicJhQ", "alias": "inshallah-food-truck-south-san-francisco-2", "name": "Inshallah Food Truck", "image_url": "https://s3-media1.fl.yelpcdn.com/bphoto/IBFIlRI2k5jz_4uMvkIIUw/o.jpg", "is_closed": false, "url": "https://www.yelp.com/biz/inshallah-food-truck-south-san-francisco-2?adjust_creative=-1a8ZLzJ76_AvFzvJVcndQ&utm_campaign=yelp_api_v3&utm_medium=api_v3_business_search&utm_source=-1a8ZLzJ76_AvFzvJVcndQ", "review_count": 1, "categories": [{"alias": "mediterranean", "title": "Mediterranean"}, {"alias": "foodtrucks", "title": "Food Trucks"}], "rating": 3.0, "coordinates": {"latitude": 37.66737, "longitude": -122.38249}, "transactions": [], "location": {"address1": "395 Oyster Point", "address2": null, "address3": "", "city": "South San Francisco", "zip_code": "94080", "country": "US", "state": "CA", "display_address": ["395 Oyster Point", "South San Francisco, CA 94080"]}, "phone": "+16502716848", "display_phone": "(650) 271-6848", "distance": 7128.6128758338145}, {"id": "wEj5FmJF5rKlFlr4us1UWQ", "alias": "deli-up-cafe-san-francisco-2", "name": "Deli Up Cafe", "image_url": "https://s3-media3.fl.yelpcdn.com/bphoto/n_URqURVJnaMwtpHpAh8pQ/o.jpg", "is_closed": false, "url": "https://www.yelp.com/biz/deli-up-cafe-san-francisco-2?adjust_creative=-1a8ZLzJ76_AvFzvJVcndQ&utm_campaign=yelp_api_v3&utm_medium=api_v3_business_search&utm_source=-1a8ZLzJ76_AvFzvJVcndQ", "review_count": 59, "categories": [{"alias": "delis", "title": "Delis"}], "rating": 2.0, "coordinates": {"latitude": 37.6180006583614, "longitude": -122.39211248555}, "transactions": [], "price": "$$", "location": {"address1": "San Francisco International Airport", "address2": "", "address3": "International Terminal/Boarding Area G", "city": "San Francisco", "zip_code": "94128", "country": "US", "state": "CA", "display_address": ["San Francisco International Airport", "International Terminal/Boarding Area G", "San Francisco, CA 94128"]}, "phone": "+16508216000", "display_phone": "(650) 821-6000", "distance": 1548.1234893830297}, {"id": "jVGGp6ZQ_0jMVcDA8zC3nA", "alias": "mobile-food-fleet-san-bruno", "name": "Mobile Food Fleet", "image_url": "https://s3-media2.fl.yelpcdn.com/bphoto/mdPFUd9IwfEUibv4sFZ5Jg/o.jpg", "is_closed": false, "url": "https://www.yelp.com/biz/mobile-food-fleet-san-bruno?adjust_creative=-1a8ZLzJ76_AvFzvJVcndQ&utm_campaign=yelp_api_v3&utm_medium=api_v3_business_search&utm_source=-1a8ZLzJ76_AvFzvJVcndQ", "review_count": 1, "categories": [{"alias": "foodtrucks", "title": "Food Trucks"}, {"alias": "tacos", "title": "Tacos"}], "rating": 5.0, "coordinates": {"latitude": 37.6276206970215, "longitude": -122.425605773926}, "transactions": [], "location": {"address1": "", "address2": null, "address3": "", "city": "San Bruno", "zip_code": "94066", "country": "US", "state": "CA", "display_address": ["San Bruno, CA 94066"]}, "phone": "+16507735397", "display_phone": "(650) 773-5397", "distance": 3564.421752775341}, {"id": "78rWDhqKjjvzFFPPZGJp5A", "alias": "sams-chowdermobile-half-moon-bay", "name": "Sam's Chowdermobile", "image_url": "https://s3-media4.fl.yelpcdn.com/bphoto/4HUbwA98mAWTdv1l55DR2A/o.jpg", "is_closed": false, "url": "https://www.yelp.com/biz/sams-chowdermobile-half-moon-bay?adjust_creative=-1a8ZLzJ76_AvFzvJVcndQ&utm_campaign=yelp_api_v3&utm_medium=api_v3_business_search&utm_source=-1a8ZLzJ76_AvFzvJVcndQ", "review_count": 392, "categories": [{"alias": "seafood", "title": "Seafood"}, {"alias": "foodtrucks", "title": "Food Trucks"}], "rating": 4.0, "coordinates": {"latitude": 37.5024966279369, "longitude": -122.475846760164}, "transactions": [], "price": "$$", "location": {"address1": "4210 N Cabrillo Hwy", "address2": "", "address3": "", "city": "Half Moon Bay", "zip_code": "94019", "country": "US", "state": "CA", "display_address": ["4210 N Cabrillo Hwy", "Half Moon Bay, CA 94019"]}, "phone": "+16502889348", "display_phone": "(650) 288-9348", "distance": 13365.167867829708}, {"id": "VLm-1MV_b8FxlruQ4OLH1Q", "alias": "kleins-deli-san-francisco-3", "name": "Klein's Deli", "image_url": "https://s3-media4.fl.yelpcdn.com/bphoto/uaoBYNKw6H4tsh6M6f03lw/o.jpg", "is_closed": false, "url": "https://www.yelp.com/biz/kleins-deli-san-francisco-3?adjust_creative=-1a8ZLzJ76_AvFzvJVcndQ&utm_campaign=yelp_api_v3&utm_medium=api_v3_business_search&utm_source=-1a8ZLzJ76_AvFzvJVcndQ", "review_count": 401, "categories": [{"alias": "delis", "title": "Delis"}, {"alias": "coffee", "title": "Coffee & Tea"}, {"alias": "sandwiches", "title": "Sandwiches"}], "rating": 3.5, "coordinates": {"latitude": 37.6189204360418, "longitude": -122.384299635887}, "transactions": [], "price": "$$", "location": {"address1": "780 S Airport Blvd", "address2": "Terminal 3 - Gate 83", "address3": "San Francisco International Airport, Terminal 3", "city": "San Francisco", "zip_code": "94128", "country": "US", "state": "CA", "display_address": ["780 S Airport Blvd", "Terminal 3 - Gate 83", "San Francisco International Airport, Terminal 3", "San Francisco, CA 94128"]}, "phone": "+16508219179", "display_phone": "(650) 821-9179", "distance": 1890.1152712695987}, {"id": "5UrQdabJHB6EDNPs43Tkbw", "alias": "pie-five-pizza-san-francisco", "name": "Pie Five Pizza", "image_url": "https://s3-media3.fl.yelpcdn.com/bphoto/vA1UtKMBY-D0LdreBACmRw/o.jpg", "is_closed": false, "url": "https://www.yelp.com/biz/pie-five-pizza-san-francisco?adjust_creative=-1a8ZLzJ76_AvFzvJVcndQ&utm_campaign=yelp_api_v3&utm_medium=api_v3_business_search&utm_source=-1a8ZLzJ76_AvFzvJVcndQ", "review_count": 56, "categories": [{"alias": "pizza", "title": "Pizza"}, {"alias": "food_court", "title": "Food Court"}], "rating": 2.5, "coordinates": {"latitude": 37.6273155212402, "longitude": -122.401092529297}, "transactions": [], "price": "$$", "location": {"address1": "10 Domestic Terminals Departures Level", "address2": "", "address3": "Terminal 3", "city": "San Francisco", "zip_code": "94128", "country": "US", "state": "CA", "display_address": ["10 Domestic Terminals Departures Level", "Terminal 3", "San Francisco, CA 94128"]}, "phone": "+16508218942", "display_phone": "(650) 821-8942", "distance": 1654.593919376044}, {"id": "F5KQrtg-NQ2lGtjeUFinnQ", "alias": "subway-burlingame", "name": "Subway", "image_url": "https://s3-media1.fl.yelpcdn.com/bphoto/2h3-EtGBW-p1v37ULlf3_w/o.jpg", "is_closed": false, "url": "https://www.yelp.com/biz/subway-burlingame?adjust_creative=-1a8ZLzJ76_AvFzvJVcndQ&utm_campaign=yelp_api_v3&utm_medium=api_v3_business_search&utm_source=-1a8ZLzJ76_AvFzvJVcndQ", "review_count": 40, "categories": [{"alias": "sandwiches", "title": "Sandwiches"}, {"alias": "hotdogs", "title": "Fast Food"}], "rating": 3.0, "coordinates": {"latitude": 37.5958358, "longitude": -122.3849685}, "transactions": ["delivery", "pickup"], "price": "$", "location": {"address1": "Burlingame Plz", "address2": "", "address3": "1857 El Camino Real", "city": "Burlingame", "zip_code": "94010", "country": "US", "state": "CA", "display_address": ["Burlingame Plz", "1857 El Camino Real", "Burlingame, CA 94010"]}, "phone": "+16506523455", "display_phone": "(650) 652-3455", "distance": 1306.2562350665191}, {"id": "bzZWrwYTIFPmRCJ0HYGZ-g", "alias": "joe-and-the-juice-san-francisco-11", "name": "JOE & THE JUICE", "image_url": "https://s3-media2.fl.yelpcdn.com/bphoto/r5ur349mNBSrsyJ5x8NvMA/o.jpg", "is_closed": false, "url": "https://www.yelp.com/biz/joe-and-the-juice-san-francisco-11?adjust_creative=-1a8ZLzJ76_AvFzvJVcndQ&utm_campaign=yelp_api_v3&utm_medium=api_v3_business_search&utm_source=-1a8ZLzJ76_AvFzvJVcndQ", "review_count": 52, "categories": [{"alias": "coffee", "title": "Coffee & Tea"}, {"alias": "juicebars", "title": "Juice Bars & Smoothies"}, {"alias": "cafes", "title": "Cafes"}], "rating": 3.5, "coordinates": {"latitude": 37.6187624811447, "longitude": -122.393177250102}, "transactions": [], "price": "$$", "location": {"address1": "106 Upper Loop Rd", "address2": "", "address3": "International Terminal - Gate 99", "city": "San Francisco", "zip_code": "94128", "country": "US", "state": "CA", "display_address": ["106 Upper Loop Rd", "International Terminal - Gate 99", "San Francisco, CA 94128"]}, "phone": "", "display_phone": "", "distance": 1618.3077052498224}, {"id": "aIBySspta3dFkl6cfPaIkg", "alias": "emporio-rulli-san-francisco-5", "name": "Emporio Rulli", "image_url": "https://s3-media3.fl.yelpcdn.com/bphoto/Rnet1UALCrnrhEfG6btSvQ/o.jpg", "is_closed": false, "url": "https://www.yelp.com/biz/emporio-rulli-san-francisco-5?adjust_creative=-1a8ZLzJ76_AvFzvJVcndQ&utm_campaign=yelp_api_v3&utm_medium=api_v3_business_search&utm_source=-1a8ZLzJ76_AvFzvJVcndQ", "review_count": 17, "categories": [{"alias": "cafes", "title": "Cafes"}, {"alias": "coffee", "title": "Coffee & Tea"}], "rating": 2.5, "coordinates": {"latitude": 37.6166845776728, "longitude": -122.389209873602}, "transactions": [], "price": "$", "location": {"address1": "International - Main Hall North Food Ct", "address2": "", "address3": "", "city": "San Francisco", "zip_code": "94128", "country": "US", "state": "CA", "display_address": ["International - Main Hall North Food Ct", "San Francisco, CA 94128"]}, "phone": "+16508210539", "display_phone": "(650) 821-0539", "distance": 1476.106802211497}, {"id": "Vx33sns5f7JCVLwL15Ks4A", "alias": "da-poke-man-san-francisco-4", "name": "Da Poke-Man", "image_url": "https://s3-media3.fl.yelpcdn.com/bphoto/VzggrHRfb88L_3IW6um5lA/o.jpg", "is_closed": false, "url": "https://www.yelp.com/biz/da-poke-man-san-francisco-4?adjust_creative=-1a8ZLzJ76_AvFzvJVcndQ&utm_campaign=yelp_api_v3&utm_medium=api_v3_business_search&utm_source=-1a8ZLzJ76_AvFzvJVcndQ", "review_count": 31, "categories": [{"alias": "poke", "title": "Poke"}, {"alias": "hawaiian", "title": "Hawaiian"}, {"alias": "foodtrucks", "title": "Food Trucks"}], "rating": 4.5, "coordinates": {"latitude": 37.7784199, "longitude": -122.3906212}, "transactions": [], "price": "$$", "location": {"address1": "24 Willie Mays Plz", "address2": null, "address3": null, "city": "San Francisco", "zip_code": "94107", "country": "US", "state": "CA", "display_address": ["24 Willie Mays Plz", "San Francisco, CA 94107"]}, "phone": "+15107899447", "display_phone": "(510) 789-9447", "distance": 19365.347187860698}, {"id": "rM6pPB_qmQ3de5yGpfLT1g", "alias": "lomo-libre-san-francisco-2", "name": "Lomo Libre", "image_url": "https://s3-media1.fl.yelpcdn.com/bphoto/vjnO-EUjFHKoLMy2_JQYvg/o.jpg", "is_closed": false, "url": "https://www.yelp.com/biz/lomo-libre-san-francisco-2?adjust_creative=-1a8ZLzJ76_AvFzvJVcndQ&utm_campaign=yelp_api_v3&utm_medium=api_v3_business_search&utm_source=-1a8ZLzJ76_AvFzvJVcndQ", "review_count": 8, "categories": [{"alias": "foodtrucks", "title": "Food Trucks"}, {"alias": "peruvian", "title": "Peruvian"}], "rating": 5.0, "coordinates": {"latitude": 37.799634, "longitude": -122.436301}, "transactions": [], "location": {"address1": "2101 Lombard St", "address2": "", "address3": null, "city": "San Francisco", "zip_code": "94123", "country": "US", "state": "CA", "display_address": ["2101 Lombard St", "San Francisco, CA 94123"]}, "phone": "+14156198149", "display_phone": "(415) 619-8149", "distance": 22018.675551119464}, {"id": "2foqEQPQVy91S_ze4Win-A", "alias": "lamas-peruvian-truck-daly-city-2", "name": "Lamas Peruvian Truck", "image_url": "https://s3-media3.fl.yelpcdn.com/bphoto/G81twUQQu_9iDQMlyq58AA/o.jpg", "is_closed": false, "url": "https://www.yelp.com/biz/lamas-peruvian-truck-daly-city-2?adjust_creative=-1a8ZLzJ76_AvFzvJVcndQ&utm_campaign=yelp_api_v3&utm_medium=api_v3_business_search&utm_source=-1a8ZLzJ76_AvFzvJVcndQ", "review_count": 32, "categories": [{"alias": "foodtrucks", "title": "Food Trucks"}, {"alias": "peruvian", "title": "Peruvian"}], "rating": 3.5, "coordinates": {"latitude": 37.69158, "longitude": -122.46252}, "transactions": [], "price": "$$", "location": {"address1": "", "address2": null, "address3": null, "city": "Daly City", "zip_code": "94014", "country": "US", "state": "CA", "display_address": ["Daly City, CA 94014"]}, "phone": "+16507979866", "display_phone": "(650) 797-9866", "distance": 10820.37623889101}, {"id": "S5vlbngikVmzz3EiC_Q7ZA", "alias": "mission-cafe-san-francisco", "name": "Mission Cafe", "image_url": "https://s3-media2.fl.yelpcdn.com/bphoto/oT2_v1qFrdfR4QX9D6fQRw/o.jpg", "is_closed": false, "url": "https://www.yelp.com/biz/mission-cafe-san-francisco?adjust_creative=-1a8ZLzJ76_AvFzvJVcndQ&utm_campaign=yelp_api_v3&utm_medium=api_v3_business_search&utm_source=-1a8ZLzJ76_AvFzvJVcndQ", "review_count": 12, "categories": [{"alias": "tradamerican", "title": "American (Traditional)"}], "rating": 2.5, "coordinates": {"latitude": 37.6164070557799, "longitude": -122.38597869873}, "transactions": [], "price": "$$", "location": {"address1": "Sfo - San Francisco International Airport", "address2": "", "address3": "Terminal 3", "city": "San Francisco", "zip_code": "94128", "country": "US", "state": "CA", "display_address": ["Sfo - San Francisco International Airport", "Terminal 3", "San Francisco, CA 94128"]}, "phone": "", "display_phone": "", "distance": 1574.3761347539644}, {"id": "f_C5fj-r1Theb_4j-MxLuw", "alias": "maxs-the-greek-san-francisco", "name": "Max's the Greek", "image_url": "https://s3-media2.fl.yelpcdn.com/bphoto/MOI-jw8iA3-EPhNo99LGqw/o.jpg", "is_closed": false, "url": "https://www.yelp.com/biz/maxs-the-greek-san-francisco?adjust_creative=-1a8ZLzJ76_AvFzvJVcndQ&utm_campaign=yelp_api_v3&utm_medium=api_v3_business_search&utm_source=-1a8ZLzJ76_AvFzvJVcndQ", "review_count": 21, "categories": [{"alias": "hotdogs", "title": "Fast Food"}], "rating": 2.0, "coordinates": {"latitude": 37.6178262868606, "longitude": -122.385474443436}, "transactions": [], "price": "$", "location": {"address1": "San Francisco International Airport", "address2": "", "address3": "Terminal 3", "city": "San Francisco", "zip_code": "94128", "country": "US", "state": "CA", "display_address": ["San Francisco International Airport", "Terminal 3", "San Francisco, CA 94128"]}, "phone": "+16508276638", "display_phone": "(650) 827-6638", "distance": 1732.8917431783084}, {"id": "-9-0I6QN3tVdfueZ31ogMg", "alias": "maxs-delicatessen-san-francisco", "name": "Max's Delicatessen", "image_url": "https://s3-media3.fl.yelpcdn.com/bphoto/iqIzVCdgRvG5LSyrkjswWg/o.jpg", "is_closed": false, "url": "https://www.yelp.com/biz/maxs-delicatessen-san-francisco?adjust_creative=-1a8ZLzJ76_AvFzvJVcndQ&utm_campaign=yelp_api_v3&utm_medium=api_v3_business_search&utm_source=-1a8ZLzJ76_AvFzvJVcndQ", "review_count": 6, "categories": [{"alias": "breakfast_brunch", "title": "Breakfast & Brunch"}, {"alias": "tradamerican", "title": "American (Traditional)"}, {"alias": "desserts", "title": "Desserts"}], "rating": 2.0, "coordinates": {"latitude": 37.613194, "longitude": -122.384806}, "transactions": [], "location": {"address1": "780 S Airport Blvd", "address2": "Gate 70", "address3": "Terminal 3", "city": "San Francisco", "zip_code": "94128", "country": "US", "state": "CA", "display_address": ["780 S Airport Blvd", "Gate 70", "Terminal 3", "San Francisco, CA 94128"]}, "phone": "+16506837131", "display_phone": "(650) 683-7131", "distance": 1350.5053148554089}, {"id": "PxzM_zNIOy7jdtwT-fbB0w", "alias": "minnie-bells-san-francisco-2", "name": "Minnie Bells", "image_url": "https://s3-media2.fl.yelpcdn.com/bphoto/5YNxEigMmu8anIwGkIsEzg/o.jpg", "is_closed": false, "url": "https://www.yelp.com/biz/minnie-bells-san-francisco-2?adjust_creative=-1a8ZLzJ76_AvFzvJVcndQ&utm_campaign=yelp_api_v3&utm_medium=api_v3_business_search&utm_source=-1a8ZLzJ76_AvFzvJVcndQ", "review_count": 15, "categories": [{"alias": "soulfood", "title": "Soul Food"}, {"alias": "foodtrucks", "title": "Food Trucks"}, {"alias": "comfortfood", "title": "Comfort Food"}], "rating": 4.5, "coordinates": {"latitude": 37.7769775466477, "longitude": -122.416963241994}, "transactions": [], "location": {"address1": "", "address2": "", "address3": null, "city": "San Francisco", "zip_code": "94103", "country": "US", "state": "CA", "display_address": ["San Francisco, CA 94103"]}, "phone": "+14152739340", "display_phone": "(415) 273-9340", "distance": 19295.519961025107}, {"id": "Lg73M4FnC1QQmUGpGHD4hA", "alias": "kabob-trolley-san-francisco-5", "name": "Kabob Trolley", "image_url": "https://s3-media2.fl.yelpcdn.com/bphoto/6WneQFOu-WWB-80KhY5TeA/o.jpg", "is_closed": false, "url": "https://www.yelp.com/biz/kabob-trolley-san-francisco-5?adjust_creative=-1a8ZLzJ76_AvFzvJVcndQ&utm_campaign=yelp_api_v3&utm_medium=api_v3_business_search&utm_source=-1a8ZLzJ76_AvFzvJVcndQ", "review_count": 86, "categories": [{"alias": "foodtrucks", "title": "Food Trucks"}, {"alias": "afghani", "title": "Afghan"}, {"alias": "halal", "title": "Halal"}], "rating": 3.5, "coordinates": {"latitude": 37.776774, "longitude": -122.3940414}, "transactions": ["pickup"], "price": "$", "location": {"address1": "298 King St", "address2": "", "address3": "", "city": "San Francisco", "zip_code": "94107", "country": "US", "state": "CA", "display_address": ["298 King St", "San Francisco, CA 94107"]}, "phone": "+14154049756", "display_phone": "(415) 404-9756", "distance": 19178.345191753328}, {"id": "DC42MrpWtqEeWRmMsn6Z8w", "alias": "the-everest-momo-fremont-2", "name": "The Everest Momo", "image_url": "https://s3-media2.fl.yelpcdn.com/bphoto/T2f7tUQ1c104otx9oSdqYw/o.jpg", "is_closed": false, "url": "https://www.yelp.com/biz/the-everest-momo-fremont-2?adjust_creative=-1a8ZLzJ76_AvFzvJVcndQ&utm_campaign=yelp_api_v3&utm_medium=api_v3_business_search&utm_source=-1a8ZLzJ76_AvFzvJVcndQ", "review_count": 23, "categories": [{"alias": "foodtrucks", "title": "Food Trucks"}, {"alias": "indpak", "title": "Indian"}, {"alias": "himalayan", "title": "Himalayan/Nepalese"}], "rating": 4.5, "coordinates": {"latitude": 37.54643, "longitude": -121.98512}, "transactions": [], "price": "$", "location": {"address1": "39233 Fremont Blvd", "address2": null, "address3": null, "city": "Fremont", "zip_code": "94538", "country": "US", "state": "CA", "display_address": ["39233 Fremont Blvd", "Fremont, CA 94538"]}, "phone": "+14088406369", "display_phone": "(408) 840-6369", "distance": 36717.75034019209}, {"id": "Is1KN9f5THyPgo1RjAxRzg", "alias": "madd-mex-cantina-food-truck-san-mateo-3", "name": "Madd Mex Cantina Food Truck", "image_url": "https://s3-media3.fl.yelpcdn.com/bphoto/sqUQfoUkNqzsWDktPN09Dg/o.jpg", "is_closed": false, "url": "https://www.yelp.com/biz/madd-mex-cantina-food-truck-san-mateo-3?adjust_creative=-1a8ZLzJ76_AvFzvJVcndQ&utm_campaign=yelp_api_v3&utm_medium=api_v3_business_search&utm_source=-1a8ZLzJ76_AvFzvJVcndQ", "review_count": 225, "categories": [{"alias": "foodtrucks", "title": "Food Trucks"}, {"alias": "mexican", "title": "Mexican"}, {"alias": "catering", "title": "Caterers"}], "rating": 4.5, "coordinates": {"latitude": 37.5521392822266, "longitude": -122.260833740234}, "transactions": [], "price": "$", "location": {"address1": "", "address2": null, "address3": "", "city": "San Mateo", "zip_code": "94404", "country": "US", "state": "CA", "display_address": ["San Mateo, CA 94404"]}, "phone": "", "display_phone": "", "distance": 12242.674808698506}, {"id": "IwSVLP6TyNonkctyo6Ew2w", "alias": "green-beans-coffee-sfo-international-san-francisco", "name": "Green Beans Coffee @ SFO International", "image_url": "https://s3-media4.fl.yelpcdn.com/bphoto/WCwvMhpvLTJytTTACF4-YA/o.jpg", "is_closed": false, "url": "https://www.yelp.com/biz/green-beans-coffee-sfo-international-san-francisco?adjust_creative=-1a8ZLzJ76_AvFzvJVcndQ&utm_campaign=yelp_api_v3&utm_medium=api_v3_business_search&utm_source=-1a8ZLzJ76_AvFzvJVcndQ", "review_count": 4, "categories": [{"alias": "mexican", "title": "Mexican"}, {"alias": "coffee", "title": "Coffee & Tea"}, {"alias": "bakeries", "title": "Bakeries"}], "rating": 2.5, "coordinates": {"latitude": 37.6166649308064, "longitude": -122.389074638486}, "transactions": [], "location": {"address1": "International Terminal Departures Level", "address2": "", "address3": null, "city": "San Francisco", "zip_code": "", "country": "US", "state": "CA", "display_address": ["International Terminal Departures Level", "San Francisco, CA"]}, "phone": "+16508210510", "display_phone": "(650) 821-0510", "distance": 1478.4094303062752}, {"id": "sMq-mgNYM-LR2dvoSsT3mw", "alias": "sweet-maple-san-francisco-5", "name": "Sweet Maple", "image_url": "https://s3-media3.fl.yelpcdn.com/bphoto/EYbKTpYKWUnis4wLrlAzPw/o.jpg", "is_closed": false, "url": "https://www.yelp.com/biz/sweet-maple-san-francisco-5?adjust_creative=-1a8ZLzJ76_AvFzvJVcndQ&utm_campaign=yelp_api_v3&utm_medium=api_v3_business_search&utm_source=-1a8ZLzJ76_AvFzvJVcndQ", "review_count": 16, "categories": [{"alias": "breakfast_brunch", "title": "Breakfast & Brunch"}, {"alias": "newamerican", "title": "American (New)"}], "rating": 2.5, "coordinates": {"latitude": 37.617315, "longitude": -122.382427}, "transactions": [], "location": {"address1": "Boarding Area D T2 Retail St", "address2": "Terminal 2", "address3": null, "city": "San Francisco", "zip_code": "94128", "country": "US", "state": "CA", "display_address": ["Boarding Area D T2 Retail St", "Terminal 2", "San Francisco, CA 94128"]}, "phone": "", "display_phone": "", "distance": 1835.6001212793803}, {"id": "jCcAuXhCpeJP2n-8ol7mxg", "alias": "kolobok-russian-soul-food-truck-oakland", "name": "Kolobok Russian Soul Food Truck", "image_url": "https://s3-media1.fl.yelpcdn.com/bphoto/k8s1Bfc05Iw7SJXE6VJ74Q/o.jpg", "is_closed": false, "url": "https://www.yelp.com/biz/kolobok-russian-soul-food-truck-oakland?adjust_creative=-1a8ZLzJ76_AvFzvJVcndQ&utm_campaign=yelp_api_v3&utm_medium=api_v3_business_search&utm_source=-1a8ZLzJ76_AvFzvJVcndQ", "review_count": 47, "categories": [{"alias": "foodtrucks", "title": "Food Trucks"}, {"alias": "russian", "title": "Russian"}], "rating": 4.5, "coordinates": {"latitude": 37.7883087690458, "longitude": -122.309032460882}, "transactions": [], "price": "$$", "location": {"address1": null, "address2": null, "address3": "", "city": "Oakland", "zip_code": "94577", "country": "US", "state": "CA", "display_address": ["Oakland, CA 94577"]}, "phone": "+15105996542", "display_phone": "(510) 599-6542", "distance": 21821.560233889242}, {"id": "ZWRBf81OKniDo3aCfaitNg", "alias": "plant-store-71-san-francisco", "name": "Plant Store #71", "image_url": "https://s3-media1.fl.yelpcdn.com/bphoto/l8JMdFAcHKJM78D89_4YXg/o.jpg", "is_closed": false, "url": "https://www.yelp.com/biz/plant-store-71-san-francisco?adjust_creative=-1a8ZLzJ76_AvFzvJVcndQ&utm_campaign=yelp_api_v3&utm_medium=api_v3_business_search&utm_source=-1a8ZLzJ76_AvFzvJVcndQ", "review_count": 6, "categories": [{"alias": "coffee", "title": "Coffee & Tea"}, {"alias": "breakfast_brunch", "title": "Breakfast & Brunch"}], "rating": 2.0, "coordinates": {"latitude": 37.615223, "longitude": -122.389979}, "transactions": [], "location": {"address1": "San Francisco Airport", "address2": "", "address3": "", "city": "San Francisco", "zip_code": "94128", "country": "US", "state": "CA", "display_address": ["San Francisco Airport", "San Francisco, CA 94128"]}, "phone": "", "display_phone": "", "distance": 1300.1019373954541}, {"id": "RZuGdsSkwvpIt3Nnjyga8A", "alias": "serendipity-food-truck-san-francisco", "name": "Serendipity Food Truck", "image_url": "https://s3-media1.fl.yelpcdn.com/bphoto/HM1b2tiz7b-odiAGU6SY8g/o.jpg", "is_closed": false, "url": "https://www.yelp.com/biz/serendipity-food-truck-san-francisco?adjust_creative=-1a8ZLzJ76_AvFzvJVcndQ&utm_campaign=yelp_api_v3&utm_medium=api_v3_business_search&utm_source=-1a8ZLzJ76_AvFzvJVcndQ", "review_count": 23, "categories": [{"alias": "newamerican", "title": "American (New)"}, {"alias": "foodtrucks", "title": "Food Trucks"}, {"alias": "comfortfood", "title": "Comfort Food"}], "rating": 4.5, "coordinates": {"latitude": 37.73053, "longitude": -122.38523}, "transactions": [], "price": "$$", "location": {"address1": "", "address2": null, "address3": "", "city": "San Francisco", "zip_code": "94124", "country": "US", "state": "CA", "display_address": ["San Francisco, CA 94124"]}, "phone": "+19164791437", "display_phone": "(916) 479-1437", "distance": 14055.68203820566}, {"id": "WTtLB137UZmS1WbKrnXuAg", "alias": "borsch-mobile-san-francisco", "name": "Borsch Mobile", "image_url": "https://s3-media4.fl.yelpcdn.com/bphoto/xzNCVt8nwmvwdWuUEEbvaA/o.jpg", "is_closed": false, "url": "https://www.yelp.com/biz/borsch-mobile-san-francisco?adjust_creative=-1a8ZLzJ76_AvFzvJVcndQ&utm_campaign=yelp_api_v3&utm_medium=api_v3_business_search&utm_source=-1a8ZLzJ76_AvFzvJVcndQ", "review_count": 30, "categories": [{"alias": "russian", "title": "Russian"}, {"alias": "foodtrucks", "title": "Food Trucks"}, {"alias": "modern_european", "title": "Modern European"}], "rating": 4.5, "coordinates": {"latitude": 37.7713890075684, "longitude": -122.393447875977}, "transactions": [], "price": "$$", "location": {"address1": "", "address2": "", "address3": null, "city": "San Francisco", "zip_code": "94158", "country": "US", "state": "CA", "display_address": ["San Francisco, CA 94158"]}, "phone": "+14157704371", "display_phone": "(415) 770-4371", "distance": 18975.62042418144}, {"id": "XTJJ_PUQoJKIh31ZIzsFzw", "alias": "cochinita-food-truck-san-francisco-6", "name": "Cochinita Food Truck", "image_url": "https://s3-media2.fl.yelpcdn.com/bphoto/w77SOd2jVJjOh1lwuYQ42w/o.jpg", "is_closed": false, "url": "https://www.yelp.com/biz/cochinita-food-truck-san-francisco-6?adjust_creative=-1a8ZLzJ76_AvFzvJVcndQ&utm_campaign=yelp_api_v3&utm_medium=api_v3_business_search&utm_source=-1a8ZLzJ76_AvFzvJVcndQ", "review_count": 49, "categories": [{"alias": "foodtrucks", "title": "Food Trucks"}, {"alias": "mexican", "title": "Mexican"}], "rating": 4.5, "coordinates": {"latitude": 37.770753, "longitude": -122.3916722}, "transactions": [], "price": "$", "location": {"address1": "601 Mission Blvd N", "address2": null, "address3": "", "city": "San Francisco", "zip_code": "94103", "country": "US", "state": "CA", "display_address": ["601 Mission Blvd N", "San Francisco, CA 94103"]}, "phone": "+14159883663", "display_phone": "(415) 988-3663", "distance": 18511.22221410401}, {"id": "CUwBAy6lrFi4x6Neu9eRVw", "alias": "mini-street-burger-alameda-3", "name": "Mini Street Burger", "image_url": "https://s3-media2.fl.yelpcdn.com/bphoto/Kh-OQKBIclWY1dCeIuu57w/o.jpg", "is_closed": false, "url": "https://www.yelp.com/biz/mini-street-burger-alameda-3?adjust_creative=-1a8ZLzJ76_AvFzvJVcndQ&utm_campaign=yelp_api_v3&utm_medium=api_v3_business_search&utm_source=-1a8ZLzJ76_AvFzvJVcndQ", "review_count": 28, "categories": [{"alias": "foodtrucks", "title": "Food Trucks"}, {"alias": "burgers", "title": "Burgers"}], "rating": 4.0, "coordinates": {"latitude": 37.82628, "longitude": -122.25101}, "transactions": [], "location": {"address1": null, "address2": null, "address3": null, "city": "Alameda", "zip_code": "94611", "country": "US", "state": "CA", "display_address": ["Alameda, CA 94611"]}, "phone": "+15108278982", "display_phone": "(510) 827-8982", "distance": 30597.916473568745}, {"id": "lgheXsHqe66AEZwoPDIEpw", "alias": "taco-coma-newark", "name": "Taco Coma", "image_url": "https://s3-media3.fl.yelpcdn.com/bphoto/DDz5lZDL5lDiRR_Ph0L4Sg/o.jpg", "is_closed": false, "url": "https://www.yelp.com/biz/taco-coma-newark?adjust_creative=-1a8ZLzJ76_AvFzvJVcndQ&utm_campaign=yelp_api_v3&utm_medium=api_v3_business_search&utm_source=-1a8ZLzJ76_AvFzvJVcndQ", "review_count": 3, "categories": [{"alias": "foodstands", "title": "Food Stands"}, {"alias": "tacos", "title": "Tacos"}], "rating": 5.0, "coordinates": {"latitude": 37.53453, "longitude": -122.03284}, "transactions": [], "location": {"address1": "", "address2": null, "address3": "", "city": "Newark", "zip_code": "94560", "country": "US", "state": "CA", "display_address": ["Newark, CA 94560"]}, "phone": "+15106971448", "display_phone": "(510) 697-1448", "distance": 32519.648567244014}, {"id": "C8QSWh3j0xkXwiWC8h-7ag", "alias": "three-amigos-market-and-deli-oakland", "name": "Three Amigos Market & Deli", "image_url": "https://s3-media1.fl.yelpcdn.com/bphoto/B4LNxfyWsiyHibJqkrK1gQ/o.jpg", "is_closed": false, "url": "https://www.yelp.com/biz/three-amigos-market-and-deli-oakland?adjust_creative=-1a8ZLzJ76_AvFzvJVcndQ&utm_campaign=yelp_api_v3&utm_medium=api_v3_business_search&utm_source=-1a8ZLzJ76_AvFzvJVcndQ", "review_count": 9, "categories": [{"alias": "grocery", "title": "Grocery"}, {"alias": "sandwiches", "title": "Sandwiches"}, {"alias": "delis", "title": "Delis"}], "rating": 4.5, "coordinates": {"latitude": 37.791048, "longitude": -122.245431}, "transactions": [], "price": "$", "location": {"address1": "1554 13th Ave", "address2": "", "address3": "", "city": "Oakland", "zip_code": "94606", "country": "US", "state": "CA", "display_address": ["1554 13th Ave", "Oakland, CA 94606"]}, "phone": "+15102612353", "display_phone": "(510) 261-2353", "distance": 24595.58334766349}, {"id": "iA2CQeT9iWbUifpYrqtRbw", "alias": "yeeshaans-grubb-san-mateo-san-mateo-3", "name": "YeeShaans Grubb - San Mateo", "image_url": "https://s3-media1.fl.yelpcdn.com/bphoto/4Feev8zrWsRWiaBTiBDXCQ/o.jpg", "is_closed": false, "url": "https://www.yelp.com/biz/yeeshaans-grubb-san-mateo-san-mateo-3?adjust_creative=-1a8ZLzJ76_AvFzvJVcndQ&utm_campaign=yelp_api_v3&utm_medium=api_v3_business_search&utm_source=-1a8ZLzJ76_AvFzvJVcndQ", "review_count": 4, "categories": [{"alias": "halal", "title": "Halal"}, {"alias": "burgers", "title": "Burgers"}, {"alias": "foodtrucks", "title": "Food Trucks"}], "rating": 5.0, "coordinates": {"latitude": 37.5528491, "longitude": -122.3145976}, "transactions": ["delivery", "pickup"], "location": {"address1": "1619 S El Camino Real", "address2": null, "address3": "", "city": "San Mateo", "zip_code": "94402", "country": "US", "state": "CA", "display_address": ["1619 S El Camino Real", "San Mateo, CA 94402"]}, "phone": "+15106059510", "display_phone": "(510) 605-9510", "distance": 9097.784618120493}, {"id": "uuouQQIFQ1B9mkmcxaAKFA", "alias": "tacos-el-rey-oakland", "name": "Tacos El Rey", "image_url": "https://s3-media2.fl.yelpcdn.com/bphoto/DblyFrtT9uyPCQAUfPbYbQ/o.jpg", "is_closed": false, "url": "https://www.yelp.com/biz/tacos-el-rey-oakland?adjust_creative=-1a8ZLzJ76_AvFzvJVcndQ&utm_campaign=yelp_api_v3&utm_medium=api_v3_business_search&utm_source=-1a8ZLzJ76_AvFzvJVcndQ", "review_count": 9, "categories": [{"alias": "foodtrucks", "title": "Food Trucks"}, {"alias": "mexican", "title": "Mexican"}], "rating": 4.0, "coordinates": {"latitude": 37.8294034, "longitude": -122.2875758}, "transactions": [], "price": "$", "location": {"address1": "40th & Horton", "address2": "", "address3": null, "city": "Oakland", "zip_code": "94608", "country": "US", "state": "CA", "display_address": ["40th & Horton", "Oakland, CA 94608"]}, "phone": "+15108130232", "display_phone": "(510) 813-0232", "distance": 26762.03332343107}, {"id": "X1NgPMMREoTTDAZPe6D-kA", "alias": "whisk-on-wheels-redwood-city", "name": "Whisk on Wheels", "image_url": "https://s3-media1.fl.yelpcdn.com/bphoto/qt-YlMlVl6G5a2wXxHgtJA/o.jpg", "is_closed": false, "url": "https://www.yelp.com/biz/whisk-on-wheels-redwood-city?adjust_creative=-1a8ZLzJ76_AvFzvJVcndQ&utm_campaign=yelp_api_v3&utm_medium=api_v3_business_search&utm_source=-1a8ZLzJ76_AvFzvJVcndQ", "review_count": 119, "categories": [{"alias": "catering", "title": "Caterers"}, {"alias": "foodtrucks", "title": "Food Trucks"}, {"alias": "tradamerican", "title": "American (Traditional)"}], "rating": 4.0, "coordinates": {"latitude": 37.48853, "longitude": -122.22662}, "transactions": [], "price": "$$", "location": {"address1": "", "address2": null, "address3": "", "city": "Redwood City", "zip_code": "94063", "country": "US", "state": "CA", "display_address": ["Redwood City, CA 94063"]}, "phone": "+14159021188", "display_phone": "(415) 902-1188", "distance": 19988.929882923563}, {"id": "_HuNiaPs0WOo4R_3-8Qp1w", "alias": "adams-grub-truck-san-francisco-2", "name": "Adam's Grub Truck", "image_url": "https://s3-media3.fl.yelpcdn.com/bphoto/0mWV2kVfZJyPxats8bu-Rg/o.jpg", "is_closed": false, "url": "https://www.yelp.com/biz/adams-grub-truck-san-francisco-2?adjust_creative=-1a8ZLzJ76_AvFzvJVcndQ&utm_campaign=yelp_api_v3&utm_medium=api_v3_business_search&utm_source=-1a8ZLzJ76_AvFzvJVcndQ", "review_count": 329, "categories": [{"alias": "sandwiches", "title": "Sandwiches"}, {"alias": "asianfusion", "title": "Asian Fusion"}, {"alias": "foodtrucks", "title": "Food Trucks"}], "rating": 4.0, "coordinates": {"latitude": 37.770765, "longitude": -122.391708}, "transactions": ["delivery", "pickup"], "price": "$$", "location": {"address1": "601 Mission Bay Blvd N", "address2": "", "address3": "", "city": "San Francisco", "zip_code": "94158", "country": "US", "state": "CA", "display_address": ["601 Mission Bay Blvd N", "San Francisco, CA 94158"]}, "phone": "+14153078844", "display_phone": "(415) 307-8844", "distance": 18512.50307730479}, {"id": "S9MYGapWK7T7oKUEYLz6Iw", "alias": "the-boneyard-san-bruno-3", "name": "The Boneyard", "image_url": "https://s3-media3.fl.yelpcdn.com/bphoto/uG6EEbOomy5tsXTsHGodxg/o.jpg", "is_closed": false, "url": "https://www.yelp.com/biz/the-boneyard-san-bruno-3?adjust_creative=-1a8ZLzJ76_AvFzvJVcndQ&utm_campaign=yelp_api_v3&utm_medium=api_v3_business_search&utm_source=-1a8ZLzJ76_AvFzvJVcndQ", "review_count": 87, "categories": [{"alias": "foodtrucks", "title": "Food Trucks"}, {"alias": "bbq", "title": "Barbeque"}, {"alias": "catering", "title": "Caterers"}], "rating": 3.5, "coordinates": {"latitude": 37.7939188282826, "longitude": -122.400518522289}, "transactions": ["delivery", "pickup"], "price": "$$", "location": {"address1": "1225 San Mateo Ave", "address2": null, "address3": "", "city": "San Bruno", "zip_code": "94066", "country": "US", "state": "CA", "display_address": ["1225 San Mateo Ave", "San Bruno, CA 94066"]}, "phone": "+14159350696", "display_phone": "(415) 935-0696", "distance": 21089.56458120092}, {"id": "qOKiXV4yxm40m3Ni9vsQlA", "alias": "momo-cook-fremont-3", "name": "MoMo CooK", "image_url": "https://s3-media1.fl.yelpcdn.com/bphoto/ZAM_gtFZMwrxbsxML0Qm2w/o.jpg", "is_closed": false, "url": "https://www.yelp.com/biz/momo-cook-fremont-3?adjust_creative=-1a8ZLzJ76_AvFzvJVcndQ&utm_campaign=yelp_api_v3&utm_medium=api_v3_business_search&utm_source=-1a8ZLzJ76_AvFzvJVcndQ", "review_count": 143, "categories": [{"alias": "chinese", "title": "Chinese"}, {"alias": "indpak", "title": "Indian"}, {"alias": "foodtrucks", "title": "Food Trucks"}], "rating": 4.5, "coordinates": {"latitude": 37.5536230879515, "longitude": -121.982570104301}, "transactions": [], "price": "$", "location": {"address1": "39039 Capitol Ave", "address2": null, "address3": "", "city": "Fremont", "zip_code": "94538", "country": "US", "state": "CA", "display_address": ["39039 Capitol Ave", "Fremont, CA 94538"]}, "phone": "+16012126767", "display_phone": "(601) 212-6767", "distance": 36800.5897604836}, {"id": "y7jjHpDrYUI7YGpE8e31-g", "alias": "pita-and-salt-santa-clara-2", "name": "Pita & Salt", "image_url": "https://s3-media4.fl.yelpcdn.com/bphoto/OzeFWYEgK2L4rl5VOSyEHQ/o.jpg", "is_closed": false, "url": "https://www.yelp.com/biz/pita-and-salt-santa-clara-2?adjust_creative=-1a8ZLzJ76_AvFzvJVcndQ&utm_campaign=yelp_api_v3&utm_medium=api_v3_business_search&utm_source=-1a8ZLzJ76_AvFzvJVcndQ", "review_count": 74, "categories": [{"alias": "mediterranean", "title": "Mediterranean"}, {"alias": "halal", "title": "Halal"}, {"alias": "foodtrucks", "title": "Food Trucks"}], "rating": 4.5, "coordinates": {"latitude": 37.3400871, "longitude": -121.987255}, "transactions": ["delivery", "pickup"], "price": "$", "location": {"address1": null, "address2": null, "address3": "", "city": "Santa Clara", "zip_code": "95051", "country": "US", "state": "CA", "display_address": ["Santa Clara, CA 95051"]}, "phone": "+16128765509", "display_phone": "(612) 876-5509", "distance": 46470.54329927114}, {"id": "8SNGFcMWZkvS4GWDUL8w1Q", "alias": "noon-o-kabob-san-jose-4", "name": "Noon O Kabob", "image_url": "https://s3-media2.fl.yelpcdn.com/bphoto/5GmY5FRw0m0XEWC5XXbVlA/o.jpg", "is_closed": false, "url": "https://www.yelp.com/biz/noon-o-kabob-san-jose-4?adjust_creative=-1a8ZLzJ76_AvFzvJVcndQ&utm_campaign=yelp_api_v3&utm_medium=api_v3_business_search&utm_source=-1a8ZLzJ76_AvFzvJVcndQ", "review_count": 29, "categories": [{"alias": "foodtrucks", "title": "Food Trucks"}, {"alias": "kebab", "title": "Kebab"}, {"alias": "persian", "title": "Persian/Iranian"}], "rating": 4.5, "coordinates": {"latitude": 37.3940232, "longitude": -122.0288052}, "transactions": [], "price": "$$", "location": {"address1": null, "address2": null, "address3": null, "city": "San Jose", "zip_code": "95101", "country": "US", "state": "CA", "display_address": ["San Jose, CA 95101"]}, "phone": "+14083346777", "display_phone": "(408) 334-6777", "distance": 39896.468634423}, {"id": "jW66693LVPlyDtzAoeb7KQ", "alias": "travelin-joe-espresso-berkeley", "name": "Travelin Joe Espresso", "image_url": "https://s3-media2.fl.yelpcdn.com/bphoto/XiqMQnnnbGe4g2SzU4Wm-A/o.jpg", "is_closed": false, "url": "https://www.yelp.com/biz/travelin-joe-espresso-berkeley?adjust_creative=-1a8ZLzJ76_AvFzvJVcndQ&utm_campaign=yelp_api_v3&utm_medium=api_v3_business_search&utm_source=-1a8ZLzJ76_AvFzvJVcndQ", "review_count": 33, "categories": [{"alias": "coffee", "title": "Coffee & Tea"}, {"alias": "foodstands", "title": "Food Stands"}, {"alias": "waffles", "title": "Waffles"}], "rating": 4.5, "coordinates": {"latitude": 37.85571, "longitude": -122.2893}, "transactions": [], "price": "$$", "location": {"address1": "1016 Grayson St", "address2": "", "address3": "", "city": "Berkeley", "zip_code": "94710", "country": "US", "state": "CA", "display_address": ["1016 Grayson St", "Berkeley, CA 94710"]}, "phone": "+15109197279", "display_phone": "(510) 919-7279", "distance": 29470.182651030467}, {"id": "or6vgjw2EFtsWUW_F_eW3A", "alias": "yoshi-food-truck-fremont-2", "name": "Yoshi Food Truck", "image_url": "https://s3-media3.fl.yelpcdn.com/bphoto/YTdMb9ocRxHjMv-CEYwN5g/o.jpg", "is_closed": false, "url": "https://www.yelp.com/biz/yoshi-food-truck-fremont-2?adjust_creative=-1a8ZLzJ76_AvFzvJVcndQ&utm_campaign=yelp_api_v3&utm_medium=api_v3_business_search&utm_source=-1a8ZLzJ76_AvFzvJVcndQ", "review_count": 27, "categories": [{"alias": "foodtrucks", "title": "Food Trucks"}, {"alias": "poke", "title": "Poke"}, {"alias": "japanese", "title": "Japanese"}], "rating": 4.5, "coordinates": {"latitude": 37.494597, "longitude": -121.94160967}, "transactions": [], "location": {"address1": "45500 Fremont Blvd", "address2": null, "address3": "", "city": "Fremont", "zip_code": "94538", "country": "US", "state": "CA", "display_address": ["45500 Fremont Blvd", "Fremont, CA 94538"]}, "phone": "+16693776666", "display_phone": "(669) 377-6666", "distance": 42003.36672024054}, {"id": "kQEPAzL76d_4F8RJwpmYCQ", "alias": "3-3-3-fremont", "name": "3-3-3", "image_url": "https://s3-media1.fl.yelpcdn.com/bphoto/WrUzEXSitGcLpQkVQsUgWg/o.jpg", "is_closed": false, "url": "https://www.yelp.com/biz/3-3-3-fremont?adjust_creative=-1a8ZLzJ76_AvFzvJVcndQ&utm_campaign=yelp_api_v3&utm_medium=api_v3_business_search&utm_source=-1a8ZLzJ76_AvFzvJVcndQ", "review_count": 182, "categories": [{"alias": "korean", "title": "Korean"}, {"alias": "foodtrucks", "title": "Food Trucks"}, {"alias": "indpak", "title": "Indian"}], "rating": 4.0, "coordinates": {"latitude": 37.3595859789331, "longitude": -121.923039561035}, "transactions": [], "price": "$", "location": {"address1": "", "address2": null, "address3": "", "city": "Fremont", "zip_code": "94539", "country": "US", "state": "CA", "display_address": ["Fremont, CA 94539"]}, "phone": "+15104498360", "display_phone": "(510) 449-8360", "distance": 49765.00276536486}, {"id": "0x_iVQeDq7YVMjNGUNuloA", "alias": "holy-cannoli-san-jose-3", "name": "Holy Cannoli", "image_url": "https://s3-media1.fl.yelpcdn.com/bphoto/-2Pxy7VYA8-CTgdvUf58Og/o.jpg", "is_closed": false, "url": "https://www.yelp.com/biz/holy-cannoli-san-jose-3?adjust_creative=-1a8ZLzJ76_AvFzvJVcndQ&utm_campaign=yelp_api_v3&utm_medium=api_v3_business_search&utm_source=-1a8ZLzJ76_AvFzvJVcndQ", "review_count": 58, "categories": [{"alias": "cafes", "title": "Cafes"}, {"alias": "catering", "title": "Caterers"}, {"alias": "foodtrucks", "title": "Food Trucks"}], "rating": 4.5, "coordinates": {"latitude": 37.337298, "longitude": -121.88759}, "transactions": ["delivery", "pickup"], "price": "$", "location": {"address1": "138 E Santa Clara St", "address2": null, "address3": null, "city": "San Jose", "zip_code": "95113", "country": "US", "state": "CA", "display_address": ["138 E Santa Clara St", "San Jose, CA 95113"]}, "phone": "+14085612223", "display_phone": "(408) 561-2223", "distance": 53745.8748433949}, {"id": "-SnIHr-tALmciy_J1VqXRg", "alias": "cielito-lindo-mexican-street-kitchen-san-jos\u00e9-5", "name": "Cielito Lindo Mexican Street Kitchen", "image_url": "https://s3-media4.fl.yelpcdn.com/bphoto/kCSoIcRPwQ0tPiGQh3gEFw/o.jpg", "is_closed": false, "url": "https://www.yelp.com/biz/cielito-lindo-mexican-street-kitchen-san-jos%C3%A9-5?adjust_creative=-1a8ZLzJ76_AvFzvJVcndQ&utm_campaign=yelp_api_v3&utm_medium=api_v3_business_search&utm_source=-1a8ZLzJ76_AvFzvJVcndQ", "review_count": 40, "categories": [{"alias": "foodtrucks", "title": "Food Trucks"}, {"alias": "mexican", "title": "Mexican"}], "rating": 4.0, "coordinates": {"latitude": 37.3853149414062, "longitude": -121.893257141113}, "transactions": [], "price": "$", "location": {"address1": null, "address2": null, "address3": "", "city": "San Jos\u00e9", "zip_code": "95131", "country": "US", "state": "CA", "display_address": ["San Jos\u00e9, CA 95131"]}, "phone": "+16508629836", "display_phone": "(650) 862-9836", "distance": 50052.839292938916}, {"id": "_Y526-jjGzk_fjXBj1EePA", "alias": "paddy-wagon-sliders-san-jose-11", "name": "Paddy Wagon Sliders", "image_url": "https://s3-media1.fl.yelpcdn.com/bphoto/ESoDFDH27crUaTgFNhJB0w/o.jpg", "is_closed": false, "url": "https://www.yelp.com/biz/paddy-wagon-sliders-san-jose-11?adjust_creative=-1a8ZLzJ76_AvFzvJVcndQ&utm_campaign=yelp_api_v3&utm_medium=api_v3_business_search&utm_source=-1a8ZLzJ76_AvFzvJVcndQ", "review_count": 225, "categories": [{"alias": "foodtrucks", "title": "Food Trucks"}, {"alias": "burgers", "title": "Burgers"}, {"alias": "catering", "title": "Caterers"}], "rating": 4.0, "coordinates": {"latitude": 37.3382082, "longitude": -121.8863286}, "transactions": [], "price": "$", "location": {"address1": "", "address2": null, "address3": "", "city": "San Jose", "zip_code": "95112", "country": "US", "state": "CA", "display_address": ["San Jose, CA 95112"]}, "phone": "+14086435254", "display_phone": "(408) 643-5254", "distance": 53782.72978586418}, {"id": "ai1PcujD1397VPMNc8Ffcg", "alias": "cross-hatch-eatery-sunnyvale", "name": "Cross Hatch Eatery", "image_url": "https://s3-media1.fl.yelpcdn.com/bphoto/HPquQAnn8mSmsNlng5Z-_A/o.jpg", "is_closed": false, "url": "https://www.yelp.com/biz/cross-hatch-eatery-sunnyvale?adjust_creative=-1a8ZLzJ76_AvFzvJVcndQ&utm_campaign=yelp_api_v3&utm_medium=api_v3_business_search&utm_source=-1a8ZLzJ76_AvFzvJVcndQ", "review_count": 1, "categories": [{"alias": "asianfusion", "title": "Asian Fusion"}, {"alias": "foodtrucks", "title": "Food Trucks"}], "rating": 1.0, "coordinates": {"latitude": 37.3998374938965, "longitude": -121.997146606445}, "transactions": [], "location": {"address1": "", "address2": null, "address3": "", "city": "Sunnyvale", "zip_code": "94089", "country": "US", "state": "CA", "display_address": ["Sunnyvale, CA 94089"]}, "phone": "+16692322267", "display_phone": "(669) 232-2267", "distance": 39595.48814782141}, {"id": "C9uewBH5505NV0EWYBIJAA", "alias": "lady-and-l-aperitivo-san-jose", "name": "Lady & L'Aperitivo", "image_url": "https://s3-media4.fl.yelpcdn.com/bphoto/3nz0sRE9MlOq_4xVRQRt9w/o.jpg", "is_closed": false, "url": "https://www.yelp.com/biz/lady-and-l-aperitivo-san-jose?adjust_creative=-1a8ZLzJ76_AvFzvJVcndQ&utm_campaign=yelp_api_v3&utm_medium=api_v3_business_search&utm_source=-1a8ZLzJ76_AvFzvJVcndQ", "review_count": 1, "categories": [{"alias": "bakeries", "title": "Bakeries"}, {"alias": "desserts", "title": "Desserts"}, {"alias": "cheesesteaks", "title": "Cheesesteaks"}], "rating": 5.0, "coordinates": {"latitude": 37.2208938598633, "longitude": -121.861633300781}, "transactions": [], "location": {"address1": null, "address2": null, "address3": "", "city": "San Jose", "zip_code": "95120", "country": "US", "state": "CA", "display_address": ["San Jose, CA 95120"]}, "phone": "", "display_phone": "", "distance": 68554.77808494757}, {"id": "GcfdjsPGaXrY02Q3bsKvew", "alias": "el-diferente-san-jose-4", "name": "El Diferente", "image_url": "https://s3-media4.fl.yelpcdn.com/bphoto/bTeYqqJp0YrJkkfM5OiPZg/o.jpg", "is_closed": false, "url": "https://www.yelp.com/biz/el-diferente-san-jose-4?adjust_creative=-1a8ZLzJ76_AvFzvJVcndQ&utm_campaign=yelp_api_v3&utm_medium=api_v3_business_search&utm_source=-1a8ZLzJ76_AvFzvJVcndQ", "review_count": 41, "categories": [{"alias": "foodtrucks", "title": "Food Trucks"}, {"alias": "tacos", "title": "Tacos"}, {"alias": "catering", "title": "Caterers"}], "rating": 5.0, "coordinates": {"latitude": 37.324611, "longitude": -121.880933}, "transactions": [], "price": "$", "location": {"address1": "795 S 2nd St", "address2": "", "address3": null, "city": "San Jose", "zip_code": "95112", "country": "US", "state": "CA", "display_address": ["795 S 2nd St", "San Jose, CA 95112"]}, "phone": "+14086651936", "display_phone": "(408) 665-1936", "distance": 55024.63613116195}, {"id": "IU3OJCdlT92FsM8ohRiWig", "alias": "el-buen-taco-santa-cruz-2", "name": "El Buen Taco", "image_url": "https://s3-media2.fl.yelpcdn.com/bphoto/A_KAIKX-yDTTk2TTkFnFhw/o.jpg", "is_closed": false, "url": "https://www.yelp.com/biz/el-buen-taco-santa-cruz-2?adjust_creative=-1a8ZLzJ76_AvFzvJVcndQ&utm_campaign=yelp_api_v3&utm_medium=api_v3_business_search&utm_source=-1a8ZLzJ76_AvFzvJVcndQ", "review_count": 22, "categories": [{"alias": "tacos", "title": "Tacos"}, {"alias": "foodtrucks", "title": "Food Trucks"}], "rating": 4.5, "coordinates": {"latitude": 36.97017, "longitude": -122.02429}, "transactions": [], "location": {"address1": null, "address2": null, "address3": "", "city": "Santa Cruz", "zip_code": "95060", "country": "US", "state": "CA", "display_address": ["Santa Cruz, CA 95060"]}, "phone": "+18317130703", "display_phone": "(831) 713-0703", "distance": 77134.49495502101}, {"id": "M3vYD__s0sSkOie_Uwft3A", "alias": "taste-buds-bbq-tracy-2", "name": "Taste Buds BBQ", "image_url": "https://s3-media1.fl.yelpcdn.com/bphoto/pX1yclRMlmo1S7Db6iO6Lg/o.jpg", "is_closed": false, "url": "https://www.yelp.com/biz/taste-buds-bbq-tracy-2?adjust_creative=-1a8ZLzJ76_AvFzvJVcndQ&utm_campaign=yelp_api_v3&utm_medium=api_v3_business_search&utm_source=-1a8ZLzJ76_AvFzvJVcndQ", "review_count": 3, "categories": [{"alias": "bbq", "title": "Barbeque"}, {"alias": "catering", "title": "Caterers"}, {"alias": "foodtrucks", "title": "Food Trucks"}], "rating": 4.5, "coordinates": {"latitude": 37.74251, "longitude": -121.42994}, "transactions": [], "location": {"address1": "", "address2": null, "address3": "", "city": "Tracy", "zip_code": "95376", "country": "US", "state": "CA", "display_address": ["Tracy, CA 95376"]}, "phone": "+16502241324", "display_phone": "(650) 224-1324", "distance": 85818.76724837607}, {"id": "sR0Wy3LYGdYV9HLszRlMmw", "alias": "tacos-la-palmita-stockton", "name": "Tacos La Palmita", "image_url": "https://s3-media2.fl.yelpcdn.com/bphoto/pzYoRmZjUQqxZ7qOyU7hUQ/o.jpg", "is_closed": false, "url": "https://www.yelp.com/biz/tacos-la-palmita-stockton?adjust_creative=-1a8ZLzJ76_AvFzvJVcndQ&utm_campaign=yelp_api_v3&utm_medium=api_v3_business_search&utm_source=-1a8ZLzJ76_AvFzvJVcndQ", "review_count": 90, "categories": [{"alias": "tacos", "title": "Tacos"}, {"alias": "foodtrucks", "title": "Food Trucks"}], "rating": 4.5, "coordinates": {"latitude": 38.008129, "longitude": -121.320219}, "transactions": ["delivery", "pickup"], "price": "$", "location": {"address1": "6393 Pacific Ave", "address2": null, "address3": null, "city": "Stockton", "zip_code": "95207", "country": "US", "state": "CA", "display_address": ["6393 Pacific Ave", "Stockton, CA 95207"]}, "phone": "+12093026825", "display_phone": "(209) 302-6825", "distance": 104575.56670791435}, {"id": "bUe6V7qwbr95Zg14Bpi8qw", "alias": "curbside-pies-knob-noster-mo-2", "name": "Curbside Pies", "image_url": "https://s3-media2.fl.yelpcdn.com/bphoto/3MO0dr4ok9hisoHpYSIwcA/o.jpg", "is_closed": false, "url": "https://www.yelp.com/biz/curbside-pies-knob-noster-mo-2?adjust_creative=-1a8ZLzJ76_AvFzvJVcndQ&utm_campaign=yelp_api_v3&utm_medium=api_v3_business_search&utm_source=-1a8ZLzJ76_AvFzvJVcndQ", "review_count": 2, "categories": [{"alias": "pizza", "title": "Pizza"}, {"alias": "foodtrucks", "title": "Food Trucks"}], "rating": 5.0, "coordinates": {"latitude": 38.772474, "longitude": -93.57255}, "transactions": [], "location": {"address1": "1601 W 7th Street Ter", "address2": "", "address3": null, "city": "Knob Noster MO", "zip_code": "65336", "country": "US", "state": "MO", "display_address": ["1601 W 7th Street Ter", "Knob Noster MO, MO 65336"]}, "phone": "+15057508525", "display_phone": "(505) 750-8525", "distance": 2511956.3373698113}]}