{"location": "Mill Valley, CA", "term": "restaurant", "radius": 1979, "businesses": [{"id": "lGWurxVPRJ2RmLl_NMRWUg", "alias": "bungalow-44-mill-valley", "name": "Bungalow 44", "image_url": "https://s3-media2.fl.yelpcdn.com/bphoto/T6_Ic7huKLghxdi6qOYyAQ/o.jpg", "is_closed": false, "url": "https://www.yelp.com/biz/bungalow-44-mill-valley?adjust_creative=-1a8ZLzJ76_AvFzvJVcndQ&utm_campaign=yelp_api_v3&utm_medium=api_v3_business_search&utm_source=-1a8ZLzJ76_AvFzvJVcndQ", "review_count": 554, "categories": [{"alias": "newamerican", "title": "American (New)"}, {"alias": "wine_bars", "title": "Wine Bars"}], "rating": 4.0, "coordinates": {"latitude": 37.9061574542296, "longitude": -122.546017005072}, "transactions": ["delivery", "restaurant_reservation"], "price": "$$$", "location": {"address1": "44 E Blithedale Ave", "address2": null, "address3": "", "city": "Mill Valley", "zip_code": "94941", "country": "US", "state": "CA", "display_address": ["44 E Blithedale Ave", "Mill Valley, CA 94941"]}, "phone": "+14153812500", "display_phone": "(415) 381-2500", "distance": 80.70481223767698}, {"id": "mEeqaxrDcuedZACKQifEzA", "alias": "gravity-tavern-mill-valley", "name": "Gravity Tavern", "image_url": "https://s3-media2.fl.yelpcdn.com/bphoto/WgQ5Cl9zqP8XVmcHFJwkNw/o.jpg", "is_closed": false, "url": "https://www.yelp.com/biz/gravity-tavern-mill-valley?adjust_creative=-1a8ZLzJ76_AvFzvJVcndQ&utm_campaign=yelp_api_v3&utm_medium=api_v3_business_search&utm_source=-1a8ZLzJ76_AvFzvJVcndQ", "review_count": 74, "categories": [{"alias": "steak", "title": "Steakhouses"}, {"alias": "burgers", "title": "Burgers"}, {"alias": "seafood", "title": "Seafood"}], "rating": 3.5, "coordinates": {"latitude": 37.9052676803269, "longitude": -122.547752838623}, "transactions": ["restaurant_reservation"], "location": {"address1": "38 Miller Ave", "address2": "", "address3": null, "city": "Mill Valley", "zip_code": "94941", "country": "US", "state": "CA", "display_address": ["38 Miller Ave", "Mill Valley, CA 94941"]}, "phone": "+14158882108", "display_phone": "(415) 888-2108", "distance": 253.8508836357404}, {"id": "iWnI7jmppz4-nn2r_FXwHg", "alias": "watershed-restaurant-mill-valley", "name": "Watershed Restaurant", "image_url": "https://s3-media2.fl.yelpcdn.com/bphoto/9Wd_TSyyHHj4FkWRMiUQjw/o.jpg", "is_closed": false, "url": "https://www.yelp.com/biz/watershed-restaurant-mill-valley?adjust_creative=-1a8ZLzJ76_AvFzvJVcndQ&utm_campaign=yelp_api_v3&utm_medium=api_v3_business_search&utm_source=-1a8ZLzJ76_AvFzvJVcndQ", "review_count": 58, "categories": [{"alias": "newamerican", "title": "American (New)"}], "rating": 3.5, "coordinates": {"latitude": 37.903851, "longitude": -122.544665}, "transactions": [], "location": {"address1": "129 Miller Ave", "address2": "", "address3": null, "city": "Mill Valley", "zip_code": "94941", "country": "US", "state": "CA", "display_address": ["129 Miller Ave", "Mill Valley, CA 94941"]}, "phone": "+14158882406", "display_phone": "(415) 888-2406", "distance": 365.2209636455358}, {"id": "tR3brFm-x4-fJ6DH2O-QKg", "alias": "bootjack-wood-fired-pizza-mill-valley", "name": "Bootjack Wood Fired Pizza", "image_url": "https://s3-media1.fl.yelpcdn.com/bphoto/pr5tiUpibDhNeWvZTpCHHw/o.jpg", "is_closed": false, "url": "https://www.yelp.com/biz/bootjack-wood-fired-pizza-mill-valley?adjust_creative=-1a8ZLzJ76_AvFzvJVcndQ&utm_campaign=yelp_api_v3&utm_medium=api_v3_business_search&utm_source=-1a8ZLzJ76_AvFzvJVcndQ", "review_count": 51, "categories": [{"alias": "pizza", "title": "Pizza"}, {"alias": "salad", "title": "Salad"}, {"alias": "gluten_free", "title": "Gluten-Free"}], "rating": 4.5, "coordinates": {"latitude": 37.9057, "longitude": -122.54944}, "transactions": [], "location": {"address1": "17 Madrona St", "address2": "", "address3": null, "city": "Mill Valley", "zip_code": "94941", "country": "US", "state": "CA", "display_address": ["17 Madrona St", "Mill Valley, CA 94941"]}, "phone": "+14153834200", "display_phone": "(415) 383-4200", "distance": 357.7481824446418}, {"id": "YN01xIvPUgJeQer8EWgjyQ", "alias": "sol-food-mill-valley", "name": "Sol Food", "image_url": "https://s3-media3.fl.yelpcdn.com/bphoto/aPxzDI3DblQ7QEwVyEDb8w/o.jpg", "is_closed": false, "url": "https://www.yelp.com/biz/sol-food-mill-valley?adjust_creative=-1a8ZLzJ76_AvFzvJVcndQ&utm_campaign=yelp_api_v3&utm_medium=api_v3_business_search&utm_source=-1a8ZLzJ76_AvFzvJVcndQ", "review_count": 806, "categories": [{"alias": "latin", "title": "Latin American"}, {"alias": "puertorican", "title": "Puerto Rican"}], "rating": 4.0, "coordinates": {"latitude": 37.89787, "longitude": -122.53555}, "transactions": ["delivery"], "price": "$$", "location": {"address1": "401 Miller Ave", "address2": "", "address3": "", "city": "Mill Valley", "zip_code": "94941", "country": "US", "state": "CA", "display_address": ["401 Miller Ave", "Mill Valley, CA 94941"]}, "phone": "+14153801986", "display_phone": "(415) 380-1986", "distance": 1328.581364726745}, {"id": "j9Dh9usYAmKN3y4SBJToiw", "alias": "prabh-indian-kitchen-mill-valley", "name": "Prabh Indian Kitchen", "image_url": "https://s3-media3.fl.yelpcdn.com/bphoto/d_L3ML7Jg5ABpsP46zu5Bw/o.jpg", "is_closed": false, "url": "https://www.yelp.com/biz/prabh-indian-kitchen-mill-valley?adjust_creative=-1a8ZLzJ76_AvFzvJVcndQ&utm_campaign=yelp_api_v3&utm_medium=api_v3_business_search&utm_source=-1a8ZLzJ76_AvFzvJVcndQ", "review_count": 338, "categories": [{"alias": "indpak", "title": "Indian"}], "rating": 4.0, "coordinates": {"latitude": 37.90572, "longitude": -122.54626}, "transactions": ["delivery", "restaurant_reservation", "pickup"], "price": "$$", "location": {"address1": "24 Sunnyside Ave", "address2": "", "address3": "", "city": "Mill Valley", "zip_code": "94941", "country": "US", "state": "CA", "display_address": ["24 Sunnyside Ave", "Mill Valley, CA 94941"]}, "phone": "+14153848241", "display_phone": "(415) 384-8241", "distance": 135.17995302106382}, {"id": "U6ttwbdkN87JDFzHdjNrDQ", "alias": "mill-valley-beerworks-mill-valley-3", "name": "Mill Valley Beerworks", "image_url": "https://s3-media1.fl.yelpcdn.com/bphoto/jEGoXRRbKqqLjy49WfGY4w/o.jpg", "is_closed": false, "url": "https://www.yelp.com/biz/mill-valley-beerworks-mill-valley-3?adjust_creative=-1a8ZLzJ76_AvFzvJVcndQ&utm_campaign=yelp_api_v3&utm_medium=api_v3_business_search&utm_source=-1a8ZLzJ76_AvFzvJVcndQ", "review_count": 411, "categories": [{"alias": "breweries", "title": "Breweries"}, {"alias": "newamerican", "title": "American (New)"}, {"alias": "bars", "title": "Bars"}], "rating": 3.5, "coordinates": {"latitude": 37.9053295311584, "longitude": -122.549388489592}, "transactions": ["restaurant_reservation"], "price": "$$", "location": {"address1": "173 Throckmorton Ave", "address2": "", "address3": "", "city": "Mill Valley", "zip_code": "94941", "country": "US", "state": "CA", "display_address": ["173 Throckmorton Ave", "Mill Valley, CA 94941"]}, "phone": "+14158888218", "display_phone": "(415) 888-8218", "distance": 369.22507536693087}, {"id": "2F87iDfZMRslKaqR7GA05Q", "alias": "playa-mill-valley", "name": "Playa", "image_url": "https://s3-media3.fl.yelpcdn.com/bphoto/e9L3PWFYK1FB_zZx3madWA/o.jpg", "is_closed": false, "url": "https://www.yelp.com/biz/playa-mill-valley?adjust_creative=-1a8ZLzJ76_AvFzvJVcndQ&utm_campaign=yelp_api_v3&utm_medium=api_v3_business_search&utm_source=-1a8ZLzJ76_AvFzvJVcndQ", "review_count": 362, "categories": [{"alias": "mexican", "title": "Mexican"}, {"alias": "cocktailbars", "title": "Cocktail Bars"}], "rating": 3.5, "coordinates": {"latitude": 37.9064405829219, "longitude": -122.547084649241}, "transactions": ["delivery", "restaurant_reservation"], "price": "$$", "location": {"address1": "41 Throckmorton Ave", "address2": "", "address3": "", "city": "Mill Valley", "zip_code": "94941", "country": "US", "state": "CA", "display_address": ["41 Throckmorton Ave", "Mill Valley, CA 94941"]}, "phone": "+14153848871", "display_phone": "(415) 384-8871", "distance": 134.71233034708425}, {"id": "Wf_XmV3aJJGZ0mGsiImJWQ", "alias": "kitchen-sunnyside-mill-valley", "name": "Kitchen Sunnyside", "image_url": "https://s3-media4.fl.yelpcdn.com/bphoto/BbtnViJXbXtDh_ViFQLtGQ/o.jpg", "is_closed": false, "url": "https://www.yelp.com/biz/kitchen-sunnyside-mill-valley?adjust_creative=-1a8ZLzJ76_AvFzvJVcndQ&utm_campaign=yelp_api_v3&utm_medium=api_v3_business_search&utm_source=-1a8ZLzJ76_AvFzvJVcndQ", "review_count": 314, "categories": [{"alias": "breakfast_brunch", "title": "Breakfast & Brunch"}], "rating": 4.0, "coordinates": {"latitude": 37.9060139037186, "longitude": -122.546228378154}, "transactions": [], "price": "$$", "location": {"address1": "31 Sunnyside Ave", "address2": "Ste 1", "address3": "", "city": "Mill Valley", "zip_code": "94941", "country": "US", "state": "CA", "display_address": ["31 Sunnyside Ave", "Ste 1", "Mill Valley, CA 94941"]}, "phone": "+14153265159", "display_phone": "(415) 326-5159", "distance": 103.540753441289}, {"id": "oZHgGLs8VWobIfUg3IzkaQ", "alias": "vasco-mill-valley", "name": "Vasco", "image_url": "https://s3-media2.fl.yelpcdn.com/bphoto/3_kvK4wUUP0ZzKsBAyKGtg/o.jpg", "is_closed": false, "url": "https://www.yelp.com/biz/vasco-mill-valley?adjust_creative=-1a8ZLzJ76_AvFzvJVcndQ&utm_campaign=yelp_api_v3&utm_medium=api_v3_business_search&utm_source=-1a8ZLzJ76_AvFzvJVcndQ", "review_count": 268, "categories": [{"alias": "italian", "title": "Italian"}, {"alias": "pizza", "title": "Pizza"}, {"alias": "sandwiches", "title": "Sandwiches"}], "rating": 4.0, "coordinates": {"latitude": 37.90626, "longitude": -122.54854}, "transactions": ["delivery"], "price": "$$", "location": {"address1": "106 Throckmorton Ave", "address2": "", "address3": "", "city": "Mill Valley", "zip_code": "94941", "country": "US", "state": "CA", "display_address": ["106 Throckmorton Ave", "Mill Valley, CA 94941"]}, "phone": "+14153813343", "display_phone": "(415) 381-3343", "distance": 266.40820990058415}, {"id": "U4tP391RMAYf1M9fyyAYhQ", "alias": "piazza-d-angelo-mill-valley-3", "name": "Piazza D'Angelo", "image_url": "https://s3-media2.fl.yelpcdn.com/bphoto/uXL4dojlVrLS9jtVuTSCCQ/o.jpg", "is_closed": false, "url": "https://www.yelp.com/biz/piazza-d-angelo-mill-valley-3?adjust_creative=-1a8ZLzJ76_AvFzvJVcndQ&utm_campaign=yelp_api_v3&utm_medium=api_v3_business_search&utm_source=-1a8ZLzJ76_AvFzvJVcndQ", "review_count": 422, "categories": [{"alias": "italian", "title": "Italian"}, {"alias": "pizza", "title": "Pizza"}], "rating": 3.5, "coordinates": {"latitude": 37.9056564344448, "longitude": -122.548046301654}, "transactions": ["delivery"], "price": "$$", "location": {"address1": "22 Miller Ave", "address2": "", "address3": "", "city": "Mill Valley", "zip_code": "94941", "country": "US", "state": "CA", "display_address": ["22 Miller Ave", "Mill Valley, CA 94941"]}, "phone": "+14153882000", "display_phone": "(415) 388-2000", "distance": 248.45290845070858}, {"id": "peBkGcnVAkqR4vAf2uudRg", "alias": "lams-kitchen-mill-valley", "name": "Lam's Kitchen", "image_url": "https://s3-media1.fl.yelpcdn.com/bphoto/T37BVr-goZmokKPhzDLZTQ/o.jpg", "is_closed": false, "url": "https://www.yelp.com/biz/lams-kitchen-mill-valley?adjust_creative=-1a8ZLzJ76_AvFzvJVcndQ&utm_campaign=yelp_api_v3&utm_medium=api_v3_business_search&utm_source=-1a8ZLzJ76_AvFzvJVcndQ", "review_count": 87, "categories": [{"alias": "chinese", "title": "Chinese"}], "rating": 4.0, "coordinates": {"latitude": 37.9059181, "longitude": -122.5449066}, "transactions": ["delivery"], "price": "$", "location": {"address1": "89 E Blithedale Ave", "address2": "", "address3": "", "city": "Mill Valley", "zip_code": "94941", "country": "US", "state": "CA", "display_address": ["89 E Blithedale Ave", "Mill Valley, CA 94941"]}, "phone": "+14153836368", "display_phone": "(415) 383-6368", "distance": 123.84862066466953}, {"id": "GTQ4D7E2BpuwGH0qY9gHHw", "alias": "boo-koo-mill-valley", "name": "Boo Koo", "image_url": "https://s3-media2.fl.yelpcdn.com/bphoto/UpsSLaJ-imdH1apnimnfSQ/o.jpg", "is_closed": false, "url": "https://www.yelp.com/biz/boo-koo-mill-valley?adjust_creative=-1a8ZLzJ76_AvFzvJVcndQ&utm_campaign=yelp_api_v3&utm_medium=api_v3_business_search&utm_source=-1a8ZLzJ76_AvFzvJVcndQ", "review_count": 373, "categories": [{"alias": "asianfusion", "title": "Asian Fusion"}, {"alias": "vegan", "title": "Vegan"}, {"alias": "gastropubs", "title": "Gastropubs"}], "rating": 3.0, "coordinates": {"latitude": 37.9055746269377, "longitude": -122.547170672969}, "transactions": ["delivery", "pickup"], "price": "$$", "location": {"address1": "25 Miller Ave", "address2": "", "address3": "", "city": "Mill Valley", "zip_code": "94941", "country": "US", "state": "CA", "display_address": ["25 Miller Ave", "Mill Valley, CA 94941"]}, "phone": "+14158888303", "display_phone": "(415) 888-8303", "distance": 193.38701805744827}, {"id": "UH-uUEeVAQThh0ISDQR4rQ", "alias": "phyllis-giant-burgers-mill-valley", "name": "Phyllis' Giant Burgers", "image_url": "https://s3-media3.fl.yelpcdn.com/bphoto/HgRI8aBEB4UdGfqLiOVQpA/o.jpg", "is_closed": false, "url": "https://www.yelp.com/biz/phyllis-giant-burgers-mill-valley?adjust_creative=-1a8ZLzJ76_AvFzvJVcndQ&utm_campaign=yelp_api_v3&utm_medium=api_v3_business_search&utm_source=-1a8ZLzJ76_AvFzvJVcndQ", "review_count": 71, "categories": [{"alias": "burgers", "title": "Burgers"}, {"alias": "hotdogs", "title": "Fast Food"}], "rating": 4.0, "coordinates": {"latitude": 37.9063, "longitude": -122.54621}, "transactions": [], "price": "$$", "location": {"address1": "8 E Blithedale Ave", "address2": "", "address3": "", "city": "Mill Valley", "zip_code": "94941", "country": "US", "state": "CA", "display_address": ["8 E Blithedale Ave", "Mill Valley, CA 94941"]}, "phone": "+14153816010", "display_phone": "(415) 381-6010", "distance": 61.211873006658216}, {"id": "HSaoLtFvcmFTNRVM8ioBjw", "alias": "bootjack-wood-fired-pizza-mill-valley-2", "name": "Bootjack Wood Fired Pizza", "image_url": "https://s3-media3.fl.yelpcdn.com/bphoto/r7XAu3S0pHU9SH2uYC_iVw/o.jpg", "is_closed": false, "url": "https://www.yelp.com/biz/bootjack-wood-fired-pizza-mill-valley-2?adjust_creative=-1a8ZLzJ76_AvFzvJVcndQ&utm_campaign=yelp_api_v3&utm_medium=api_v3_business_search&utm_source=-1a8ZLzJ76_AvFzvJVcndQ", "review_count": 227, "categories": [{"alias": "newamerican", "title": "American (New)"}, {"alias": "pizza", "title": "Pizza"}], "rating": 4.0, "coordinates": {"latitude": 37.9059188, "longitude": -122.5495333}, "transactions": [], "price": "$$$", "location": {"address1": "17 Madrona St", "address2": "", "address3": "", "city": "Mill Valley", "zip_code": "94941", "country": "US", "state": "CA", "display_address": ["17 Madrona St", "Mill Valley, CA 94941"]}, "phone": "+14153834200", "display_phone": "(415) 383-4200", "distance": 357.1390750958422}, {"id": "Up3f6yrU2eFcxukXUZdXXQ", "alias": "avatars-restaurant-mill-valley", "name": "Avatar's Restaurant", "image_url": "https://s3-media1.fl.yelpcdn.com/bphoto/hA9eao7--26HKX3CP2Wk7g/o.jpg", "is_closed": false, "url": "https://www.yelp.com/biz/avatars-restaurant-mill-valley?adjust_creative=-1a8ZLzJ76_AvFzvJVcndQ&utm_campaign=yelp_api_v3&utm_medium=api_v3_business_search&utm_source=-1a8ZLzJ76_AvFzvJVcndQ", "review_count": 342, "categories": [{"alias": "indpak", "title": "Indian"}, {"alias": "asianfusion", "title": "Asian Fusion"}], "rating": 4.0, "coordinates": {"latitude": 37.90578, "longitude": -122.54943}, "transactions": ["delivery"], "price": "$", "location": {"address1": "15 Madrona St", "address2": "", "address3": "", "city": "Mill Valley", "zip_code": "94941", "country": "US", "state": "CA", "display_address": ["15 Madrona St", "Mill Valley, CA 94941"]}, "phone": "+14153818293", "display_phone": "(415) 381-8293", "distance": 353.1995148846327}, {"id": "PaDLrOd7-yvKCGpunJSiSg", "alias": "super-duper-burgers-mill-valley-2", "name": "Super Duper Burgers", "image_url": "https://s3-media3.fl.yelpcdn.com/bphoto/hBRq3y_XtHl1S8WaPwm3NA/o.jpg", "is_closed": false, "url": "https://www.yelp.com/biz/super-duper-burgers-mill-valley-2?adjust_creative=-1a8ZLzJ76_AvFzvJVcndQ&utm_campaign=yelp_api_v3&utm_medium=api_v3_business_search&utm_source=-1a8ZLzJ76_AvFzvJVcndQ", "review_count": 546, "categories": [{"alias": "burgers", "title": "Burgers"}, {"alias": "tradamerican", "title": "American (Traditional)"}], "rating": 4.0, "coordinates": {"latitude": 37.8958237, "longitude": -122.535711374903}, "transactions": ["delivery"], "price": "$$", "location": {"address1": "430 Miller Ave", "address2": "", "address3": "", "city": "Mill Valley", "zip_code": "94941", "country": "US", "state": "CA", "display_address": ["430 Miller Ave", "Mill Valley, CA 94941"]}, "phone": "+14153808555", "display_phone": "(415) 380-8555", "distance": 1499.9139595952356}, {"id": "BUK0wdx-HNUeFMnrBfhSpg", "alias": "mill-valley-market-mill-valley", "name": "Mill Valley Market", "image_url": "https://s3-media2.fl.yelpcdn.com/bphoto/NWHv8mHIZ3bjEWYM2lVXpA/o.jpg", "is_closed": false, "url": "https://www.yelp.com/biz/mill-valley-market-mill-valley?adjust_creative=-1a8ZLzJ76_AvFzvJVcndQ&utm_campaign=yelp_api_v3&utm_medium=api_v3_business_search&utm_source=-1a8ZLzJ76_AvFzvJVcndQ", "review_count": 178, "categories": [{"alias": "grocery", "title": "Grocery"}, {"alias": "delis", "title": "Delis"}, {"alias": "beer_and_wine", "title": "Beer, Wine & Spirits"}], "rating": 4.5, "coordinates": {"latitude": 37.90688, "longitude": -122.54738}, "transactions": [], "price": "$$", "location": {"address1": "12 Corte Madera Ave", "address2": "", "address3": "", "city": "Mill Valley", "zip_code": "94941", "country": "US", "state": "CA", "display_address": ["12 Corte Madera Ave", "Mill Valley, CA 94941"]}, "phone": "+14153883222", "display_phone": "(415) 388-3222", "distance": 157.69466352199703}, {"id": "PMKHqnEC56o64SbSI0jarw", "alias": "samurai-mill-valley", "name": "Samurai", "image_url": "https://s3-media2.fl.yelpcdn.com/bphoto/2S1i3s3jyXg5-LqJeFJ6uA/o.jpg", "is_closed": false, "url": "https://www.yelp.com/biz/samurai-mill-valley?adjust_creative=-1a8ZLzJ76_AvFzvJVcndQ&utm_campaign=yelp_api_v3&utm_medium=api_v3_business_search&utm_source=-1a8ZLzJ76_AvFzvJVcndQ", "review_count": 204, "categories": [{"alias": "sushi", "title": "Sushi Bars"}, {"alias": "japanese", "title": "Japanese"}], "rating": 4.0, "coordinates": {"latitude": 37.89643, "longitude": -122.5354}, "transactions": [], "price": "$$", "location": {"address1": "425 Miller Ave", "address2": "", "address3": "", "city": "Mill Valley", "zip_code": "94941", "country": "US", "state": "CA", "display_address": ["425 Miller Ave", "Mill Valley, CA 94941"]}, "phone": "+14153813680", "display_phone": "(415) 381-3680", "distance": 1485.5220138080147}, {"id": "pzboWKx509TIwK52h3ObPQ", "alias": "joes-taco-lounge-and-salsa-mill-valley", "name": "Joe's Taco Lounge & Salsa", "image_url": "https://s3-media2.fl.yelpcdn.com/bphoto/ccNObhjLrLNLdtIJh0vKkQ/o.jpg", "is_closed": false, "url": "https://www.yelp.com/biz/joes-taco-lounge-and-salsa-mill-valley?adjust_creative=-1a8ZLzJ76_AvFzvJVcndQ&utm_campaign=yelp_api_v3&utm_medium=api_v3_business_search&utm_source=-1a8ZLzJ76_AvFzvJVcndQ", "review_count": 489, "categories": [{"alias": "mexican", "title": "Mexican"}], "rating": 3.5, "coordinates": {"latitude": 37.897198734067, "longitude": -122.537070845197}, "transactions": ["delivery"], "price": "$$", "location": {"address1": "382 Miller Ave", "address2": "", "address3": "", "city": "Mill Valley", "zip_code": "94941", "country": "US", "state": "CA", "display_address": ["382 Miller Ave", "Mill Valley, CA 94941"]}, "phone": "+14153838164", "display_phone": "(415) 383-8164", "distance": 1306.2045009869962}, {"id": "iRbNvt98whBitdLO-FlOvg", "alias": "la-ginestra-mill-valley", "name": "La Ginestra", "image_url": "https://s3-media2.fl.yelpcdn.com/bphoto/XA7XmMnrrKteImwNycmtxg/o.jpg", "is_closed": false, "url": "https://www.yelp.com/biz/la-ginestra-mill-valley?adjust_creative=-1a8ZLzJ76_AvFzvJVcndQ&utm_campaign=yelp_api_v3&utm_medium=api_v3_business_search&utm_source=-1a8ZLzJ76_AvFzvJVcndQ", "review_count": 170, "categories": [{"alias": "italian", "title": "Italian"}], "rating": 3.5, "coordinates": {"latitude": 37.9057699, "longitude": -122.54862}, "transactions": [], "price": "$$", "location": {"address1": "127 Throckmorton Ave", "address2": "", "address3": "", "city": "Mill Valley", "zip_code": "94941", "country": "US", "state": "CA", "display_address": ["127 Throckmorton Ave", "Mill Valley, CA 94941"]}, "phone": "+14153880224", "display_phone": "(415) 388-0224", "distance": 290.1468340879671}, {"id": "q4cKqtJq2eEFc3aU1gB_Lw", "alias": "flour-craft-mill-valley-mill-valley", "name": "Flour Craft Mill Valley", "image_url": "https://s3-media4.fl.yelpcdn.com/bphoto/mTJfL4X4ydAso_JijJYNuQ/o.jpg", "is_closed": false, "url": "https://www.yelp.com/biz/flour-craft-mill-valley-mill-valley?adjust_creative=-1a8ZLzJ76_AvFzvJVcndQ&utm_campaign=yelp_api_v3&utm_medium=api_v3_business_search&utm_source=-1a8ZLzJ76_AvFzvJVcndQ", "review_count": 70, "categories": [{"alias": "bakeries", "title": "Bakeries"}, {"alias": "gluten_free", "title": "Gluten-Free"}, {"alias": "breakfast_brunch", "title": "Breakfast & Brunch"}], "rating": 3.5, "coordinates": {"latitude": 37.9047399, "longitude": -122.54599}, "transactions": [], "price": "$$", "location": {"address1": "129 Miller Ave", "address2": "", "address3": "Mill Valley Lumber Yard", "city": "Mill Valley", "zip_code": "94941", "country": "US", "state": "CA", "display_address": ["129 Miller Ave", "Mill Valley Lumber Yard", "Mill Valley, CA 94941"]}, "phone": "+14153848244", "display_phone": "(415) 384-8244", "distance": 365.2209636455358}, {"id": "DnHKSSSGDfJ25BHRFkqbag", "alias": "sweetwater-music-hall-mill-valley", "name": "Sweetwater Music Hall", "image_url": "https://s3-media3.fl.yelpcdn.com/bphoto/aX5549x2e_LXTfncCJePWQ/o.jpg", "is_closed": false, "url": "https://www.yelp.com/biz/sweetwater-music-hall-mill-valley?adjust_creative=-1a8ZLzJ76_AvFzvJVcndQ&utm_campaign=yelp_api_v3&utm_medium=api_v3_business_search&utm_source=-1a8ZLzJ76_AvFzvJVcndQ", "review_count": 236, "categories": [{"alias": "musicvenues", "title": "Music Venues"}, {"alias": "cafes", "title": "Cafes"}, {"alias": "newamerican", "title": "American (New)"}], "rating": 3.5, "coordinates": {"latitude": 37.907007, "longitude": -122.548325}, "transactions": [], "price": "$$", "location": {"address1": "19 Corte Madera Ave", "address2": "", "address3": "", "city": "Mill Valley", "zip_code": "94941", "country": "US", "state": "CA", "display_address": ["19 Corte Madera Ave", "Mill Valley, CA 94941"]}, "phone": "+14153883850", "display_phone": "(415) 388-3850", "distance": 237.96216893636205}, {"id": "3eNGpCXH0VfUghwjHWP7ag", "alias": "bol-superfood-cafe-mill-valley", "name": "BOL Superfood Cafe", "image_url": "https://s3-media1.fl.yelpcdn.com/bphoto/S4F6Dv-fROQIoYTBjN2mow/o.jpg", "is_closed": false, "url": "https://www.yelp.com/biz/bol-superfood-cafe-mill-valley?adjust_creative=-1a8ZLzJ76_AvFzvJVcndQ&utm_campaign=yelp_api_v3&utm_medium=api_v3_business_search&utm_source=-1a8ZLzJ76_AvFzvJVcndQ", "review_count": 21, "categories": [{"alias": "acaibowls", "title": "Acai Bowls"}, {"alias": "juicebars", "title": "Juice Bars & Smoothies"}, {"alias": "vegan", "title": "Vegan"}], "rating": 4.5, "coordinates": {"latitude": 37.903851, "longitude": -122.544665}, "transactions": ["delivery", "pickup"], "price": "$$", "location": {"address1": "129 Miller Ave", "address2": "Ste 803", "address3": null, "city": "Mill Valley", "zip_code": "94941", "country": "US", "state": "CA", "display_address": ["129 Miller Ave", "Ste 803", "Mill Valley, CA 94941"]}, "phone": "+14158906755", "display_phone": "(415) 890-6755", "distance": 365.0931631446872}, {"id": "ta-Q87qYJvdSQk47mAlgQg", "alias": "tamalpie-pizzeria-mill-valley-3", "name": "Tamalpie Pizzeria", "image_url": "https://s3-media4.fl.yelpcdn.com/bphoto/iFxB85JM3-b7jZv4Z2wD-w/o.jpg", "is_closed": false, "url": "https://www.yelp.com/biz/tamalpie-pizzeria-mill-valley-3?adjust_creative=-1a8ZLzJ76_AvFzvJVcndQ&utm_campaign=yelp_api_v3&utm_medium=api_v3_business_search&utm_source=-1a8ZLzJ76_AvFzvJVcndQ", "review_count": 300, "categories": [{"alias": "pizza", "title": "Pizza"}, {"alias": "wine_bars", "title": "Wine Bars"}, {"alias": "tapasmallplates", "title": "Tapas/Small Plates"}], "rating": 3.5, "coordinates": {"latitude": 37.89523, "longitude": -122.53361}, "transactions": ["restaurant_reservation"], "price": "$$", "location": {"address1": "477 Miller Ave", "address2": null, "address3": "", "city": "Mill Valley", "zip_code": "94941", "country": "US", "state": "CA", "display_address": ["477 Miller Ave", "Mill Valley, CA 94941"]}, "phone": "+14153887437", "display_phone": "(415) 388-7437", "distance": 1668.1279600236653}, {"id": "4q0hzjmI5VCoTxyjbJ04RA", "alias": "amberjack-mill-valley", "name": "Amberjack", "image_url": "https://s3-media3.fl.yelpcdn.com/bphoto/Eyuj37VytZWHnkY5PdYerg/o.jpg", "is_closed": false, "url": "https://www.yelp.com/biz/amberjack-mill-valley?adjust_creative=-1a8ZLzJ76_AvFzvJVcndQ&utm_campaign=yelp_api_v3&utm_medium=api_v3_business_search&utm_source=-1a8ZLzJ76_AvFzvJVcndQ", "review_count": 97, "categories": [{"alias": "japanese", "title": "Japanese"}, {"alias": "sushi", "title": "Sushi Bars"}], "rating": 3.5, "coordinates": {"latitude": 37.9058004, "longitude": -122.5452319}, "transactions": ["delivery"], "price": "$$", "location": {"address1": "72 E Blithedale Ave", "address2": null, "address3": "", "city": "Mill Valley", "zip_code": "94941", "country": "US", "state": "CA", "display_address": ["72 E Blithedale Ave", "Mill Valley, CA 94941"]}, "phone": "+14153831327", "display_phone": "(415) 383-1327", "distance": 120.89835559614664}, {"id": "T7aLQJ0mPi7ymuFx1F5mhQ", "alias": "urban-remedy-mill-valley-3", "name": "Urban Remedy", "image_url": "https://s3-media1.fl.yelpcdn.com/bphoto/1YGoB1SUb-vnAzvKjH0kuA/o.jpg", "is_closed": false, "url": "https://www.yelp.com/biz/urban-remedy-mill-valley-3?adjust_creative=-1a8ZLzJ76_AvFzvJVcndQ&utm_campaign=yelp_api_v3&utm_medium=api_v3_business_search&utm_source=-1a8ZLzJ76_AvFzvJVcndQ", "review_count": 35, "categories": [{"alias": "juicebars", "title": "Juice Bars & Smoothies"}, {"alias": "organic_stores", "title": "Organic Stores"}, {"alias": "vegan", "title": "Vegan"}], "rating": 4.0, "coordinates": {"latitude": 37.9053633, "longitude": -122.5479219}, "transactions": ["pickup"], "price": "$$", "location": {"address1": "34 Miller Ave", "address2": "", "address3": "", "city": "Mill Valley", "zip_code": "94941", "country": "US", "state": "CA", "display_address": ["34 Miller Ave", "Mill Valley, CA 94941"]}, "phone": "+14153835300", "display_phone": "(415) 383-5300", "distance": 258.1843033768687}, {"id": "6orqUrZAo61ZsT7U51oUmQ", "alias": "antones-east-coast-sub-shop-mill-valley", "name": "Antone's East Coast Sub Shop", "image_url": "https://s3-media4.fl.yelpcdn.com/bphoto/yV_guvEbw6UWz2xXakXBbQ/o.jpg", "is_closed": false, "url": "https://www.yelp.com/biz/antones-east-coast-sub-shop-mill-valley?adjust_creative=-1a8ZLzJ76_AvFzvJVcndQ&utm_campaign=yelp_api_v3&utm_medium=api_v3_business_search&utm_source=-1a8ZLzJ76_AvFzvJVcndQ", "review_count": 96, "categories": [{"alias": "sandwiches", "title": "Sandwiches"}], "rating": 4.5, "coordinates": {"latitude": 37.89302, "longitude": -122.53142}, "transactions": ["pickup"], "price": "$", "location": {"address1": "558 Miller Ave", "address2": "", "address3": "", "city": "Mill Valley", "zip_code": "94941", "country": "US", "state": "CA", "display_address": ["558 Miller Ave", "Mill Valley, CA 94941"]}, "phone": "+14158883585", "display_phone": "(415) 888-3585", "distance": 1974.963887646755}, {"id": "sTOCRppE4UKMyv6z8pgS0w", "alias": "stefanos-pizzas-mill-valley", "name": "Stefano's Pizzas", "image_url": "https://s3-media1.fl.yelpcdn.com/bphoto/MBz2AuurOmx4SiuUadLKJQ/o.jpg", "is_closed": false, "url": "https://www.yelp.com/biz/stefanos-pizzas-mill-valley?adjust_creative=-1a8ZLzJ76_AvFzvJVcndQ&utm_campaign=yelp_api_v3&utm_medium=api_v3_business_search&utm_source=-1a8ZLzJ76_AvFzvJVcndQ", "review_count": 121, "categories": [{"alias": "pizza", "title": "Pizza"}], "rating": 3.0, "coordinates": {"latitude": 37.90666, "longitude": -122.54596}, "transactions": ["delivery", "pickup"], "price": "$", "location": {"address1": "11 E Blithedale Ave", "address2": "", "address3": "", "city": "Mill Valley", "zip_code": "94941", "country": "US", "state": "CA", "display_address": ["11 E Blithedale Ave", "Mill Valley, CA 94941"]}, "phone": "+14153839666", "display_phone": "(415) 383-9666", "distance": 31.33645420380655}, {"id": "mBgAJfJvevO7qtObV3k-hQ", "alias": "grillys-restaurant-mill-valley", "name": "Grilly's Restaurant", "image_url": "https://s3-media3.fl.yelpcdn.com/bphoto/bRNL_YD2LTIaGpAQQeIDFw/o.jpg", "is_closed": false, "url": "https://www.yelp.com/biz/grillys-restaurant-mill-valley?adjust_creative=-1a8ZLzJ76_AvFzvJVcndQ&utm_campaign=yelp_api_v3&utm_medium=api_v3_business_search&utm_source=-1a8ZLzJ76_AvFzvJVcndQ", "review_count": 245, "categories": [{"alias": "mexican", "title": "Mexican"}, {"alias": "gluten_free", "title": "Gluten-Free"}, {"alias": "vegetarian", "title": "Vegetarian"}], "rating": 3.0, "coordinates": {"latitude": 37.895072, "longitude": -122.533065}, "transactions": ["delivery"], "price": "$", "location": {"address1": "493 Miller Ave", "address2": "", "address3": "", "city": "Mill Valley", "zip_code": "94941", "country": "US", "state": "CA", "display_address": ["493 Miller Ave", "Mill Valley, CA 94941"]}, "phone": "+14153813278", "display_phone": "(415) 381-3278", "distance": 1704.7515875508554}, {"id": "ZLWwRGfCq_FayT1_4HFySg", "alias": "juice-girl-mill-valley-4", "name": "Juice Girl", "image_url": "https://s3-media2.fl.yelpcdn.com/bphoto/MNBOVgYOMjd0ixoWum-WEg/o.jpg", "is_closed": false, "url": "https://www.yelp.com/biz/juice-girl-mill-valley-4?adjust_creative=-1a8ZLzJ76_AvFzvJVcndQ&utm_campaign=yelp_api_v3&utm_medium=api_v3_business_search&utm_source=-1a8ZLzJ76_AvFzvJVcndQ", "review_count": 53, "categories": [{"alias": "juicebars", "title": "Juice Bars & Smoothies"}, {"alias": "bakeries", "title": "Bakeries"}, {"alias": "sandwiches", "title": "Sandwiches"}], "rating": 4.5, "coordinates": {"latitude": 37.8946724, "longitude": -122.5307121}, "transactions": [], "price": "$$", "location": {"address1": "45 Camino Alto", "address2": "", "address3": "", "city": "Mill Valley", "zip_code": "94941", "country": "US", "state": "CA", "display_address": ["45 Camino Alto", "Mill Valley, CA 94941"]}, "phone": "+14153226160", "display_phone": "(415) 322-6160", "distance": 1880.0076280630205}, {"id": "b0mpVEYVdnKdIzgclumdwQ", "alias": "mill-valley-coffee-shop-mill-valley", "name": "Mill Valley Coffee Shop", "image_url": "https://s3-media2.fl.yelpcdn.com/bphoto/m2nFRCGM2nhhG26xS9k0Fw/o.jpg", "is_closed": false, "url": "https://www.yelp.com/biz/mill-valley-coffee-shop-mill-valley?adjust_creative=-1a8ZLzJ76_AvFzvJVcndQ&utm_campaign=yelp_api_v3&utm_medium=api_v3_business_search&utm_source=-1a8ZLzJ76_AvFzvJVcndQ", "review_count": 64, "categories": [{"alias": "coffee", "title": "Coffee & Tea"}, {"alias": "breakfast_brunch", "title": "Breakfast & Brunch"}], "rating": 3.5, "coordinates": {"latitude": 37.8983379900455, "longitude": -122.5375020504}, "transactions": [], "price": "$$", "location": {"address1": "4 Locust Ave", "address2": "", "address3": "", "city": "Mill Valley", "zip_code": "94941", "country": "US", "state": "CA", "display_address": ["4 Locust Ave", "Mill Valley, CA 94941"]}, "phone": "+14153886958", "display_phone": "(415) 388-6958", "distance": 1186.6992431252095}, {"id": "121cMFrdS0LVz1YtiF7eEw", "alias": "7-eleven-mill-valley-2", "name": "7-Eleven", "image_url": "https://s3-media2.fl.yelpcdn.com/bphoto/wnaPuZgIfDkCyhktWFgyLA/o.jpg", "is_closed": false, "url": "https://www.yelp.com/biz/7-eleven-mill-valley-2?adjust_creative=-1a8ZLzJ76_AvFzvJVcndQ&utm_campaign=yelp_api_v3&utm_medium=api_v3_business_search&utm_source=-1a8ZLzJ76_AvFzvJVcndQ", "review_count": 12, "categories": [{"alias": "coffee", "title": "Coffee & Tea"}, {"alias": "burgers", "title": "Burgers"}, {"alias": "pizza", "title": "Pizza"}], "rating": 4.0, "coordinates": {"latitude": 37.8985697520382, "longitude": -122.537633478642}, "transactions": [], "price": "$", "location": {"address1": "349 Miller Ave", "address2": "", "address3": "", "city": "Mill Valley", "zip_code": "94941", "country": "US", "state": "CA", "display_address": ["349 Miller Ave", "Mill Valley, CA 94941"]}, "phone": "+14153833355", "display_phone": "(415) 383-3355", "distance": 1154.0246584719257}, {"id": "M7p0TBn_UAU6JEULk0TVYg", "alias": "lakshmi-lassi-and-chai-mill-valley", "name": "Lakshmi Lassi and Chai", "image_url": "", "is_closed": false, "url": "https://www.yelp.com/biz/lakshmi-lassi-and-chai-mill-valley?adjust_creative=-1a8ZLzJ76_AvFzvJVcndQ&utm_campaign=yelp_api_v3&utm_medium=api_v3_business_search&utm_source=-1a8ZLzJ76_AvFzvJVcndQ", "review_count": 3, "categories": [{"alias": "farmersmarket", "title": "Farmers Market"}, {"alias": "indpak", "title": "Indian"}, {"alias": "juicebars", "title": "Juice Bars & Smoothies"}], "rating": 3.5, "coordinates": {"latitude": 37.90762, "longitude": -122.54819}, "transactions": [], "location": {"address1": "", "address2": "", "address3": "", "city": "Mill Valley", "zip_code": "94941", "country": "US", "state": "CA", "display_address": ["Mill Valley, CA 94941"]}, "phone": "", "display_phone": "", "distance": 103.38112505635911}, {"id": "rM6pPB_qmQ3de5yGpfLT1g", "alias": "lomo-libre-san-francisco-2", "name": "Lomo Libre", "image_url": "https://s3-media1.fl.yelpcdn.com/bphoto/vjnO-EUjFHKoLMy2_JQYvg/o.jpg", "is_closed": false, "url": "https://www.yelp.com/biz/lomo-libre-san-francisco-2?adjust_creative=-1a8ZLzJ76_AvFzvJVcndQ&utm_campaign=yelp_api_v3&utm_medium=api_v3_business_search&utm_source=-1a8ZLzJ76_AvFzvJVcndQ", "review_count": 8, "categories": [{"alias": "foodtrucks", "title": "Food Trucks"}, {"alias": "peruvian", "title": "Peruvian"}], "rating": 5.0, "coordinates": {"latitude": 37.799634, "longitude": -122.436301}, "transactions": [], "location": {"address1": "2101 Lombard St", "address2": "", "address3": null, "city": "San Francisco", "zip_code": "94123", "country": "US", "state": "CA", "display_address": ["2101 Lombard St", "San Francisco, CA 94123"]}, "phone": "+14156198149", "display_phone": "(415) 619-8149", "distance": 15301.727852256889}, {"id": "jLMALIa8WnjtfdZij-5rPQ", "alias": "hot-diggity-mill-valley-3", "name": "Hot Diggity", "image_url": "https://s3-media2.fl.yelpcdn.com/bphoto/xwY8-ccTqa6lZojPHYJfUw/o.jpg", "is_closed": false, "url": "https://www.yelp.com/biz/hot-diggity-mill-valley-3?adjust_creative=-1a8ZLzJ76_AvFzvJVcndQ&utm_campaign=yelp_api_v3&utm_medium=api_v3_business_search&utm_source=-1a8ZLzJ76_AvFzvJVcndQ", "review_count": 2, "categories": [{"alias": "newamerican", "title": "American (New)"}, {"alias": "foodstands", "title": "Food Stands"}], "rating": 4.5, "coordinates": {"latitude": 37.8967641, "longitude": -122.5298157}, "transactions": [], "price": "$", "location": {"address1": "425 Sycamore Ave", "address2": "", "address3": "MIll Valley Middle School", "city": "Mill Valley", "zip_code": "94941", "country": "US", "state": "CA", "display_address": ["425 Sycamore Ave", "MIll Valley Middle School", "Mill Valley, CA 94941"]}, "phone": "+14158471783", "display_phone": "(415) 847-1783", "distance": 1781.1416456650556}, {"id": "CUwBAy6lrFi4x6Neu9eRVw", "alias": "mini-street-burger-alameda-3", "name": "Mini Street Burger", "image_url": "https://s3-media2.fl.yelpcdn.com/bphoto/Kh-OQKBIclWY1dCeIuu57w/o.jpg", "is_closed": false, "url": "https://www.yelp.com/biz/mini-street-burger-alameda-3?adjust_creative=-1a8ZLzJ76_AvFzvJVcndQ&utm_campaign=yelp_api_v3&utm_medium=api_v3_business_search&utm_source=-1a8ZLzJ76_AvFzvJVcndQ", "review_count": 28, "categories": [{"alias": "foodtrucks", "title": "Food Trucks"}, {"alias": "burgers", "title": "Burgers"}], "rating": 4.0, "coordinates": {"latitude": 37.82628, "longitude": -122.25101}, "transactions": [], "location": {"address1": null, "address2": null, "address3": null, "city": "Alameda", "zip_code": "94611", "country": "US", "state": "CA", "display_address": ["Alameda, CA 94611"]}, "phone": "+15108278982", "display_phone": "(510) 827-8982", "distance": 31157.628169354783}, {"id": "uuouQQIFQ1B9mkmcxaAKFA", "alias": "tacos-el-rey-oakland", "name": "Tacos El Rey", "image_url": "https://s3-media2.fl.yelpcdn.com/bphoto/DblyFrtT9uyPCQAUfPbYbQ/o.jpg", "is_closed": false, "url": "https://www.yelp.com/biz/tacos-el-rey-oakland?adjust_creative=-1a8ZLzJ76_AvFzvJVcndQ&utm_campaign=yelp_api_v3&utm_medium=api_v3_business_search&utm_source=-1a8ZLzJ76_AvFzvJVcndQ", "review_count": 9, "categories": [{"alias": "foodtrucks", "title": "Food Trucks"}, {"alias": "mexican", "title": "Mexican"}], "rating": 4.0, "coordinates": {"latitude": 37.8294034, "longitude": -122.2875758}, "transactions": [], "price": "$", "location": {"address1": "40th & Horton", "address2": "", "address3": null, "city": "Oakland", "zip_code": "94608", "country": "US", "state": "CA", "display_address": ["40th & Horton", "Oakland, CA 94608"]}, "phone": "+15108130232", "display_phone": "(510) 813-0232", "distance": 24231.783576784565}, {"id": "jCcAuXhCpeJP2n-8ol7mxg", "alias": "kolobok-russian-soul-food-truck-oakland", "name": "Kolobok Russian Soul Food Truck", "image_url": "https://s3-media1.fl.yelpcdn.com/bphoto/k8s1Bfc05Iw7SJXE6VJ74Q/o.jpg", "is_closed": false, "url": "https://www.yelp.com/biz/kolobok-russian-soul-food-truck-oakland?adjust_creative=-1a8ZLzJ76_AvFzvJVcndQ&utm_campaign=yelp_api_v3&utm_medium=api_v3_business_search&utm_source=-1a8ZLzJ76_AvFzvJVcndQ", "review_count": 47, "categories": [{"alias": "foodtrucks", "title": "Food Trucks"}, {"alias": "russian", "title": "Russian"}], "rating": 4.5, "coordinates": {"latitude": 37.7883087690458, "longitude": -122.309032460882}, "transactions": [], "price": "$$", "location": {"address1": null, "address2": null, "address3": "", "city": "Oakland", "zip_code": "94577", "country": "US", "state": "CA", "display_address": ["Oakland, CA 94577"]}, "phone": "+15105996542", "display_phone": "(510) 599-6542", "distance": 24600.531625074585}, {"id": "XTJJ_PUQoJKIh31ZIzsFzw", "alias": "cochinita-food-truck-san-francisco-6", "name": "Cochinita Food Truck", "image_url": "https://s3-media2.fl.yelpcdn.com/bphoto/w77SOd2jVJjOh1lwuYQ42w/o.jpg", "is_closed": false, "url": "https://www.yelp.com/biz/cochinita-food-truck-san-francisco-6?adjust_creative=-1a8ZLzJ76_AvFzvJVcndQ&utm_campaign=yelp_api_v3&utm_medium=api_v3_business_search&utm_source=-1a8ZLzJ76_AvFzvJVcndQ", "review_count": 49, "categories": [{"alias": "foodtrucks", "title": "Food Trucks"}, {"alias": "mexican", "title": "Mexican"}], "rating": 4.5, "coordinates": {"latitude": 37.770753, "longitude": -122.3916722}, "transactions": [], "price": "$", "location": {"address1": "601 Mission Blvd N", "address2": null, "address3": "", "city": "San Francisco", "zip_code": "94103", "country": "US", "state": "CA", "display_address": ["601 Mission Blvd N", "San Francisco, CA 94103"]}, "phone": "+14159883663", "display_phone": "(415) 988-3663", "distance": 20289.494692345666}, {"id": "S9MYGapWK7T7oKUEYLz6Iw", "alias": "the-boneyard-san-bruno-3", "name": "The Boneyard", "image_url": "https://s3-media3.fl.yelpcdn.com/bphoto/uG6EEbOomy5tsXTsHGodxg/o.jpg", "is_closed": false, "url": "https://www.yelp.com/biz/the-boneyard-san-bruno-3?adjust_creative=-1a8ZLzJ76_AvFzvJVcndQ&utm_campaign=yelp_api_v3&utm_medium=api_v3_business_search&utm_source=-1a8ZLzJ76_AvFzvJVcndQ", "review_count": 87, "categories": [{"alias": "foodtrucks", "title": "Food Trucks"}, {"alias": "bbq", "title": "Barbeque"}, {"alias": "catering", "title": "Caterers"}], "rating": 3.5, "coordinates": {"latitude": 37.7939188282826, "longitude": -122.400518522289}, "transactions": ["pickup", "delivery"], "price": "$$", "location": {"address1": "1225 San Mateo Ave", "address2": null, "address3": "", "city": "San Bruno", "zip_code": "94066", "country": "US", "state": "CA", "display_address": ["1225 San Mateo Ave", "San Bruno, CA 94066"]}, "phone": "+14159350696", "display_phone": "(415) 935-0696", "distance": 17885.848853272702}, {"id": "lgheXsHqe66AEZwoPDIEpw", "alias": "taco-coma-newark", "name": "Taco Coma", "image_url": "https://s3-media3.fl.yelpcdn.com/bphoto/DDz5lZDL5lDiRR_Ph0L4Sg/o.jpg", "is_closed": false, "url": "https://www.yelp.com/biz/taco-coma-newark?adjust_creative=-1a8ZLzJ76_AvFzvJVcndQ&utm_campaign=yelp_api_v3&utm_medium=api_v3_business_search&utm_source=-1a8ZLzJ76_AvFzvJVcndQ", "review_count": 3, "categories": [{"alias": "foodstands", "title": "Food Stands"}, {"alias": "tacos", "title": "Tacos"}], "rating": 5.0, "coordinates": {"latitude": 37.53453, "longitude": -122.03284}, "transactions": [], "location": {"address1": "", "address2": null, "address3": "", "city": "Newark", "zip_code": "94560", "country": "US", "state": "CA", "display_address": ["Newark, CA 94560"]}, "phone": "+15106971448", "display_phone": "(510) 697-1448", "distance": 61206.6486313114}, {"id": "DC42MrpWtqEeWRmMsn6Z8w", "alias": "the-everest-momo-fremont-2", "name": "The Everest Momo", "image_url": "https://s3-media2.fl.yelpcdn.com/bphoto/T2f7tUQ1c104otx9oSdqYw/o.jpg", "is_closed": false, "url": "https://www.yelp.com/biz/the-everest-momo-fremont-2?adjust_creative=-1a8ZLzJ76_AvFzvJVcndQ&utm_campaign=yelp_api_v3&utm_medium=api_v3_business_search&utm_source=-1a8ZLzJ76_AvFzvJVcndQ", "review_count": 23, "categories": [{"alias": "foodtrucks", "title": "Food Trucks"}, {"alias": "indpak", "title": "Indian"}, {"alias": "himalayan", "title": "Himalayan/Nepalese"}], "rating": 4.5, "coordinates": {"latitude": 37.54643, "longitude": -121.98512}, "transactions": [], "price": "$", "location": {"address1": "39233 Fremont Blvd", "address2": null, "address3": null, "city": "Fremont", "zip_code": "94538", "country": "US", "state": "CA", "display_address": ["39233 Fremont Blvd", "Fremont, CA 94538"]}, "phone": "+14088406369", "display_phone": "(408) 840-6369", "distance": 63527.9264481483}, {"id": "i6ZwMjYIbmFZ8EGYz6x5Bw", "alias": "phat-salads-and-wraps-napa", "name": "Phat Salads and Wraps", "image_url": "https://s3-media2.fl.yelpcdn.com/bphoto/FbrUwtrVIx2cLXiPdBhHkw/o.jpg", "is_closed": false, "url": "https://www.yelp.com/biz/phat-salads-and-wraps-napa?adjust_creative=-1a8ZLzJ76_AvFzvJVcndQ&utm_campaign=yelp_api_v3&utm_medium=api_v3_business_search&utm_source=-1a8ZLzJ76_AvFzvJVcndQ", "review_count": 48, "categories": [{"alias": "foodtrucks", "title": "Food Trucks"}, {"alias": "wraps", "title": "Wraps"}], "rating": 4.0, "coordinates": {"latitude": 38.3234491, "longitude": -122.3023962}, "transactions": [], "price": "$", "location": {"address1": "", "address2": "", "address3": "", "city": "Napa", "zip_code": "94558", "country": "US", "state": "CA", "display_address": ["Napa, CA 94558"]}, "phone": "+17073639658", "display_phone": "(707) 363-9658", "distance": 50980.73738308342}, {"id": "8SNGFcMWZkvS4GWDUL8w1Q", "alias": "noon-o-kabob-san-jose-4", "name": "Noon O Kabob", "image_url": "https://s3-media2.fl.yelpcdn.com/bphoto/5GmY5FRw0m0XEWC5XXbVlA/o.jpg", "is_closed": false, "url": "https://www.yelp.com/biz/noon-o-kabob-san-jose-4?adjust_creative=-1a8ZLzJ76_AvFzvJVcndQ&utm_campaign=yelp_api_v3&utm_medium=api_v3_business_search&utm_source=-1a8ZLzJ76_AvFzvJVcndQ", "review_count": 29, "categories": [{"alias": "foodtrucks", "title": "Food Trucks"}, {"alias": "kebab", "title": "Kebab"}, {"alias": "persian", "title": "Persian/Iranian"}], "rating": 4.5, "coordinates": {"latitude": 37.3940232, "longitude": -122.0288052}, "transactions": [], "price": "$$", "location": {"address1": null, "address2": null, "address3": null, "city": "San Jose", "zip_code": "95101", "country": "US", "state": "CA", "display_address": ["San Jose, CA 95101"]}, "phone": "+14083346777", "display_phone": "(408) 334-6777", "distance": 72948.26937807724}, {"id": "C9uewBH5505NV0EWYBIJAA", "alias": "lady-and-l-aperitivo-san-jose", "name": "Lady & L'Aperitivo", "image_url": "https://s3-media4.fl.yelpcdn.com/bphoto/3nz0sRE9MlOq_4xVRQRt9w/o.jpg", "is_closed": false, "url": "https://www.yelp.com/biz/lady-and-l-aperitivo-san-jose?adjust_creative=-1a8ZLzJ76_AvFzvJVcndQ&utm_campaign=yelp_api_v3&utm_medium=api_v3_business_search&utm_source=-1a8ZLzJ76_AvFzvJVcndQ", "review_count": 1, "categories": [{"alias": "bakeries", "title": "Bakeries"}, {"alias": "desserts", "title": "Desserts"}, {"alias": "cheesesteaks", "title": "Cheesesteaks"}], "rating": 5.0, "coordinates": {"latitude": 37.2208938598633, "longitude": -121.861633300781}, "transactions": [], "location": {"address1": null, "address2": null, "address3": "", "city": "San Jose", "zip_code": "95120", "country": "US", "state": "CA", "display_address": ["San Jose, CA 95120"]}, "phone": "", "display_phone": "", "distance": 102641.77034411127}]}