{"location": "Monte Sereno, CA", "term": "restaurant", "radius": 1156, "businesses": [{"id": "2oIjson-Zzz7Tn7ZMI0nug", "alias": "sidecar-los-gatos", "name": "Sidecar", "image_url": "https://s3-media1.fl.yelpcdn.com/bphoto/1t6yfBfuIee9k5I-69KuUQ/o.jpg", "is_closed": false, "url": "https://www.yelp.com/biz/sidecar-los-gatos?adjust_creative=IokN4du3-7NwKcCaUms5LA&utm_campaign=yelp_api_v3&utm_medium=api_v3_business_search&utm_source=IokN4du3-7NwKcCaUms5LA", "review_count": 16, "categories": [{"alias": "tradamerican", "title": "American (Traditional)"}, {"alias": "cocktailbars", "title": "Cocktail Bars"}], "rating": 5.0, "coordinates": {"latitude": 37.221513, "longitude": -121.98102}, "transactions": [], "location": {"address1": "25 East Main St", "address2": null, "address3": "", "city": "Los Gatos", "zip_code": "95030", "country": "US", "state": "CA", "display_address": ["25 East Main St", "Los Gatos, CA 95030"]}, "phone": "+14083995180", "display_phone": "(408) 399-5180", "distance": 638.698753219281}, {"id": "hhhXPjZKa2uRJOCAR_XOSg", "alias": "enoteca-la-storia-los-gatos-los-gatos", "name": "Enoteca La Storia - Los Gatos", "image_url": "https://s3-media2.fl.yelpcdn.com/bphoto/w-ik4yJFozSkXo07VEDYig/o.jpg", "is_closed": false, "url": "https://www.yelp.com/biz/enoteca-la-storia-los-gatos-los-gatos?adjust_creative=IokN4du3-7NwKcCaUms5LA&utm_campaign=yelp_api_v3&utm_medium=api_v3_business_search&utm_source=IokN4du3-7NwKcCaUms5LA", "review_count": 581, "categories": [{"alias": "italian", "title": "Italian"}, {"alias": "wine_bars", "title": "Wine Bars"}, {"alias": "tapasmallplates", "title": "Tapas/Small Plates"}], "rating": 4.0, "coordinates": {"latitude": 37.229679, "longitude": -121.979853}, "transactions": ["restaurant_reservation"], "price": "$$", "location": {"address1": "416 N Santa Cruz Ave", "address2": "", "address3": "", "city": "Los Gatos", "zip_code": "95030", "country": "US", "state": "CA", "display_address": ["416 N Santa Cruz Ave", "Los Gatos, CA 95030"]}, "phone": "+14086257272", "display_phone": "(408) 625-7272", "distance": 276.11284198013766}, {"id": "WUi5FGO9GllvkR83HEfMqw", "alias": "nicks-next-door-los-gatos", "name": "Nick's Next Door", "image_url": "https://s3-media2.fl.yelpcdn.com/bphoto/6PCm5DkpLCotd0mIoR-ngQ/o.jpg", "is_closed": false, "url": "https://www.yelp.com/biz/nicks-next-door-los-gatos?adjust_creative=IokN4du3-7NwKcCaUms5LA&utm_campaign=yelp_api_v3&utm_medium=api_v3_business_search&utm_source=IokN4du3-7NwKcCaUms5LA", "review_count": 1220, "categories": [{"alias": "newamerican", "title": "American (New)"}], "rating": 4.5, "coordinates": {"latitude": 37.22084, "longitude": -121.98072}, "transactions": [], "price": "$$$", "location": {"address1": "11 College Ave", "address2": "", "address3": "", "city": "Los Gatos", "zip_code": "95030", "country": "US", "state": "CA", "display_address": ["11 College Ave", "Los Gatos, CA 95030"]}, "phone": "+14084025053", "display_phone": "(408) 402-5053", "distance": 712.9076497615376}, {"id": "Sq8CeLnv4Psa7c7GEISJgQ", "alias": "manresa-los-gatos-2", "name": "Manresa", "image_url": "https://s3-media3.fl.yelpcdn.com/bphoto/AqFg3wSRbLUlZaObqdAeAw/o.jpg", "is_closed": false, "url": "https://www.yelp.com/biz/manresa-los-gatos-2?adjust_creative=IokN4du3-7NwKcCaUms5LA&utm_campaign=yelp_api_v3&utm_medium=api_v3_business_search&utm_source=IokN4du3-7NwKcCaUms5LA", "review_count": 1178, "categories": [{"alias": "newamerican", "title": "American (New)"}], "rating": 4.0, "coordinates": {"latitude": 37.22727, "longitude": -121.981}, "transactions": [], "price": "$$$$", "location": {"address1": "320 Village Ln", "address2": "", "address3": "", "city": "Los Gatos", "zip_code": "95030", "country": "US", "state": "CA", "display_address": ["320 Village Ln", "Los Gatos, CA 95030"]}, "phone": "+14083544330", "display_phone": "(408) 354-4330", "distance": 43.0275782782689}, {"id": "ffXhYBOyw778TAe5oFRYEw", "alias": "pintxopote-los-gatos", "name": "PintxoPote", "image_url": "https://s3-media2.fl.yelpcdn.com/bphoto/VNKUjLKcU_aYcgsA0Wiieg/o.jpg", "is_closed": false, "url": "https://www.yelp.com/biz/pintxopote-los-gatos?adjust_creative=IokN4du3-7NwKcCaUms5LA&utm_campaign=yelp_api_v3&utm_medium=api_v3_business_search&utm_source=IokN4du3-7NwKcCaUms5LA", "review_count": 238, "categories": [{"alias": "spanish", "title": "Spanish"}, {"alias": "tapas", "title": "Tapas Bars"}, {"alias": "basque", "title": "Basque"}], "rating": 4.0, "coordinates": {"latitude": 37.22988, "longitude": -121.97997}, "transactions": ["restaurant_reservation"], "price": "$$", "location": {"address1": "424 N Santa Cruz Ave", "address2": "", "address3": "", "city": "Los Gatos", "zip_code": "95030", "country": "US", "state": "CA", "display_address": ["424 N Santa Cruz Ave", "Los Gatos, CA 95030"]}, "phone": "+14087978688", "display_phone": "(408) 797-8688", "distance": 291.66747126830086}, {"id": "M-ZV7RQP9fKRMRF6yLGqBA", "alias": "cin-cin-wine-bar-and-restaurant-los-gatos-2", "name": "Cin-Cin Wine Bar & Restaurant", "image_url": "https://s3-media4.fl.yelpcdn.com/bphoto/M4ZsPeab8HNOvHePRpBUfA/o.jpg", "is_closed": false, "url": "https://www.yelp.com/biz/cin-cin-wine-bar-and-restaurant-los-gatos-2?adjust_creative=IokN4du3-7NwKcCaUms5LA&utm_campaign=yelp_api_v3&utm_medium=api_v3_business_search&utm_source=IokN4du3-7NwKcCaUms5LA", "review_count": 1040, "categories": [{"alias": "newamerican", "title": "American (New)"}, {"alias": "wine_bars", "title": "Wine Bars"}], "rating": 4.0, "coordinates": {"latitude": 37.22821, "longitude": -121.98051}, "transactions": ["restaurant_reservation"], "price": "$$$", "location": {"address1": "368 Village Ln", "address2": "", "address3": "", "city": "Los Gatos", "zip_code": "95030", "country": "US", "state": "CA", "display_address": ["368 Village Ln", "Los Gatos, CA 95030"]}, "phone": "+14083548006", "display_phone": "(408) 354-8006", "distance": 117.09992002549215}, {"id": "lOBJfbz-y2HyZHrvUvDnTg", "alias": "golden-triangle-cuisine-los-gatos", "name": "Golden Triangle Cuisine", "image_url": "https://s3-media2.fl.yelpcdn.com/bphoto/B9O39GtQugz8Ns8jFeTjBw/o.jpg", "is_closed": false, "url": "https://www.yelp.com/biz/golden-triangle-cuisine-los-gatos?adjust_creative=IokN4du3-7NwKcCaUms5LA&utm_campaign=yelp_api_v3&utm_medium=api_v3_business_search&utm_source=IokN4du3-7NwKcCaUms5LA", "review_count": 189, "categories": [{"alias": "asianfusion", "title": "Asian Fusion"}, {"alias": "bars", "title": "Bars"}], "rating": 4.5, "coordinates": {"latitude": 37.22672, "longitude": -121.98233}, "transactions": [], "price": "$$", "location": {"address1": "217 N Santa Cruz Ave Ste A", "address2": null, "address3": "", "city": "Los Gatos", "zip_code": "95030", "country": "US", "state": "CA", "display_address": ["217 N Santa Cruz Ave Ste A", "Los Gatos, CA 95030"]}, "phone": "+14084025092", "display_phone": "(408) 402-5092", "distance": 165.21550857373526}, {"id": "62e6YI3-f8xSXdjQGktobg", "alias": "north-los-gatos", "name": "North", "image_url": "https://s3-media1.fl.yelpcdn.com/bphoto/bpcJQPDVd0LCNCN2wA5dbw/o.jpg", "is_closed": false, "url": "https://www.yelp.com/biz/north-los-gatos?adjust_creative=IokN4du3-7NwKcCaUms5LA&utm_campaign=yelp_api_v3&utm_medium=api_v3_business_search&utm_source=IokN4du3-7NwKcCaUms5LA", "review_count": 50, "categories": [{"alias": "vietnamese", "title": "Vietnamese"}, {"alias": "asianfusion", "title": "Asian Fusion"}, {"alias": "bars", "title": "Bars"}], "rating": 4.0, "coordinates": {"latitude": 37.225544, "longitude": -121.982761}, "transactions": ["restaurant_reservation"], "price": "$$", "location": {"address1": "133 N Santa Cruz Ave", "address2": "", "address3": null, "city": "Los Gatos", "zip_code": "95030", "country": "US", "state": "CA", "display_address": ["133 N Santa Cruz Ave", "Los Gatos, CA 95030"]}, "phone": "+14088848309", "display_phone": "(408) 884-8309", "distance": 277.15198495443}, {"id": "c5mRg-qUBkR0S4FwIyZo-w", "alias": "asa-south-los-gatos-los-gatos", "name": "ASA South - Los Gatos", "image_url": "https://s3-media2.fl.yelpcdn.com/bphoto/b8jgIQJz0MjUhssiHemqhw/o.jpg", "is_closed": false, "url": "https://www.yelp.com/biz/asa-south-los-gatos-los-gatos?adjust_creative=IokN4du3-7NwKcCaUms5LA&utm_campaign=yelp_api_v3&utm_medium=api_v3_business_search&utm_source=IokN4du3-7NwKcCaUms5LA", "review_count": 33, "categories": [{"alias": "newamerican", "title": "American (New)"}, {"alias": "italian", "title": "Italian"}, {"alias": "spanish", "title": "Spanish"}], "rating": 4.0, "coordinates": {"latitude": 37.226637, "longitude": -121.972125}, "transactions": [], "price": "$$$", "location": {"address1": "57 Los Gatos-Saratoga Rd", "address2": "", "address3": null, "city": "Los Gatos", "zip_code": "95032", "country": "US", "state": "CA", "display_address": ["57 Los Gatos-Saratoga Rd", "Los Gatos, CA 95032"]}, "phone": "+14085407004", "display_phone": "(408) 540-7004", "distance": 747.0374094274325}, {"id": "DgFC8cq7QTg36lkKhhSzAw", "alias": "the-pastaria-and-market-los-gatos", "name": "The Pastaria & Market", "image_url": "https://s3-media1.fl.yelpcdn.com/bphoto/cn4LaidIT1_4IrUHiytOPw/o.jpg", "is_closed": false, "url": "https://www.yelp.com/biz/the-pastaria-and-market-los-gatos?adjust_creative=IokN4du3-7NwKcCaUms5LA&utm_campaign=yelp_api_v3&utm_medium=api_v3_business_search&utm_source=IokN4du3-7NwKcCaUms5LA", "review_count": 615, "categories": [{"alias": "italian", "title": "Italian"}, {"alias": "wine_bars", "title": "Wine Bars"}], "rating": 4.0, "coordinates": {"latitude": 37.223459, "longitude": -121.983642}, "transactions": ["restaurant_reservation"], "price": "$$", "location": {"address1": "27 N Santa Cruz", "address2": "", "address3": "", "city": "Los Gatos", "zip_code": "95030", "country": "US", "state": "CA", "display_address": ["27 N Santa Cruz", "Los Gatos, CA 95030"]}, "phone": "+14083993477", "display_phone": "(408) 399-3477", "distance": 504.9310347185242}, {"id": "cwCVi8ov4i3eJlVUJ6KI6Q", "alias": "loma-brewing-company-los-gatos-2", "name": "Loma Brewing Company", "image_url": "https://s3-media2.fl.yelpcdn.com/bphoto/Zcuwo-Fgnw--MdGe1fTF6g/o.jpg", "is_closed": false, "url": "https://www.yelp.com/biz/loma-brewing-company-los-gatos-2?adjust_creative=IokN4du3-7NwKcCaUms5LA&utm_campaign=yelp_api_v3&utm_medium=api_v3_business_search&utm_source=IokN4du3-7NwKcCaUms5LA", "review_count": 377, "categories": [{"alias": "breweries", "title": "Breweries"}, {"alias": "cocktailbars", "title": "Cocktail Bars"}, {"alias": "newamerican", "title": "American (New)"}], "rating": 4.0, "coordinates": {"latitude": 37.2252873, "longitude": -121.9823038}, "transactions": [], "price": "$$", "location": {"address1": "130 N Santa Cruz Ave", "address2": "", "address3": "", "city": "Los Gatos", "zip_code": "95030", "country": "US", "state": "CA", "display_address": ["130 N Santa Cruz Ave", "Los Gatos, CA 95030"]}, "phone": "+14085609626", "display_phone": "(408) 560-9626", "distance": 269.89158582635383}, {"id": "RTpI8feWv5waOhYvXce1uA", "alias": "the-lexington-house-los-gatos", "name": "The Lexington House", "image_url": "https://s3-media3.fl.yelpcdn.com/bphoto/mGtgvH-bAJ32vqnr8RboNA/o.jpg", "is_closed": false, "url": "https://www.yelp.com/biz/the-lexington-house-los-gatos?adjust_creative=IokN4du3-7NwKcCaUms5LA&utm_campaign=yelp_api_v3&utm_medium=api_v3_business_search&utm_source=IokN4du3-7NwKcCaUms5LA", "review_count": 385, "categories": [{"alias": "newamerican", "title": "American (New)"}], "rating": 4.0, "coordinates": {"latitude": 37.223724, "longitude": -121.983055}, "transactions": [], "price": "$$", "location": {"address1": "40 N Santa Cruz Ave", "address2": "Ste A", "address3": "", "city": "Los Gatos", "zip_code": "95030", "country": "US", "state": "CA", "display_address": ["40 N Santa Cruz Ave", "Ste A", "Los Gatos, CA 95030"]}, "phone": "+14083541600", "display_phone": "(408) 354-1600", "distance": 452.90813663731217}, {"id": "erXhCaDV8lBovWVvo8DcvA", "alias": "oak-and-rye-los-gatos", "name": "Oak & Rye", "image_url": "https://s3-media2.fl.yelpcdn.com/bphoto/UjW-jIVXV0YdJpndQh7YSw/o.jpg", "is_closed": false, "url": "https://www.yelp.com/biz/oak-and-rye-los-gatos?adjust_creative=IokN4du3-7NwKcCaUms5LA&utm_campaign=yelp_api_v3&utm_medium=api_v3_business_search&utm_source=IokN4du3-7NwKcCaUms5LA", "review_count": 1025, "categories": [{"alias": "pizza", "title": "Pizza"}, {"alias": "newamerican", "title": "American (New)"}], "rating": 4.0, "coordinates": {"latitude": 37.2276475, "longitude": -121.9817762}, "transactions": [], "price": "$$", "location": {"address1": "303 N Santa Cruz Ave", "address2": "", "address3": "", "city": "Los Gatos", "zip_code": "95030", "country": "US", "state": "CA", "display_address": ["303 N Santa Cruz Ave", "Los Gatos, CA 95030"]}, "phone": "+14083954441", "display_phone": "(408) 395-4441", "distance": 120.03607097451926}, {"id": "nBVvwHd8f9MKuteQzDzJuw", "alias": "dio-deka-los-gatos", "name": "Dio Deka", "image_url": "https://s3-media2.fl.yelpcdn.com/bphoto/29YmnntLUb_64LiPJJap4w/o.jpg", "is_closed": false, "url": "https://www.yelp.com/biz/dio-deka-los-gatos?adjust_creative=IokN4du3-7NwKcCaUms5LA&utm_campaign=yelp_api_v3&utm_medium=api_v3_business_search&utm_source=IokN4du3-7NwKcCaUms5LA", "review_count": 943, "categories": [{"alias": "greek", "title": "Greek"}, {"alias": "mediterranean", "title": "Mediterranean"}, {"alias": "newamerican", "title": "American (New)"}], "rating": 4.0, "coordinates": {"latitude": 37.220908004713, "longitude": -121.97710381346}, "transactions": ["restaurant_reservation"], "price": "$$$$", "location": {"address1": "210 E Main St", "address2": null, "address3": "", "city": "Los Gatos", "zip_code": "95030", "country": "US", "state": "CA", "display_address": ["210 E Main St", "Los Gatos, CA 95030"]}, "phone": "+14083547700", "display_phone": "(408) 354-7700", "distance": 767.3796276757057}, {"id": "gEm6xu9uzF3bewoO0FX2Tw", "alias": "centonove-los-gatos", "name": "Centonove", "image_url": "https://s3-media1.fl.yelpcdn.com/bphoto/b3Cg8fxtolBt2EI_yLbXNA/o.jpg", "is_closed": false, "url": "https://www.yelp.com/biz/centonove-los-gatos?adjust_creative=IokN4du3-7NwKcCaUms5LA&utm_campaign=yelp_api_v3&utm_medium=api_v3_business_search&utm_source=IokN4du3-7NwKcCaUms5LA", "review_count": 467, "categories": [{"alias": "italian", "title": "Italian"}, {"alias": "pizza", "title": "Pizza"}], "rating": 4.0, "coordinates": {"latitude": 37.22188, "longitude": -121.98307}, "transactions": ["restaurant_reservation", "delivery", "pickup"], "price": "$$", "location": {"address1": "109 W Main St", "address2": null, "address3": "", "city": "Los Gatos", "zip_code": "95030", "country": "US", "state": "CA", "display_address": ["109 W Main St", "Los Gatos, CA 95030"]}, "phone": "+14083844007", "display_phone": "(408) 384-4007", "distance": 630.0561793927998}, {"id": "0RClvA7MGds6ZyuIVv1-bQ", "alias": "forbes-mill-steakhouse-los-gatos", "name": "Forbes Mill Steakhouse", "image_url": "https://s3-media1.fl.yelpcdn.com/bphoto/tYyAaznZrnf08Fe0KnYxEg/o.jpg", "is_closed": false, "url": "https://www.yelp.com/biz/forbes-mill-steakhouse-los-gatos?adjust_creative=IokN4du3-7NwKcCaUms5LA&utm_campaign=yelp_api_v3&utm_medium=api_v3_business_search&utm_source=IokN4du3-7NwKcCaUms5LA", "review_count": 1284, "categories": [{"alias": "steak", "title": "Steakhouses"}], "rating": 4.0, "coordinates": {"latitude": 37.226123, "longitude": -121.981971}, "transactions": [], "price": "$$$", "location": {"address1": "206 N Santa Cruz Ave", "address2": "", "address3": "", "city": "Los Gatos", "zip_code": "95030", "country": "US", "state": "CA", "display_address": ["206 N Santa Cruz Ave", "Los Gatos, CA 95030"]}, "phone": "+14083956434", "display_phone": "(408) 395-6434", "distance": 179.99817314345833}, {"id": "o4_ncY_Abd6nn6fbjbYlDg", "alias": "flights-los-gatos-2", "name": "Flights", "image_url": "https://s3-media4.fl.yelpcdn.com/bphoto/Q1CBoiof9CqthcuhMPUCvg/o.jpg", "is_closed": false, "url": "https://www.yelp.com/biz/flights-los-gatos-2?adjust_creative=IokN4du3-7NwKcCaUms5LA&utm_campaign=yelp_api_v3&utm_medium=api_v3_business_search&utm_source=IokN4du3-7NwKcCaUms5LA", "review_count": 614, "categories": [{"alias": "newamerican", "title": "American (New)"}, {"alias": "cocktailbars", "title": "Cocktail Bars"}, {"alias": "seafood", "title": "Seafood"}], "rating": 4.0, "coordinates": {"latitude": 37.22802, "longitude": -121.97995}, "transactions": [], "price": "$$", "location": {"address1": "165 Saratoga Los Gatos Rd", "address2": "", "address3": null, "city": "Los Gatos", "zip_code": "95030", "country": "US", "state": "CA", "display_address": ["165 Saratoga Los Gatos Rd", "Los Gatos, CA 95030"]}, "phone": "+14083543434", "display_phone": "(408) 354-3434", "distance": 104.77884350266612}, {"id": "z0wcq5E8GgIUgc-O9JDEGQ", "alias": "billys-boston-chowder-house-los-gatos", "name": "Billy's Boston Chowder House", "image_url": "https://s3-media2.fl.yelpcdn.com/bphoto/MWziXKtWIOEshxVO5wW2dA/o.jpg", "is_closed": false, "url": "https://www.yelp.com/biz/billys-boston-chowder-house-los-gatos?adjust_creative=IokN4du3-7NwKcCaUms5LA&utm_campaign=yelp_api_v3&utm_medium=api_v3_business_search&utm_source=IokN4du3-7NwKcCaUms5LA", "review_count": 1494, "categories": [{"alias": "seafood", "title": "Seafood"}, {"alias": "fishnchips", "title": "Fish & Chips"}, {"alias": "breakfast_brunch", "title": "Breakfast & Brunch"}], "rating": 4.0, "coordinates": {"latitude": 37.22144, "longitude": -121.98078}, "transactions": ["restaurant_reservation", "delivery", "pickup"], "price": "$$", "location": {"address1": "29 E Main St", "address2": null, "address3": "", "city": "Los Gatos", "zip_code": "95030", "country": "US", "state": "CA", "display_address": ["29 E Main St", "Los Gatos, CA 95030"]}, "phone": "+14088274005", "display_phone": "(408) 827-4005", "distance": 646.7318102387205}, {"id": "HXK64q4GNY4Wp4n-XenIqw", "alias": "los-gatos-soda-works-los-gatos-2", "name": "Los Gatos Soda Works", "image_url": "https://s3-media1.fl.yelpcdn.com/bphoto/QJgscm66B14a9XcSAY8e3A/o.jpg", "is_closed": false, "url": "https://www.yelp.com/biz/los-gatos-soda-works-los-gatos-2?adjust_creative=IokN4du3-7NwKcCaUms5LA&utm_campaign=yelp_api_v3&utm_medium=api_v3_business_search&utm_source=IokN4du3-7NwKcCaUms5LA", "review_count": 32, "categories": [{"alias": "cocktailbars", "title": "Cocktail Bars"}, {"alias": "tapasmallplates", "title": "Tapas/Small Plates"}], "rating": 4.5, "coordinates": {"latitude": 37.220855, "longitude": -121.980669}, "transactions": [], "price": "$$", "location": {"address1": "21 College Ave", "address2": "", "address3": null, "city": "Los Gatos", "zip_code": "95030", "country": "US", "state": "CA", "display_address": ["21 College Ave", "Los Gatos, CA 95030"]}, "phone": "+14084025053", "display_phone": "(408) 402-5053", "distance": 711.4849548728084}, {"id": "01FcdO1H-_qz4O1iS2f5Cg", "alias": "the-palms-los-gatos", "name": "The Palms", "image_url": "https://s3-media2.fl.yelpcdn.com/bphoto/RQGPQnLwFPrLLyE_0mhLeQ/o.jpg", "is_closed": false, "url": "https://www.yelp.com/biz/the-palms-los-gatos?adjust_creative=IokN4du3-7NwKcCaUms5LA&utm_campaign=yelp_api_v3&utm_medium=api_v3_business_search&utm_source=IokN4du3-7NwKcCaUms5LA", "review_count": 172, "categories": [{"alias": "asianfusion", "title": "Asian Fusion"}], "rating": 3.5, "coordinates": {"latitude": 37.22508, "longitude": -121.98315}, "transactions": [], "price": "$$$", "location": {"address1": "115 N Santa Cruz Ave", "address2": "", "address3": null, "city": "Los Gatos", "zip_code": "95030", "country": "US", "state": "CA", "display_address": ["115 N Santa Cruz Ave", "Los Gatos, CA 95030"]}, "phone": "+14084023811", "display_phone": "(408) 402-3811", "distance": 334.5792215102637}, {"id": "UGan7EYnozLqvIa6QF2Pkw", "alias": "los-gatos-cafe-los-gatos-4", "name": "Los Gatos Cafe", "image_url": "https://s3-media4.fl.yelpcdn.com/bphoto/Tkj5EFA7CBt7TMHVx-9CTQ/o.jpg", "is_closed": false, "url": "https://www.yelp.com/biz/los-gatos-cafe-los-gatos-4?adjust_creative=IokN4du3-7NwKcCaUms5LA&utm_campaign=yelp_api_v3&utm_medium=api_v3_business_search&utm_source=IokN4du3-7NwKcCaUms5LA", "review_count": 1786, "categories": [{"alias": "breakfast_brunch", "title": "Breakfast & Brunch"}, {"alias": "sandwiches", "title": "Sandwiches"}, {"alias": "burgers", "title": "Burgers"}], "rating": 4.5, "coordinates": {"latitude": 37.22829, "longitude": -121.98096}, "transactions": [], "price": "$$", "location": {"address1": "340 N Santa Cruz Ave", "address2": "", "address3": "", "city": "Los Gatos", "zip_code": "95030", "country": "US", "state": "CA", "display_address": ["340 N Santa Cruz Ave", "Los Gatos, CA 95030"]}, "phone": "+14083544647", "display_phone": "(408) 354-4647", "distance": 121.85096556026235}, {"id": "L2aRYcvsCErhuCb_lrK6Wg", "alias": "coup-de-thai-los-gatos-2", "name": "Coup De Thai", "image_url": "https://s3-media4.fl.yelpcdn.com/bphoto/nJjzymnpZinspfcbCjpxTw/o.jpg", "is_closed": false, "url": "https://www.yelp.com/biz/coup-de-thai-los-gatos-2?adjust_creative=IokN4du3-7NwKcCaUms5LA&utm_campaign=yelp_api_v3&utm_medium=api_v3_business_search&utm_source=IokN4du3-7NwKcCaUms5LA", "review_count": 294, "categories": [{"alias": "thai", "title": "Thai"}], "rating": 4.0, "coordinates": {"latitude": 37.2255930775328, "longitude": -121.982618384063}, "transactions": ["pickup", "delivery"], "price": "$$", "location": {"address1": "137 N Santa Cruz Ave", "address2": "", "address3": "", "city": "Los Gatos", "zip_code": "95030", "country": "US", "state": "CA", "display_address": ["137 N Santa Cruz Ave", "Los Gatos, CA 95030"]}, "phone": "+14084425977", "display_phone": "(408) 442-5977", "distance": 262.1821164322026}, {"id": "xZ_K29lf6e9JFDWTtVL6CQ", "alias": "verge-restaurant-and-lounge-los-gatos", "name": "Verge Restaurant and Lounge", "image_url": "https://s3-media1.fl.yelpcdn.com/bphoto/-yDdpF82N8LwRvNgrhUiwQ/o.jpg", "is_closed": false, "url": "https://www.yelp.com/biz/verge-restaurant-and-lounge-los-gatos?adjust_creative=IokN4du3-7NwKcCaUms5LA&utm_campaign=yelp_api_v3&utm_medium=api_v3_business_search&utm_source=IokN4du3-7NwKcCaUms5LA", "review_count": 214, "categories": [{"alias": "newamerican", "title": "American (New)"}], "rating": 3.5, "coordinates": {"latitude": 37.2210542368086, "longitude": -121.985078305006}, "transactions": [], "price": "$$", "location": {"address1": "140 S Santa Cruz Ave", "address2": "", "address3": "", "city": "Los Gatos", "zip_code": "95030", "country": "US", "state": "CA", "display_address": ["140 S Santa Cruz Ave", "Los Gatos, CA 95030"]}, "phone": "+14088841054", "display_phone": "(408) 884-1054", "distance": 798.924290306386}, {"id": "WK3Bjw6uiIovsw53mlzYxw", "alias": "southern-kitchen-los-gatos-3", "name": "Southern Kitchen", "image_url": "https://s3-media3.fl.yelpcdn.com/bphoto/Z1QvmTp6XocW0uMqntLdiQ/o.jpg", "is_closed": false, "url": "https://www.yelp.com/biz/southern-kitchen-los-gatos-3?adjust_creative=IokN4du3-7NwKcCaUms5LA&utm_campaign=yelp_api_v3&utm_medium=api_v3_business_search&utm_source=IokN4du3-7NwKcCaUms5LA", "review_count": 762, "categories": [{"alias": "southern", "title": "Southern"}, {"alias": "newamerican", "title": "American (New)"}, {"alias": "comfortfood", "title": "Comfort Food"}], "rating": 4.0, "coordinates": {"latitude": 37.2216204105105, "longitude": -121.9807508}, "transactions": [], "price": "$$", "location": {"address1": "27 E Main St", "address2": "", "address3": "", "city": "Los Gatos", "zip_code": "95030", "country": "US", "state": "CA", "display_address": ["27 E Main St", "Los Gatos, CA 95030"]}, "phone": "+14083547515", "display_phone": "(408) 354-7515", "distance": 626.5931303353038}, {"id": "AkQpmOS0slEVdxW5qdmP2g", "alias": "namaste-los-gatos-2", "name": "Namaste", "image_url": "https://s3-media1.fl.yelpcdn.com/bphoto/IHP08gdWkflO-w-Ij4OlkQ/o.jpg", "is_closed": false, "url": "https://www.yelp.com/biz/namaste-los-gatos-2?adjust_creative=IokN4du3-7NwKcCaUms5LA&utm_campaign=yelp_api_v3&utm_medium=api_v3_business_search&utm_source=IokN4du3-7NwKcCaUms5LA", "review_count": 64, "categories": [{"alias": "indpak", "title": "Indian"}], "rating": 4.5, "coordinates": {"latitude": 37.22162, "longitude": -121.98053}, "transactions": ["delivery", "pickup"], "price": "$$", "location": {"address1": "35 E Main St", "address2": null, "address3": "", "city": "Los Gatos", "zip_code": "95030", "country": "US", "state": "CA", "display_address": ["35 E Main St", "Los Gatos, CA 95030"]}, "phone": "+14084425794", "display_phone": "(408) 442-5794", "distance": 639.3955483658692}, {"id": "4TFwwkK9ozY-kYrqNpA16w", "alias": "zona-rosa-los-gatos", "name": "Zona Rosa", "image_url": "https://s3-media2.fl.yelpcdn.com/bphoto/2tbvum8h_uFPP2amCniP2A/o.jpg", "is_closed": false, "url": "https://www.yelp.com/biz/zona-rosa-los-gatos?adjust_creative=IokN4du3-7NwKcCaUms5LA&utm_campaign=yelp_api_v3&utm_medium=api_v3_business_search&utm_source=IokN4du3-7NwKcCaUms5LA", "review_count": 371, "categories": [{"alias": "mexican", "title": "Mexican"}], "rating": 3.5, "coordinates": {"latitude": 37.2219, "longitude": -121.98305}, "transactions": ["restaurant_reservation"], "price": "$$", "location": {"address1": "81 W Main St", "address2": "", "address3": "", "city": "Los Gatos", "zip_code": "95030", "country": "US", "state": "CA", "display_address": ["81 W Main St", "Los Gatos, CA 95030"]}, "phone": "+14088848268", "display_phone": "(408) 884-8268", "distance": 632.5983399883729}, {"id": "dal_L87JAppV0PkG6Lthsg", "alias": "steamers-grillhouse-los-gatos", "name": "Steamer's Grillhouse", "image_url": "https://s3-media4.fl.yelpcdn.com/bphoto/J8QZPhDHbQRRxQbJIcr9NA/o.jpg", "is_closed": false, "url": "https://www.yelp.com/biz/steamers-grillhouse-los-gatos?adjust_creative=IokN4du3-7NwKcCaUms5LA&utm_campaign=yelp_api_v3&utm_medium=api_v3_business_search&utm_source=IokN4du3-7NwKcCaUms5LA", "review_count": 514, "categories": [{"alias": "seafood", "title": "Seafood"}, {"alias": "bars", "title": "Bars"}, {"alias": "tradamerican", "title": "American (Traditional)"}], "rating": 3.5, "coordinates": {"latitude": 37.223207044656, "longitude": -121.98241765253}, "transactions": [], "price": "$$$", "location": {"address1": "31 University Ave", "address2": "", "address3": "", "city": "Los Gatos", "zip_code": "95030", "country": "US", "state": "CA", "display_address": ["31 University Ave", "Los Gatos, CA 95030"]}, "phone": "+14083952722", "display_phone": "(408) 395-2722", "distance": 480.3435914178214}, {"id": "S5sQCXAWIaXODx6ONTup9g", "alias": "the-bywater-los-gatos", "name": "The Bywater", "image_url": "https://s3-media1.fl.yelpcdn.com/bphoto/ZLpJkE1ykRuu7RkldHaj_g/o.jpg", "is_closed": false, "url": "https://www.yelp.com/biz/the-bywater-los-gatos?adjust_creative=IokN4du3-7NwKcCaUms5LA&utm_campaign=yelp_api_v3&utm_medium=api_v3_business_search&utm_source=IokN4du3-7NwKcCaUms5LA", "review_count": 541, "categories": [{"alias": "cajun", "title": "Cajun/Creole"}, {"alias": "newamerican", "title": "American (New)"}, {"alias": "breakfast_brunch", "title": "Breakfast & Brunch"}], "rating": 3.5, "coordinates": {"latitude": 37.2327381, "longitude": -121.97893}, "transactions": ["restaurant_reservation", "pickup"], "price": "$$", "location": {"address1": "532 N Santa Cruz Ave", "address2": "", "address3": "", "city": "Los Gatos", "zip_code": "95030", "country": "US", "state": "CA", "display_address": ["532 N Santa Cruz Ave", "Los Gatos, CA 95030"]}, "phone": "+14085609639", "display_phone": "(408) 560-9639", "distance": 625.9092370792386}, {"id": "uhMnag9s2KhsF8g2kNuFFg", "alias": "aldos-cafe-los-gatos", "name": "Aldo's Cafe", "image_url": "https://s3-media1.fl.yelpcdn.com/bphoto/xtvw9rwFRBcgqpSpnFDO5g/o.jpg", "is_closed": false, "url": "https://www.yelp.com/biz/aldos-cafe-los-gatos?adjust_creative=IokN4du3-7NwKcCaUms5LA&utm_campaign=yelp_api_v3&utm_medium=api_v3_business_search&utm_source=IokN4du3-7NwKcCaUms5LA", "review_count": 150, "categories": [{"alias": "italian", "title": "Italian"}], "rating": 4.0, "coordinates": {"latitude": 37.2302, "longitude": -121.97982}, "transactions": ["delivery", "pickup"], "price": "$$", "location": {"address1": "440 N Santa Cruz Ave", "address2": "", "address3": "", "city": "Los Gatos", "zip_code": "95030", "country": "US", "state": "CA", "display_address": ["440 N Santa Cruz Ave", "Los Gatos, CA 95030"]}, "phone": "+14083540700", "display_phone": "(408) 354-0700", "distance": 340.9957802443345}, {"id": "YpWbxwzX0mrZ2VAcWGsEcw", "alias": "taba-taba-china-bistro-los-gatos-2", "name": "Taba Taba China Bistro", "image_url": "https://s3-media1.fl.yelpcdn.com/bphoto/CWHuImoJCZA7-HCO1ikPdQ/o.jpg", "is_closed": false, "url": "https://www.yelp.com/biz/taba-taba-china-bistro-los-gatos-2?adjust_creative=IokN4du3-7NwKcCaUms5LA&utm_campaign=yelp_api_v3&utm_medium=api_v3_business_search&utm_source=IokN4du3-7NwKcCaUms5LA", "review_count": 97, "categories": [{"alias": "chinese", "title": "Chinese"}], "rating": 4.5, "coordinates": {"latitude": 37.22235, "longitude": -121.98445}, "transactions": [], "price": "$$", "location": {"address1": "20 S Santa Cruz Ave", "address2": "Ste 204", "address3": null, "city": "Los Gatos", "zip_code": "95030", "country": "US", "state": "CA", "display_address": ["20 S Santa Cruz Ave", "Ste 204", "Los Gatos, CA 95030"]}, "phone": "+14083952489", "display_phone": "(408) 395-2489", "distance": 629.4578040157827}, {"id": "jw9hoVTHWsNYnFaFt9tnow", "alias": "campo-di-bocce-of-los-gatos-los-gatos", "name": "Campo Di Bocce of Los Gatos", "image_url": "https://s3-media1.fl.yelpcdn.com/bphoto/2AJaITRBIjTDLGuhwIXRHQ/o.jpg", "is_closed": false, "url": "https://www.yelp.com/biz/campo-di-bocce-of-los-gatos-los-gatos?adjust_creative=IokN4du3-7NwKcCaUms5LA&utm_campaign=yelp_api_v3&utm_medium=api_v3_business_search&utm_source=IokN4du3-7NwKcCaUms5LA", "review_count": 478, "categories": [{"alias": "italian", "title": "Italian"}, {"alias": "bocceball", "title": "Bocce Ball"}, {"alias": "venues", "title": "Venues & Event Spaces"}], "rating": 4.0, "coordinates": {"latitude": 37.23213, "longitude": -121.97803}, "transactions": [], "price": "$$", "location": {"address1": "565 University Ave", "address2": "", "address3": "", "city": "Los Gatos", "zip_code": "95032", "country": "US", "state": "CA", "display_address": ["565 University Ave", "Los Gatos, CA 95032"]}, "phone": "+14083957650", "display_phone": "(408) 395-7650", "distance": 601.0628987456992}, {"id": "PSVnBLvLa_YoFmjdiFoaRg", "alias": "we-olive-and-wine-bar-los-gatos", "name": "We Olive & Wine Bar", "image_url": "https://s3-media2.fl.yelpcdn.com/bphoto/6Q7NcHN0Sy73K9h20yIPHg/o.jpg", "is_closed": false, "url": "https://www.yelp.com/biz/we-olive-and-wine-bar-los-gatos?adjust_creative=IokN4du3-7NwKcCaUms5LA&utm_campaign=yelp_api_v3&utm_medium=api_v3_business_search&utm_source=IokN4du3-7NwKcCaUms5LA", "review_count": 107, "categories": [{"alias": "wine_bars", "title": "Wine Bars"}, {"alias": "oliveoil", "title": "Olive Oil"}, {"alias": "tapasmallplates", "title": "Tapas/Small Plates"}], "rating": 4.5, "coordinates": {"latitude": 37.22466, "longitude": -121.98256}, "transactions": ["pickup"], "price": "$$", "location": {"address1": "112 N Santa Cruz Ave", "address2": null, "address3": "", "city": "Los Gatos", "zip_code": "95030", "country": "US", "state": "CA", "display_address": ["112 N Santa Cruz Ave", "Los Gatos, CA 95030"]}, "phone": "+14083547474", "display_phone": "(408) 354-7474", "distance": 344.36893926715373}, {"id": "wYLCyZjFlK-R3dwEOAH1GA", "alias": "rootstock-wine-bar-los-gatos", "name": "Rootstock Wine Bar", "image_url": "https://s3-media2.fl.yelpcdn.com/bphoto/xmGQYUpKte5hXQwPp81iFQ/o.jpg", "is_closed": false, "url": "https://www.yelp.com/biz/rootstock-wine-bar-los-gatos?adjust_creative=IokN4du3-7NwKcCaUms5LA&utm_campaign=yelp_api_v3&utm_medium=api_v3_business_search&utm_source=IokN4du3-7NwKcCaUms5LA", "review_count": 325, "categories": [{"alias": "wine_bars", "title": "Wine Bars"}, {"alias": "newamerican", "title": "American (New)"}, {"alias": "tapasmallplates", "title": "Tapas/Small Plates"}], "rating": 4.0, "coordinates": {"latitude": 37.226709, "longitude": -121.982361}, "transactions": [], "price": "$$", "location": {"address1": "217 N Santa Cruz Ave", "address2": "", "address3": "", "city": "Los Gatos", "zip_code": "95030", "country": "US", "state": "CA", "display_address": ["217 N Santa Cruz Ave", "Los Gatos, CA 95030"]}, "phone": "+14083547668", "display_phone": "(408) 354-7668", "distance": 174.29107530157484}, {"id": "XVo5TceYqOHls_lJmmeIlQ", "alias": "wine-cellar-restaurant-los-gatos", "name": "Wine Cellar Restaurant", "image_url": "https://s3-media1.fl.yelpcdn.com/bphoto/1_T7ZzfP8LxbexRvRgFyJw/o.jpg", "is_closed": false, "url": "https://www.yelp.com/biz/wine-cellar-restaurant-los-gatos?adjust_creative=IokN4du3-7NwKcCaUms5LA&utm_campaign=yelp_api_v3&utm_medium=api_v3_business_search&utm_source=IokN4du3-7NwKcCaUms5LA", "review_count": 547, "categories": [{"alias": "newamerican", "title": "American (New)"}, {"alias": "wine_bars", "title": "Wine Bars"}, {"alias": "venues", "title": "Venues & Event Spaces"}], "rating": 3.5, "coordinates": {"latitude": 37.223496, "longitude": -121.981307}, "transactions": ["delivery", "pickup"], "price": "$$$", "location": {"address1": "50 University Ave", "address2": "Ste 180", "address3": "", "city": "Los Gatos", "zip_code": "95030", "country": "US", "state": "CA", "display_address": ["50 University Ave", "Ste 180", "Los Gatos, CA 95030"]}, "phone": "+14083544808", "display_phone": "(408) 354-4808", "distance": 423.5404394673323}, {"id": "56SHn-TCpnGgATAVZV4mhA", "alias": "pedros-restaurant-and-cantina-los-gatos-2", "name": "Pedro's Restaurant & Cantina", "image_url": "https://s3-media3.fl.yelpcdn.com/bphoto/jl41vSa3aGhLYCYOkKvZvg/o.jpg", "is_closed": false, "url": "https://www.yelp.com/biz/pedros-restaurant-and-cantina-los-gatos-2?adjust_creative=IokN4du3-7NwKcCaUms5LA&utm_campaign=yelp_api_v3&utm_medium=api_v3_business_search&utm_source=IokN4du3-7NwKcCaUms5LA", "review_count": 524, "categories": [{"alias": "mexican", "title": "Mexican"}, {"alias": "bars", "title": "Bars"}, {"alias": "diners", "title": "Diners"}], "rating": 3.0, "coordinates": {"latitude": 37.227697, "longitude": -121.981441}, "transactions": ["delivery"], "price": "$$", "location": {"address1": "316 N Santa Cruz Ave", "address2": "", "address3": "", "city": "Los Gatos", "zip_code": "95030", "country": "US", "state": "CA", "display_address": ["316 N Santa Cruz Ave", "Los Gatos, CA 95030"]}, "phone": "+14083547570", "display_phone": "(408) 354-7570", "distance": 95.77589488755463}, {"id": "YvuyuodD-LCzFlp3d3QMFA", "alias": "tea-on-the-avenue-los-gatos", "name": "Tea On The Avenue", "image_url": "https://s3-media1.fl.yelpcdn.com/bphoto/Xmfv4zLWctxWtaHwCSUlMA/o.jpg", "is_closed": false, "url": "https://www.yelp.com/biz/tea-on-the-avenue-los-gatos?adjust_creative=IokN4du3-7NwKcCaUms5LA&utm_campaign=yelp_api_v3&utm_medium=api_v3_business_search&utm_source=IokN4du3-7NwKcCaUms5LA", "review_count": 43, "categories": [{"alias": "tea", "title": "Tea Rooms"}, {"alias": "sandwiches", "title": "Sandwiches"}, {"alias": "cafes", "title": "Cafes"}], "rating": 5.0, "coordinates": {"latitude": 37.22615, "longitude": -121.98259}, "transactions": [], "location": {"address1": "155 N Santa Cruz Ave", "address2": null, "address3": null, "city": "Los Gatos", "zip_code": "95030", "country": "US", "state": "CA", "display_address": ["155 N Santa Cruz Ave", "Los Gatos, CA 95030"]}, "phone": "+14084025143", "display_phone": "(408) 402-5143", "distance": 220.20256932111658}, {"id": "YnD8Uv7cscfIDw7VTMjq8w", "alias": "main-street-burgers-los-gatos", "name": "Main Street Burgers", "image_url": "https://s3-media1.fl.yelpcdn.com/bphoto/1caJpZXH9KWtYQ5HTjt9BQ/o.jpg", "is_closed": false, "url": "https://www.yelp.com/biz/main-street-burgers-los-gatos?adjust_creative=IokN4du3-7NwKcCaUms5LA&utm_campaign=yelp_api_v3&utm_medium=api_v3_business_search&utm_source=IokN4du3-7NwKcCaUms5LA", "review_count": 883, "categories": [{"alias": "burgers", "title": "Burgers"}, {"alias": "tradamerican", "title": "American (Traditional)"}, {"alias": "halal", "title": "Halal"}], "rating": 4.0, "coordinates": {"latitude": 37.22239, "longitude": -121.98449}, "transactions": ["pickup", "delivery"], "price": "$$", "location": {"address1": "20 S Santa Cruz Ave", "address2": "Ste 200", "address3": "", "city": "Los Gatos", "zip_code": "95030", "country": "US", "state": "CA", "display_address": ["20 S Santa Cruz Ave", "Ste 200", "Los Gatos, CA 95030"]}, "phone": "+14083541881", "display_phone": "(408) 354-1881", "distance": 629.4578040157827}, {"id": "C4OViAxTx81PO4ZfPzDYPA", "alias": "chicago-steak-and-fish-los-gatos", "name": "Chicago Steak and Fish", "image_url": "https://s3-media2.fl.yelpcdn.com/bphoto/WtOb52gIQEBEcfDlZUb2Mw/o.jpg", "is_closed": false, "url": "https://www.yelp.com/biz/chicago-steak-and-fish-los-gatos?adjust_creative=IokN4du3-7NwKcCaUms5LA&utm_campaign=yelp_api_v3&utm_medium=api_v3_business_search&utm_source=IokN4du3-7NwKcCaUms5LA", "review_count": 312, "categories": [{"alias": "steak", "title": "Steakhouses"}, {"alias": "seafood", "title": "Seafood"}], "rating": 3.0, "coordinates": {"latitude": 37.2281265258789, "longitude": -121.98104095459}, "transactions": [], "price": "$$", "location": {"address1": "330 N Santa Cruz Ave", "address2": "", "address3": "", "city": "Los Gatos", "zip_code": "95032", "country": "US", "state": "CA", "display_address": ["330 N Santa Cruz Ave", "Los Gatos, CA 95032"]}, "phone": "+14083548858", "display_phone": "(408) 354-8858", "distance": 113.90111431613761}, {"id": "dia3ntvdkJGr-b4C4SfzVA", "alias": "yokohama-los-gatos", "name": "Yokohama", "image_url": "https://s3-media2.fl.yelpcdn.com/bphoto/zkHRLUmhupJXLq_za-NHXQ/o.jpg", "is_closed": false, "url": "https://www.yelp.com/biz/yokohama-los-gatos?adjust_creative=IokN4du3-7NwKcCaUms5LA&utm_campaign=yelp_api_v3&utm_medium=api_v3_business_search&utm_source=IokN4du3-7NwKcCaUms5LA", "review_count": 187, "categories": [{"alias": "japanese", "title": "Japanese"}, {"alias": "sushi", "title": "Sushi Bars"}], "rating": 3.5, "coordinates": {"latitude": 37.228214263916, "longitude": -121.981002807617}, "transactions": [], "price": "$$", "location": {"address1": "336 N Santa Cruz Ave", "address2": "", "address3": "", "city": "Los Gatos", "zip_code": "95030", "country": "US", "state": "CA", "display_address": ["336 N Santa Cruz Ave", "Los Gatos, CA 95030"]}, "phone": "+14083951990", "display_phone": "(408) 395-1990", "distance": 118.14055714439948}, {"id": "V8eLckUBUza0a4XkYUUK0g", "alias": "urban-remedy-los-gatos", "name": "Urban Remedy", "image_url": "https://s3-media3.fl.yelpcdn.com/bphoto/y-AgA22n1w58mOWEJy-HJw/o.jpg", "is_closed": false, "url": "https://www.yelp.com/biz/urban-remedy-los-gatos?adjust_creative=IokN4du3-7NwKcCaUms5LA&utm_campaign=yelp_api_v3&utm_medium=api_v3_business_search&utm_source=IokN4du3-7NwKcCaUms5LA", "review_count": 26, "categories": [{"alias": "gluten_free", "title": "Gluten-Free"}, {"alias": "vegetarian", "title": "Vegetarian"}, {"alias": "vegan", "title": "Vegan"}], "rating": 4.5, "coordinates": {"latitude": 37.22388, "longitude": -121.98135}, "transactions": [], "location": {"address1": "104 University Ave", "address2": null, "address3": "", "city": "Los Gatos", "zip_code": "95030", "country": "US", "state": "CA", "display_address": ["104 University Ave", "Los Gatos, CA 95030"]}, "phone": "+14084789360", "display_phone": "(408) 478-9360", "distance": 383.3280054212861}, {"id": "5sUU6GWVN6wYxETRZvC1hg", "alias": "blue-line-pizza-los-gatos-2", "name": "Blue Line Pizza", "image_url": "https://s3-media2.fl.yelpcdn.com/bphoto/kUnpeZ1nPLhwRlNGHurNPA/o.jpg", "is_closed": false, "url": "https://www.yelp.com/biz/blue-line-pizza-los-gatos-2?adjust_creative=IokN4du3-7NwKcCaUms5LA&utm_campaign=yelp_api_v3&utm_medium=api_v3_business_search&utm_source=IokN4du3-7NwKcCaUms5LA", "review_count": 234, "categories": [{"alias": "pizza", "title": "Pizza"}, {"alias": "gluten_free", "title": "Gluten-Free"}, {"alias": "venues", "title": "Venues & Event Spaces"}], "rating": 4.0, "coordinates": {"latitude": 37.222599029541, "longitude": -121.983207702637}, "transactions": [], "price": "$$", "location": {"address1": "160 W Main St", "address2": "", "address3": "", "city": "Los Gatos", "zip_code": "95030", "country": "US", "state": "CA", "display_address": ["160 W Main St", "Los Gatos, CA 95030"]}, "phone": "+14083549900", "display_phone": "(408) 354-9900", "distance": 567.32818202246}, {"id": "g_TnCzQXiZe6z4BPAlZK3Q", "alias": "kamakura-japanese-restaurant-los-gatos", "name": "Kamakura Japanese Restaurant", "image_url": "https://s3-media2.fl.yelpcdn.com/bphoto/zkKkd9-oeN0harRyzgSIFw/o.jpg", "is_closed": false, "url": "https://www.yelp.com/biz/kamakura-japanese-restaurant-los-gatos?adjust_creative=IokN4du3-7NwKcCaUms5LA&utm_campaign=yelp_api_v3&utm_medium=api_v3_business_search&utm_source=IokN4du3-7NwKcCaUms5LA", "review_count": 344, "categories": [{"alias": "japanese", "title": "Japanese"}], "rating": 3.5, "coordinates": {"latitude": 37.22557, "longitude": -121.98285}, "transactions": [], "price": "$$", "location": {"address1": "135 N Santa Cruz Ave", "address2": "", "address3": "", "city": "Los Gatos", "zip_code": "95030", "country": "US", "state": "CA", "display_address": ["135 N Santa Cruz Ave", "Los Gatos, CA 95030"]}, "phone": "+14083956650", "display_phone": "(408) 395-6650", "distance": 271.09725640149327}, {"id": "lXpHSXs4oS4ylJFudGImPA", "alias": "thai-spice-los-gatos", "name": "Thai Spice", "image_url": "https://s3-media4.fl.yelpcdn.com/bphoto/hycytK1QED8-WDmuOtBeUw/o.jpg", "is_closed": false, "url": "https://www.yelp.com/biz/thai-spice-los-gatos?adjust_creative=IokN4du3-7NwKcCaUms5LA&utm_campaign=yelp_api_v3&utm_medium=api_v3_business_search&utm_source=IokN4du3-7NwKcCaUms5LA", "review_count": 333, "categories": [{"alias": "thai", "title": "Thai"}], "rating": 3.5, "coordinates": {"latitude": 37.2286338471153, "longitude": -121.981339690321}, "transactions": [], "price": "$$", "location": {"address1": "337 N Santa Cruz Ave", "address2": "", "address3": "", "city": "Los Gatos", "zip_code": "95030", "country": "US", "state": "CA", "display_address": ["337 N Santa Cruz Ave", "Los Gatos, CA 95030"]}, "phone": "+14083542785", "display_phone": "(408) 354-2785", "distance": 170.10190048147538}, {"id": "mNkLBCGMJ9VGjs3mLBdLhQ", "alias": "double-ds-sports-grille-los-gatos-2", "name": "Double D's Sports Grille", "image_url": "https://s3-media1.fl.yelpcdn.com/bphoto/IWvgVTxp_yfOZI70Uj2n3g/o.jpg", "is_closed": false, "url": "https://www.yelp.com/biz/double-ds-sports-grille-los-gatos-2?adjust_creative=IokN4du3-7NwKcCaUms5LA&utm_campaign=yelp_api_v3&utm_medium=api_v3_business_search&utm_source=IokN4du3-7NwKcCaUms5LA", "review_count": 308, "categories": [{"alias": "sportsbars", "title": "Sports Bars"}, {"alias": "salad", "title": "Salad"}, {"alias": "burgers", "title": "Burgers"}], "rating": 3.5, "coordinates": {"latitude": 37.228569, "longitude": -121.980846}, "transactions": [], "price": "$$", "location": {"address1": "354 N Santa Cruz Ave", "address2": null, "address3": "", "city": "Los Gatos", "zip_code": "95030", "country": "US", "state": "CA", "display_address": ["354 N Santa Cruz Ave", "Los Gatos, CA 95030"]}, "phone": "+14084023407", "display_phone": "(408) 402-3407", "distance": 149.3157660058662}, {"id": "5Sk28JiBHwgS3Sp6gsJHnQ", "alias": "willow-street-wood-fired-pizza-los-gatos-6", "name": "Willow Street Wood-Fired Pizza", "image_url": "https://s3-media3.fl.yelpcdn.com/bphoto/zSDgYlVfK6BSkCZzX8D0Zw/o.jpg", "is_closed": false, "url": "https://www.yelp.com/biz/willow-street-wood-fired-pizza-los-gatos-6?adjust_creative=IokN4du3-7NwKcCaUms5LA&utm_campaign=yelp_api_v3&utm_medium=api_v3_business_search&utm_source=IokN4du3-7NwKcCaUms5LA", "review_count": 544, "categories": [{"alias": "pizza", "title": "Pizza"}, {"alias": "italian", "title": "Italian"}], "rating": 3.5, "coordinates": {"latitude": 37.222369, "longitude": -121.984377}, "transactions": ["pickup", "delivery"], "price": "$$", "location": {"address1": "20 S Santa Cruz Ave", "address2": "", "address3": "", "city": "Los Gatos", "zip_code": "95030", "country": "US", "state": "CA", "display_address": ["20 S Santa Cruz Ave", "Los Gatos, CA 95030"]}, "phone": "+14083545566", "display_phone": "(408) 354-5566", "distance": 629.4578040157827}, {"id": "rp-clpdzM8bxEzoXEmC4ng", "alias": "gardino-fresco-los-gatos", "name": "Gardino Fresco", "image_url": "https://s3-media1.fl.yelpcdn.com/bphoto/t9ouER5y4hM8U5mBuHzemA/o.jpg", "is_closed": false, "url": "https://www.yelp.com/biz/gardino-fresco-los-gatos?adjust_creative=IokN4du3-7NwKcCaUms5LA&utm_campaign=yelp_api_v3&utm_medium=api_v3_business_search&utm_source=IokN4du3-7NwKcCaUms5LA", "review_count": 359, "categories": [{"alias": "italian", "title": "Italian"}], "rating": 3.0, "coordinates": {"latitude": 37.224098, "longitude": -121.98352}, "transactions": [], "price": "$$", "location": {"address1": "51 N Santa Cruz Ave", "address2": null, "address3": "", "city": "Los Gatos", "zip_code": "95030", "country": "US", "state": "CA", "display_address": ["51 N Santa Cruz Ave", "Los Gatos, CA 95030"]}, "phone": "+14083548788", "display_phone": "(408) 354-8788", "distance": 435.72479996283016}, {"id": "ZhF7--Ttw0OPazyuelddKQ", "alias": "t-birds-pizza-of-los-gatos-los-gatos", "name": "T-Birds Pizza of Los Gatos", "image_url": "https://s3-media2.fl.yelpcdn.com/bphoto/h2Q4juCHvd6yke8qThqL6w/o.jpg", "is_closed": false, "url": "https://www.yelp.com/biz/t-birds-pizza-of-los-gatos-los-gatos?adjust_creative=IokN4du3-7NwKcCaUms5LA&utm_campaign=yelp_api_v3&utm_medium=api_v3_business_search&utm_source=IokN4du3-7NwKcCaUms5LA", "review_count": 220, "categories": [{"alias": "pizza", "title": "Pizza"}, {"alias": "salad", "title": "Salad"}, {"alias": "tradamerican", "title": "American (Traditional)"}], "rating": 4.0, "coordinates": {"latitude": 37.230894706748, "longitude": -121.9798665292}, "transactions": ["pickup", "delivery"], "price": "$$", "location": {"address1": "444 N Santa Cruz Ave", "address2": "", "address3": "", "city": "Los Gatos", "zip_code": "95030", "country": "US", "state": "CA", "display_address": ["444 N Santa Cruz Ave", "Los Gatos, CA 95030"]}, "phone": "+14083952525", "display_phone": "(408) 395-2525", "distance": 409.0529539644747}, {"id": "d82psc-ynZHKfHwWtoMbog", "alias": "the-diner-of-los-gatos-los-gatos", "name": "The Diner of Los Gatos", "image_url": "https://s3-media2.fl.yelpcdn.com/bphoto/xO-wjglmfKSWDCaX3z5KqQ/o.jpg", "is_closed": false, "url": "https://www.yelp.com/biz/the-diner-of-los-gatos-los-gatos?adjust_creative=IokN4du3-7NwKcCaUms5LA&utm_campaign=yelp_api_v3&utm_medium=api_v3_business_search&utm_source=IokN4du3-7NwKcCaUms5LA", "review_count": 228, "categories": [{"alias": "diners", "title": "Diners"}, {"alias": "tradamerican", "title": "American (Traditional)"}, {"alias": "greek", "title": "Greek"}], "rating": 3.5, "coordinates": {"latitude": 37.22951, "longitude": -121.98225}, "transactions": ["pickup"], "price": "$$", "location": {"address1": "235 Los Gatos Saratoga Rd", "address2": "", "address3": "", "city": "Los Gatos", "zip_code": "95030", "country": "US", "state": "CA", "display_address": ["235 Los Gatos Saratoga Rd", "Los Gatos, CA 95030"]}, "phone": "+14083544886", "display_phone": "(408) 354-4886", "distance": 287.4870374594028}, {"id": "kYFYRYJhUpi5SBTp_VZ-Xw", "alias": "fleur-de-cocoa-los-gatos", "name": "Fleur de Cocoa", "image_url": "https://s3-media3.fl.yelpcdn.com/bphoto/7yUOrzAJTMEnjr3svtT3Dg/o.jpg", "is_closed": false, "url": "https://www.yelp.com/biz/fleur-de-cocoa-los-gatos?adjust_creative=IokN4du3-7NwKcCaUms5LA&utm_campaign=yelp_api_v3&utm_medium=api_v3_business_search&utm_source=IokN4du3-7NwKcCaUms5LA", "review_count": 497, "categories": [{"alias": "bakeries", "title": "Bakeries"}, {"alias": "chocolate", "title": "Chocolatiers & Shops"}, {"alias": "cafes", "title": "Cafes"}], "rating": 4.0, "coordinates": {"latitude": 37.22366, "longitude": -121.98374}, "transactions": ["pickup"], "price": "$$", "location": {"address1": "39 N Santa Cruz Ave", "address2": "", "address3": "", "city": "Los Gatos", "zip_code": "95030", "country": "US", "state": "CA", "display_address": ["39 N Santa Cruz Ave", "Los Gatos, CA 95030"]}, "phone": "+14083543574", "display_phone": "(408) 354-3574", "distance": 488.9947506429543}, {"id": "Rq_0Q6GIonya8FAnZxB0Wg", "alias": "la-esquina-los-gatos", "name": "La Esquina", "image_url": "https://s3-media3.fl.yelpcdn.com/bphoto/DM5s8AsB-oXvsaYBSEqQIg/o.jpg", "is_closed": false, "url": "https://www.yelp.com/biz/la-esquina-los-gatos?adjust_creative=IokN4du3-7NwKcCaUms5LA&utm_campaign=yelp_api_v3&utm_medium=api_v3_business_search&utm_source=IokN4du3-7NwKcCaUms5LA", "review_count": 177, "categories": [{"alias": "mexican", "title": "Mexican"}], "rating": 3.5, "coordinates": {"latitude": 37.233708, "longitude": -121.978949}, "transactions": ["pickup", "delivery"], "price": "$$", "location": {"address1": "551 N Santa Cruz Ave", "address2": "", "address3": "", "city": "Los Gatos", "zip_code": "95030", "country": "US", "state": "CA", "display_address": ["551 N Santa Cruz Ave", "Los Gatos, CA 95030"]}, "phone": "+14088848599", "display_phone": "(408) 884-8599", "distance": 731.0919097687514}, {"id": "wLay0tnPE8Ccj6i7sH9Thw", "alias": "cafe-dio-los-gatos", "name": "Cafe Dio", "image_url": "https://s3-media1.fl.yelpcdn.com/bphoto/Qm_8KGzhqICdYfG5b8CYrg/o.jpg", "is_closed": false, "url": "https://www.yelp.com/biz/cafe-dio-los-gatos?adjust_creative=IokN4du3-7NwKcCaUms5LA&utm_campaign=yelp_api_v3&utm_medium=api_v3_business_search&utm_source=IokN4du3-7NwKcCaUms5LA", "review_count": 84, "categories": [{"alias": "cafes", "title": "Cafes"}], "rating": 4.5, "coordinates": {"latitude": 37.2212143188385, "longitude": -121.977216352792}, "transactions": ["pickup", "delivery"], "price": "$", "location": {"address1": "151 E Main St", "address2": "", "address3": "", "city": "Los Gatos", "zip_code": "95030", "country": "US", "state": "CA", "display_address": ["151 E Main St", "Los Gatos, CA 95030"]}, "phone": "+14088279737", "display_phone": "(408) 827-9737", "distance": 732.1581550208755}, {"id": "JAbFEjWxXEG7T3E-HcIUWA", "alias": "american-italian-delicatessen-los-gatos", "name": "American Italian Delicatessen", "image_url": "https://s3-media2.fl.yelpcdn.com/bphoto/hsJOu0g1sYDkwxCTNai4Uw/o.jpg", "is_closed": false, "url": "https://www.yelp.com/biz/american-italian-delicatessen-los-gatos?adjust_creative=IokN4du3-7NwKcCaUms5LA&utm_campaign=yelp_api_v3&utm_medium=api_v3_business_search&utm_source=IokN4du3-7NwKcCaUms5LA", "review_count": 98, "categories": [{"alias": "delis", "title": "Delis"}, {"alias": "sandwiches", "title": "Sandwiches"}], "rating": 4.0, "coordinates": {"latitude": 37.2239369338764, "longitude": -121.982878762763}, "transactions": [], "price": "$", "location": {"address1": "42 Elm St", "address2": null, "address3": "", "city": "Los Gatos", "zip_code": "95030", "country": "US", "state": "CA", "display_address": ["42 Elm St", "Los Gatos, CA 95030"]}, "phone": "+14083993354", "display_phone": "(408) 399-3354", "distance": 423.9431961857916}, {"id": "CC6z5Ga98GI9D5SvjkGpnA", "alias": "mr-pickle-s-sandwich-shop-los-gatos", "name": "Mr. Pickle\u2019s Sandwich Shop", "image_url": "https://s3-media3.fl.yelpcdn.com/bphoto/Kzfl_-XtXH2dCooCSRj3VA/o.jpg", "is_closed": false, "url": "https://www.yelp.com/biz/mr-pickle-s-sandwich-shop-los-gatos?adjust_creative=IokN4du3-7NwKcCaUms5LA&utm_campaign=yelp_api_v3&utm_medium=api_v3_business_search&utm_source=IokN4du3-7NwKcCaUms5LA", "review_count": 320, "categories": [{"alias": "sandwiches", "title": "Sandwiches"}], "rating": 3.5, "coordinates": {"latitude": 37.2259559631348, "longitude": -121.98267364502}, "transactions": ["pickup", "delivery"], "price": "$", "location": {"address1": "151 N Santa Cruz Ave", "address2": "", "address3": "", "city": "Los Gatos", "zip_code": "95030", "country": "US", "state": "CA", "display_address": ["151 N Santa Cruz Ave", "Los Gatos, CA 95030"]}, "phone": "+14083958800", "display_phone": "(408) 395-8800", "distance": 241.10411504257425}, {"id": "I1Gyd1-UyKa0tq5ptXXVkw", "alias": "andale-mexican-restaurant-los-gatos", "name": "Andale Mexican Restaurant", "image_url": "https://s3-media1.fl.yelpcdn.com/bphoto/i0dGieA2sV6r9_-D_mNfaA/o.jpg", "is_closed": false, "url": "https://www.yelp.com/biz/andale-mexican-restaurant-los-gatos?adjust_creative=IokN4du3-7NwKcCaUms5LA&utm_campaign=yelp_api_v3&utm_medium=api_v3_business_search&utm_source=IokN4du3-7NwKcCaUms5LA", "review_count": 327, "categories": [{"alias": "mexican", "title": "Mexican"}, {"alias": "breakfast_brunch", "title": "Breakfast & Brunch"}], "rating": 3.5, "coordinates": {"latitude": 37.223302, "longitude": -121.983749}, "transactions": [], "price": "$$", "location": {"address1": "21 N Santa Cruz Ave", "address2": "", "address3": "", "city": "Los Gatos", "zip_code": "95030", "country": "US", "state": "CA", "display_address": ["21 N Santa Cruz Ave", "Los Gatos, CA 95030"]}, "phone": "+14083958997", "display_phone": "(408) 395-8997", "distance": 524.3695576013218}, {"id": "1ZfOHTsX_Bvkqou2mSSxQg", "alias": "los-gatos-lodge-bar-and-grill-los-gatos", "name": "Los Gatos Lodge Bar & Grill", "image_url": "https://s3-media1.fl.yelpcdn.com/bphoto/GLjhKTurZrmW4nGGOXEJZQ/o.jpg", "is_closed": false, "url": "https://www.yelp.com/biz/los-gatos-lodge-bar-and-grill-los-gatos?adjust_creative=IokN4du3-7NwKcCaUms5LA&utm_campaign=yelp_api_v3&utm_medium=api_v3_business_search&utm_source=IokN4du3-7NwKcCaUms5LA", "review_count": 31, "categories": [{"alias": "bars", "title": "Bars"}, {"alias": "salad", "title": "Salad"}, {"alias": "sandwiches", "title": "Sandwiches"}], "rating": 3.0, "coordinates": {"latitude": 37.225677, "longitude": -121.9719977}, "transactions": [], "price": "$$", "location": {"address1": "50 Los Gatos Saratoga Rd", "address2": "", "address3": "", "city": "Los Gatos", "zip_code": "95030", "country": "US", "state": "CA", "display_address": ["50 Los Gatos Saratoga Rd", "Los Gatos, CA 95030"]}, "phone": "+14083543300", "display_phone": "(408) 354-3300", "distance": 705.1278653847892}, {"id": "c-E4KJxDfhRxcN6QtH5_JA", "alias": "pizza-my-heart-los-gatos", "name": "Pizza My Heart", "image_url": "https://s3-media3.fl.yelpcdn.com/bphoto/Z7Vy03n-Gd91sZfhQnWJ-w/o.jpg", "is_closed": false, "url": "https://www.yelp.com/biz/pizza-my-heart-los-gatos?adjust_creative=IokN4du3-7NwKcCaUms5LA&utm_campaign=yelp_api_v3&utm_medium=api_v3_business_search&utm_source=IokN4du3-7NwKcCaUms5LA", "review_count": 224, "categories": [{"alias": "pizza", "title": "Pizza"}], "rating": 4.0, "coordinates": {"latitude": 37.2228546, "longitude": -121.9839218}, "transactions": ["pickup", "delivery"], "price": "$", "location": {"address1": "9 N Santa Cruz Ave", "address2": "", "address3": "", "city": "Los Gatos", "zip_code": "95030", "country": "US", "state": "CA", "display_address": ["9 N Santa Cruz Ave", "Los Gatos, CA 95030"]}, "phone": "+14083958834", "display_phone": "(408) 395-8834", "distance": 567.1583486201623}, {"id": "yDTUa9oEPBIjaaH3DRKE5A", "alias": "purple-onion-cafe-los-gatos", "name": "Purple Onion Cafe", "image_url": "https://s3-media4.fl.yelpcdn.com/bphoto/8qmFZroVjXnPZjmG3P4cgA/o.jpg", "is_closed": false, "url": "https://www.yelp.com/biz/purple-onion-cafe-los-gatos?adjust_creative=IokN4du3-7NwKcCaUms5LA&utm_campaign=yelp_api_v3&utm_medium=api_v3_business_search&utm_source=IokN4du3-7NwKcCaUms5LA", "review_count": 395, "categories": [{"alias": "tradamerican", "title": "American (Traditional)"}, {"alias": "breakfast_brunch", "title": "Breakfast & Brunch"}, {"alias": "cafes", "title": "Cafes"}], "rating": 3.5, "coordinates": {"latitude": 37.2212125, "longitude": -121.9806376}, "transactions": [], "price": "$$", "location": {"address1": "26 E Main St", "address2": "", "address3": "", "city": "Los Gatos", "zip_code": "95030", "country": "US", "state": "CA", "display_address": ["26 E Main St", "Los Gatos, CA 95030"]}, "phone": "+14083544125", "display_phone": "(408) 354-4125", "distance": 671.68973618203}, {"id": "Y92KRhyPgPOWamLgy7nOEQ", "alias": "andale-los-gatos", "name": "Andale", "image_url": "https://s3-media4.fl.yelpcdn.com/bphoto/FUF_qxt7YJrBjMeE_fAcpw/o.jpg", "is_closed": false, "url": "https://www.yelp.com/biz/andale-los-gatos?adjust_creative=IokN4du3-7NwKcCaUms5LA&utm_campaign=yelp_api_v3&utm_medium=api_v3_business_search&utm_source=IokN4du3-7NwKcCaUms5LA", "review_count": 301, "categories": [{"alias": "mexican", "title": "Mexican"}, {"alias": "breakfast_brunch", "title": "Breakfast & Brunch"}], "rating": 3.5, "coordinates": {"latitude": 37.22278, "longitude": -121.98355}, "transactions": ["pickup", "delivery"], "price": "$$", "location": {"address1": "6 N Santa Cruz Ave", "address2": "", "address3": "", "city": "Los Gatos", "zip_code": "95030", "country": "US", "state": "CA", "display_address": ["6 N Santa Cruz Ave", "Los Gatos, CA 95030"]}, "phone": "+14083954244", "display_phone": "(408) 395-4244", "distance": 568.8175029209483}, {"id": "vXjB-tafK4xjriB6Bmg7lA", "alias": "sweet-peas-cafe-and-catering-los-gatos-3", "name": "Sweet Pea's Cafe & Catering", "image_url": "https://s3-media4.fl.yelpcdn.com/bphoto/Y544866o_a0kGIecV3fEbA/o.jpg", "is_closed": false, "url": "https://www.yelp.com/biz/sweet-peas-cafe-and-catering-los-gatos-3?adjust_creative=IokN4du3-7NwKcCaUms5LA&utm_campaign=yelp_api_v3&utm_medium=api_v3_business_search&utm_source=IokN4du3-7NwKcCaUms5LA", "review_count": 530, "categories": [{"alias": "creperies", "title": "Creperies"}, {"alias": "sandwiches", "title": "Sandwiches"}, {"alias": "breakfast_brunch", "title": "Breakfast & Brunch"}], "rating": 3.5, "coordinates": {"latitude": 37.2310829162598, "longitude": -121.980308532715}, "transactions": ["pickup", "delivery"], "price": "$", "location": {"address1": "453 N Santa Cruz Ave", "address2": "", "address3": "", "city": "Los Gatos", "zip_code": "95030", "country": "US", "state": "CA", "display_address": ["453 N Santa Cruz Ave", "Los Gatos, CA 95030"]}, "phone": "+14083543144", "display_phone": "(408) 354-3144", "distance": 408.1316835630757}, {"id": "AL7FX1HCBE8rI60CaVim5w", "alias": "round-table-pizza-los-gatos", "name": "Round Table Pizza", "image_url": "https://s3-media3.fl.yelpcdn.com/bphoto/CFRPRNtqVRwwm7OxX5MccA/o.jpg", "is_closed": false, "url": "https://www.yelp.com/biz/round-table-pizza-los-gatos?adjust_creative=IokN4du3-7NwKcCaUms5LA&utm_campaign=yelp_api_v3&utm_medium=api_v3_business_search&utm_source=IokN4du3-7NwKcCaUms5LA", "review_count": 43, "categories": [{"alias": "pizza", "title": "Pizza"}, {"alias": "buffets", "title": "Buffets"}], "rating": 4.0, "coordinates": {"latitude": 37.224032, "longitude": -121.983316}, "transactions": ["pickup", "delivery"], "price": "$$", "location": {"address1": "57 N Santa Cruz Ave", "address2": "", "address3": "", "city": "Los Gatos", "zip_code": "95030", "country": "US", "state": "CA", "display_address": ["57 N Santa Cruz Ave", "Los Gatos, CA 95030"]}, "phone": "+14083547520", "display_phone": "(408) 354-7520", "distance": 435.60491172351243}, {"id": "fKSTP8ChMja60eGZIntZ2Q", "alias": "maple-leaf-donuts-los-gatos", "name": "Maple Leaf Donuts", "image_url": "https://s3-media2.fl.yelpcdn.com/bphoto/WytqwRq8KVncsBKdhsYv_Q/o.jpg", "is_closed": false, "url": "https://www.yelp.com/biz/maple-leaf-donuts-los-gatos?adjust_creative=IokN4du3-7NwKcCaUms5LA&utm_campaign=yelp_api_v3&utm_medium=api_v3_business_search&utm_source=IokN4du3-7NwKcCaUms5LA", "review_count": 64, "categories": [{"alias": "donuts", "title": "Donuts"}, {"alias": "coffee", "title": "Coffee & Tea"}, {"alias": "sandwiches", "title": "Sandwiches"}], "rating": 4.0, "coordinates": {"latitude": 37.233335, "longitude": -121.9786477}, "transactions": [], "price": "$", "location": {"address1": "540 N Santa Cruz Ave", "address2": "Ste J", "address3": "", "city": "Los Gatos", "zip_code": "95030", "country": "US", "state": "CA", "display_address": ["540 N Santa Cruz Ave", "Ste J", "Los Gatos, CA 95030"]}, "phone": "+14083950205", "display_phone": "(408) 395-0205", "distance": 696.2590368816875}, {"id": "y7jjHpDrYUI7YGpE8e31-g", "alias": "pita-and-salt-santa-clara-2", "name": "Pita & Salt", "image_url": "https://s3-media4.fl.yelpcdn.com/bphoto/OzeFWYEgK2L4rl5VOSyEHQ/o.jpg", "is_closed": false, "url": "https://www.yelp.com/biz/pita-and-salt-santa-clara-2?adjust_creative=IokN4du3-7NwKcCaUms5LA&utm_campaign=yelp_api_v3&utm_medium=api_v3_business_search&utm_source=IokN4du3-7NwKcCaUms5LA", "review_count": 74, "categories": [{"alias": "mediterranean", "title": "Mediterranean"}, {"alias": "halal", "title": "Halal"}, {"alias": "foodtrucks", "title": "Food Trucks"}], "rating": 4.5, "coordinates": {"latitude": 37.3400871, "longitude": -121.987255}, "transactions": ["pickup", "delivery"], "price": "$", "location": {"address1": null, "address2": null, "address3": "", "city": "Santa Clara", "zip_code": "95051", "country": "US", "state": "CA", "display_address": ["Santa Clara, CA 95051"]}, "phone": "+16128765509", "display_phone": "(612) 876-5509", "distance": 12560.800465819793}, {"id": "rTLv1Zlp64bK4BOe5SRjoA", "alias": "raoofs-san-jose-bean-pies-san-jose-2", "name": "Raoof's San Jose Bean Pies", "image_url": "https://s3-media3.fl.yelpcdn.com/bphoto/MxgzO7Fq5Fa6iw-MuTQ5CQ/o.jpg", "is_closed": false, "url": "https://www.yelp.com/biz/raoofs-san-jose-bean-pies-san-jose-2?adjust_creative=IokN4du3-7NwKcCaUms5LA&utm_campaign=yelp_api_v3&utm_medium=api_v3_business_search&utm_source=IokN4du3-7NwKcCaUms5LA", "review_count": 37, "categories": [{"alias": "bakeries", "title": "Bakeries"}, {"alias": "foodstands", "title": "Food Stands"}, {"alias": "desserts", "title": "Desserts"}], "rating": 5.0, "coordinates": {"latitude": 37.27898, "longitude": -121.95396}, "transactions": [], "price": "$$", "location": {"address1": "", "address2": "", "address3": "", "city": "San Jose", "zip_code": "95008", "country": "US", "state": "CA", "display_address": ["San Jose, CA 95008"]}, "phone": "+14085838129", "display_phone": "(408) 583-8129", "distance": 6044.332639287708}, {"id": "xnnGAEE45BaBClgDXgCyMA", "alias": "subway-restaurants-los-gatos-3", "name": "Subway Restaurants", "image_url": "https://s3-media1.fl.yelpcdn.com/bphoto/dRx4iuTlu_x22atPGA4eng/o.jpg", "is_closed": false, "url": "https://www.yelp.com/biz/subway-restaurants-los-gatos-3?adjust_creative=IokN4du3-7NwKcCaUms5LA&utm_campaign=yelp_api_v3&utm_medium=api_v3_business_search&utm_source=IokN4du3-7NwKcCaUms5LA", "review_count": 33, "categories": [{"alias": "sandwiches", "title": "Sandwiches"}], "rating": 2.5, "coordinates": {"latitude": 37.2333598431675, "longitude": -121.978591366285}, "transactions": [], "price": "$", "location": {"address1": "540-B North Santa Cruz Ave", "address2": "", "address3": "", "city": "Los Gatos", "zip_code": "95030", "country": "US", "state": "CA", "display_address": ["540-B North Santa Cruz Ave", "Los Gatos, CA 95030"]}, "phone": "+14083952090", "display_phone": "(408) 395-2090", "distance": 700.1389641010473}, {"id": "eFze49p61lnz566lHbLcfw", "alias": "smoked-out-bbq-santa-clara-3", "name": "Smoked Out BBQ", "image_url": "https://s3-media2.fl.yelpcdn.com/bphoto/L77L7PXYKv_Ndhdx1B6y2A/o.jpg", "is_closed": false, "url": "https://www.yelp.com/biz/smoked-out-bbq-santa-clara-3?adjust_creative=IokN4du3-7NwKcCaUms5LA&utm_campaign=yelp_api_v3&utm_medium=api_v3_business_search&utm_source=IokN4du3-7NwKcCaUms5LA", "review_count": 101, "categories": [{"alias": "foodtrucks", "title": "Food Trucks"}, {"alias": "bbq", "title": "Barbeque"}, {"alias": "tradamerican", "title": "American (Traditional)"}], "rating": 4.5, "coordinates": {"latitude": 37.38453, "longitude": -121.94872}, "transactions": ["pickup", "delivery"], "price": "$$", "location": {"address1": "807 Aldo Ave", "address2": "Ste 106", "address3": "", "city": "Santa Clara", "zip_code": "95054", "country": "US", "state": "CA", "display_address": ["807 Aldo Ave", "Ste 106", "Santa Clara, CA 95054"]}, "phone": "+14083202971", "display_phone": "(408) 320-2971", "distance": 17726.191287105703}, {"id": "rRVAOEHSBuvzOWkz6NJ72A", "alias": "gold-rush-eatery-sunnyvale-6", "name": "Gold Rush Eatery", "image_url": "https://s3-media1.fl.yelpcdn.com/bphoto/CFpX50jiQRajc_tx_GVShA/o.jpg", "is_closed": false, "url": "https://www.yelp.com/biz/gold-rush-eatery-sunnyvale-6?adjust_creative=IokN4du3-7NwKcCaUms5LA&utm_campaign=yelp_api_v3&utm_medium=api_v3_business_search&utm_source=IokN4du3-7NwKcCaUms5LA", "review_count": 140, "categories": [{"alias": "foodtrucks", "title": "Food Trucks"}, {"alias": "burgers", "title": "Burgers"}, {"alias": "beerbar", "title": "Beer Bar"}], "rating": 4.0, "coordinates": {"latitude": 37.3551306948281, "longitude": -122.010198819353}, "transactions": ["pickup", "delivery"], "price": "$$", "location": {"address1": "1010 S Wolfe Rd", "address2": null, "address3": "", "city": "Sunnyvale", "zip_code": "94036", "country": "US", "state": "CA", "display_address": ["1010 S Wolfe Rd", "Sunnyvale, CA 94036"]}, "phone": "+14087435336", "display_phone": "(408) 743-5336", "distance": 14459.846265324404}, {"id": "3vpe03iIZMCN1j0W39AROg", "alias": "akita-gourmet-santa-clara", "name": "Akita Gourmet", "image_url": "https://s3-media2.fl.yelpcdn.com/bphoto/pJgeD4nO8FKiP1wouYt6fA/o.jpg", "is_closed": false, "url": "https://www.yelp.com/biz/akita-gourmet-santa-clara?adjust_creative=IokN4du3-7NwKcCaUms5LA&utm_campaign=yelp_api_v3&utm_medium=api_v3_business_search&utm_source=IokN4du3-7NwKcCaUms5LA", "review_count": 51, "categories": [{"alias": "foodtrucks", "title": "Food Trucks"}, {"alias": "sushi", "title": "Sushi Bars"}], "rating": 4.0, "coordinates": {"latitude": 37.3572313, "longitude": -121.9340228}, "transactions": ["delivery"], "price": "$$", "location": {"address1": "1290 Coleman Av", "address2": null, "address3": "", "city": "Santa Clara", "zip_code": "95050", "country": "US", "state": "CA", "display_address": ["1290 Coleman Av", "Santa Clara, CA 95050"]}, "phone": "+14089305242", "display_phone": "(408) 930-5242", "distance": 15026.751594629004}, {"id": "4gmDsMXsH_6vTB_Bjysu9g", "alias": "spartan-taco-truck-san-jose-4", "name": "Spartan Taco Truck", "image_url": "https://s3-media3.fl.yelpcdn.com/bphoto/wWT_uA8_FBoQz536K6La_g/o.jpg", "is_closed": false, "url": "https://www.yelp.com/biz/spartan-taco-truck-san-jose-4?adjust_creative=IokN4du3-7NwKcCaUms5LA&utm_campaign=yelp_api_v3&utm_medium=api_v3_business_search&utm_source=IokN4du3-7NwKcCaUms5LA", "review_count": 265, "categories": [{"alias": "foodtrucks", "title": "Food Trucks"}, {"alias": "tacos", "title": "Tacos"}], "rating": 4.0, "coordinates": {"latitude": 37.3330919691377, "longitude": -121.875863783062}, "transactions": [], "price": "$", "location": {"address1": "447 E William St", "address2": "", "address3": "", "city": "San Jose", "zip_code": "95112", "country": "US", "state": "CA", "display_address": ["447 E William St", "San Jose, CA 95112"]}, "phone": "+14087128161", "display_phone": "(408) 712-8161", "distance": 14974.48267465666}, {"id": "dsjelo-3YvUgHIc0r7S7wQ", "alias": "taqueria-conchita-san-jose", "name": "Taqueria Conchita", "image_url": "https://s3-media2.fl.yelpcdn.com/bphoto/tH8PPv3e1t0iXnoNthyUuA/o.jpg", "is_closed": false, "url": "https://www.yelp.com/biz/taqueria-conchita-san-jose?adjust_creative=IokN4du3-7NwKcCaUms5LA&utm_campaign=yelp_api_v3&utm_medium=api_v3_business_search&utm_source=IokN4du3-7NwKcCaUms5LA", "review_count": 7, "categories": [{"alias": "foodtrucks", "title": "Food Trucks"}, {"alias": "mexican", "title": "Mexican"}], "rating": 5.0, "coordinates": {"latitude": 37.2770532, "longitude": -121.8428239}, "transactions": [], "price": "$", "location": {"address1": "3939 Snell Ave", "address2": null, "address3": null, "city": "San Jose", "zip_code": "95136", "country": "US", "state": "CA", "display_address": ["3939 Snell Ave", "San Jose, CA 95136"]}, "phone": "+16697778951", "display_phone": "(669) 777-8951", "distance": 13385.949059810642}, {"id": "E9ExesWjWXa7X-PFUqZxcg", "alias": "los-jamaytecos-sunnyvale", "name": "Los JamayTecos", "image_url": "https://s3-media4.fl.yelpcdn.com/bphoto/m27LP30Equ8c4I50TWRWAw/o.jpg", "is_closed": false, "url": "https://www.yelp.com/biz/los-jamaytecos-sunnyvale?adjust_creative=IokN4du3-7NwKcCaUms5LA&utm_campaign=yelp_api_v3&utm_medium=api_v3_business_search&utm_source=IokN4du3-7NwKcCaUms5LA", "review_count": 34, "categories": [{"alias": "tacos", "title": "Tacos"}, {"alias": "foodtrucks", "title": "Food Trucks"}], "rating": 4.5, "coordinates": {"latitude": 37.3522, "longitude": -122.03485}, "transactions": [], "price": "$", "location": {"address1": "", "address2": "", "address3": null, "city": "Sunnyvale", "zip_code": "94087", "country": "US", "state": "CA", "display_address": ["Sunnyvale, CA 94087"]}, "phone": "+14083989234", "display_phone": "(408) 398-9234", "distance": 14322.527017828948}, {"id": "0x_iVQeDq7YVMjNGUNuloA", "alias": "holy-cannoli-san-jose-3", "name": "Holy Cannoli", "image_url": "https://s3-media1.fl.yelpcdn.com/bphoto/-2Pxy7VYA8-CTgdvUf58Og/o.jpg", "is_closed": false, "url": "https://www.yelp.com/biz/holy-cannoli-san-jose-3?adjust_creative=IokN4du3-7NwKcCaUms5LA&utm_campaign=yelp_api_v3&utm_medium=api_v3_business_search&utm_source=IokN4du3-7NwKcCaUms5LA", "review_count": 58, "categories": [{"alias": "cafes", "title": "Cafes"}, {"alias": "catering", "title": "Caterers"}, {"alias": "foodtrucks", "title": "Food Trucks"}], "rating": 4.5, "coordinates": {"latitude": 37.337298, "longitude": -121.88759}, "transactions": ["pickup", "delivery"], "price": "$", "location": {"address1": "138 E Santa Clara St", "address2": null, "address3": null, "city": "San Jose", "zip_code": "95113", "country": "US", "state": "CA", "display_address": ["138 E Santa Clara St", "San Jose, CA 95113"]}, "phone": "+14085612223", "display_phone": "(408) 561-2223", "distance": 14741.860658846277}, {"id": "tcQpN3rG3ktGmO2NH-OexA", "alias": "namaste-nepal-food-truck-mountain-view-2", "name": "Namaste Nepal Food Truck", "image_url": "https://s3-media1.fl.yelpcdn.com/bphoto/OQR5yJrDhAYkOVug9B-MIQ/o.jpg", "is_closed": false, "url": "https://www.yelp.com/biz/namaste-nepal-food-truck-mountain-view-2?adjust_creative=IokN4du3-7NwKcCaUms5LA&utm_campaign=yelp_api_v3&utm_medium=api_v3_business_search&utm_source=IokN4du3-7NwKcCaUms5LA", "review_count": 203, "categories": [{"alias": "foodtrucks", "title": "Food Trucks"}, {"alias": "indpak", "title": "Indian"}, {"alias": "himalayan", "title": "Himalayan/Nepalese"}], "rating": 4.5, "coordinates": {"latitude": 37.3887273709385, "longitude": -122.088334396889}, "transactions": [], "price": "$", "location": {"address1": "1288 W El Camino Real", "address2": null, "address3": "", "city": "Mountain View", "zip_code": "94040", "country": "US", "state": "CA", "display_address": ["1288 W El Camino Real", "Mountain View, CA 94040"]}, "phone": "+14082205739", "display_phone": "(408) 220-5739", "distance": 20330.32852408231}, {"id": "Bo4_TkGvnbCccZQg40PO8Q", "alias": "tacos-and-taquizas-alvarez-san-jose", "name": "Tacos & Taquizas Alvarez", "image_url": "https://s3-media3.fl.yelpcdn.com/bphoto/66hzPwamHOmkS2BAvb10mA/o.jpg", "is_closed": false, "url": "https://www.yelp.com/biz/tacos-and-taquizas-alvarez-san-jose?adjust_creative=IokN4du3-7NwKcCaUms5LA&utm_campaign=yelp_api_v3&utm_medium=api_v3_business_search&utm_source=IokN4du3-7NwKcCaUms5LA", "review_count": 5, "categories": [{"alias": "foodtrucks", "title": "Food Trucks"}, {"alias": "tacos", "title": "Tacos"}], "rating": 4.5, "coordinates": {"latitude": 37.2876886157398, "longitude": -121.845688629302}, "transactions": [], "location": {"address1": "3071 Monterey Rd", "address2": "", "address3": null, "city": "San Jose", "zip_code": "95111", "country": "US", "state": "CA", "display_address": ["3071 Monterey Rd", "San Jose, CA 95111"]}, "phone": "+14088932159", "display_phone": "(408) 893-2159", "distance": 13694.666239809078}, {"id": "dTvTZ4agZo66oy4WlWfDtA", "alias": "masala-theory-san-jose-4", "name": "Masala Theory", "image_url": "https://s3-media1.fl.yelpcdn.com/bphoto/O612fes6FaNKdcsjil24Cw/o.jpg", "is_closed": false, "url": "https://www.yelp.com/biz/masala-theory-san-jose-4?adjust_creative=IokN4du3-7NwKcCaUms5LA&utm_campaign=yelp_api_v3&utm_medium=api_v3_business_search&utm_source=IokN4du3-7NwKcCaUms5LA", "review_count": 3, "categories": [{"alias": "foodtrucks", "title": "Food Trucks"}, {"alias": "indpak", "title": "Indian"}], "rating": 3.5, "coordinates": {"latitude": 37.39448, "longitude": -121.92574}, "transactions": [], "location": {"address1": "350 E Plumeria Dr", "address2": null, "address3": "", "city": "San Jose", "zip_code": "95134", "country": "US", "state": "CA", "display_address": ["350 E Plumeria Dr", "San Jose, CA 95134"]}, "phone": "+14083682224", "display_phone": "(408) 368-2224", "distance": 19229.48862921279}, {"id": "_Y526-jjGzk_fjXBj1EePA", "alias": "paddy-wagon-sliders-san-jose-11", "name": "Paddy Wagon Sliders", "image_url": "https://s3-media1.fl.yelpcdn.com/bphoto/ESoDFDH27crUaTgFNhJB0w/o.jpg", "is_closed": false, "url": "https://www.yelp.com/biz/paddy-wagon-sliders-san-jose-11?adjust_creative=IokN4du3-7NwKcCaUms5LA&utm_campaign=yelp_api_v3&utm_medium=api_v3_business_search&utm_source=IokN4du3-7NwKcCaUms5LA", "review_count": 225, "categories": [{"alias": "foodtrucks", "title": "Food Trucks"}, {"alias": "burgers", "title": "Burgers"}, {"alias": "catering", "title": "Caterers"}], "rating": 4.0, "coordinates": {"latitude": 37.3382082, "longitude": -121.8863286}, "transactions": [], "price": "$", "location": {"address1": "", "address2": null, "address3": "", "city": "San Jose", "zip_code": "95112", "country": "US", "state": "CA", "display_address": ["San Jose, CA 95112"]}, "phone": "+14086435254", "display_phone": "(408) 643-5254", "distance": 14888.123488968262}, {"id": "PDxq7VnVG0mCThRHHSN-6A", "alias": "los-jarochos-grill-san-jose-2", "name": "Los Jarochos Grill", "image_url": "https://s3-media1.fl.yelpcdn.com/bphoto/EAxtcK2U8BdCVieKFu2cFw/o.jpg", "is_closed": false, "url": "https://www.yelp.com/biz/los-jarochos-grill-san-jose-2?adjust_creative=IokN4du3-7NwKcCaUms5LA&utm_campaign=yelp_api_v3&utm_medium=api_v3_business_search&utm_source=IokN4du3-7NwKcCaUms5LA", "review_count": 18, "categories": [{"alias": "foodtrucks", "title": "Food Trucks"}, {"alias": "catering", "title": "Caterers"}, {"alias": "mexican", "title": "Mexican"}], "rating": 4.5, "coordinates": {"latitude": 37.3386497497559, "longitude": -121.88542175293}, "transactions": [], "price": "$", "location": {"address1": "", "address2": "", "address3": "", "city": "San Jose", "zip_code": "95054", "country": "US", "state": "CA", "display_address": ["San Jose, CA 95054"]}, "phone": "+14086444587", "display_phone": "(408) 644-4587", "distance": 19106.791502617958}, {"id": "NknognDC6ybcoUNmCvz5gg", "alias": "el-toro-tacos-san-jose", "name": "El Toro Tacos", "image_url": "https://s3-media2.fl.yelpcdn.com/bphoto/MuMNuCfwuKwNbZMKLM-bHQ/o.jpg", "is_closed": false, "url": "https://www.yelp.com/biz/el-toro-tacos-san-jose?adjust_creative=IokN4du3-7NwKcCaUms5LA&utm_campaign=yelp_api_v3&utm_medium=api_v3_business_search&utm_source=IokN4du3-7NwKcCaUms5LA", "review_count": 11, "categories": [{"alias": "foodtrucks", "title": "Food Trucks"}, {"alias": "tacos", "title": "Tacos"}], "rating": 4.5, "coordinates": {"latitude": 37.322199, "longitude": -121.8253679}, "transactions": [], "location": {"address1": "1708 Tully Rd", "address2": "", "address3": null, "city": "San Jose", "zip_code": "95122", "country": "US", "state": "CA", "display_address": ["1708 Tully Rd", "San Jose, CA 95122"]}, "phone": "+14088495396", "display_phone": "(408) 849-5396", "distance": 17317.981210615824}, {"id": "MutHfYUQnieaBuycuNXEPA", "alias": "damians-tacos-and-hotdogs-alum-rock", "name": "Damian's Tacos & Hotdogs", "image_url": "https://s3-media3.fl.yelpcdn.com/bphoto/HHmnhqlFJwEDhftVetH4qw/o.jpg", "is_closed": false, "url": "https://www.yelp.com/biz/damians-tacos-and-hotdogs-alum-rock?adjust_creative=IokN4du3-7NwKcCaUms5LA&utm_campaign=yelp_api_v3&utm_medium=api_v3_business_search&utm_source=IokN4du3-7NwKcCaUms5LA", "review_count": 7, "categories": [{"alias": "foodtrucks", "title": "Food Trucks"}, {"alias": "tacos", "title": "Tacos"}, {"alias": "hotdog", "title": "Hot Dogs"}], "rating": 4.5, "coordinates": {"latitude": 37.3549620850075, "longitude": -121.851418079178}, "transactions": [], "price": "$", "location": {"address1": "1925 Alumrock Ave", "address2": "", "address3": null, "city": "Alum Rock", "zip_code": "95116", "country": "US", "state": "CA", "display_address": ["1925 Alumrock Ave", "Alum Rock, CA 95116"]}, "phone": "+14084397331", "display_phone": "(408) 439-7331", "distance": 18223.082750104513}, {"id": "lLF85IwyJRNlVzdt2nKADg", "alias": "pav-bhaji-hut-sunnyvale", "name": "Pav Bhaji Hut", "image_url": "https://s3-media2.fl.yelpcdn.com/bphoto/QU02i8LoL8aEKkFmme_kRw/o.jpg", "is_closed": false, "url": "https://www.yelp.com/biz/pav-bhaji-hut-sunnyvale?adjust_creative=IokN4du3-7NwKcCaUms5LA&utm_campaign=yelp_api_v3&utm_medium=api_v3_business_search&utm_source=IokN4du3-7NwKcCaUms5LA", "review_count": 520, "categories": [{"alias": "foodtrucks", "title": "Food Trucks"}, {"alias": "indpak", "title": "Indian"}, {"alias": "vegetarian", "title": "Vegetarian"}], "rating": 4.0, "coordinates": {"latitude": 37.4054217, "longitude": -121.9957604}, "transactions": ["pickup", "delivery"], "price": "$", "location": {"address1": "1201 Lawrence Station Rd", "address2": null, "address3": "", "city": "Sunnyvale", "zip_code": "94089", "country": "US", "state": "CA", "display_address": ["1201 Lawrence Station Rd", "Sunnyvale, CA 94089"]}, "phone": "+14085200459", "display_phone": "(408) 520-0459", "distance": 19857.32768135675}, {"id": "xOikWGy5qeV5govB9nvM8w", "alias": "market-grill-san-jose-3", "name": "Market Grill", "image_url": "https://s3-media2.fl.yelpcdn.com/bphoto/bfQk6lKDu6r86aP90RCbOg/o.jpg", "is_closed": false, "url": "https://www.yelp.com/biz/market-grill-san-jose-3?adjust_creative=IokN4du3-7NwKcCaUms5LA&utm_campaign=yelp_api_v3&utm_medium=api_v3_business_search&utm_source=IokN4du3-7NwKcCaUms5LA", "review_count": 1, "categories": [{"alias": "foodtrucks", "title": "Food Trucks"}, {"alias": "mediterranean", "title": "Mediterranean"}], "rating": 5.0, "coordinates": {"latitude": 37.32961, "longitude": -121.88642}, "transactions": [], "price": "$", "location": {"address1": "402 S Market St", "address2": null, "address3": "", "city": "San Jose", "zip_code": "95113", "country": "US", "state": "CA", "display_address": ["402 S Market St", "San Jose, CA 95113"]}, "phone": "+14087070490", "display_phone": "(408) 707-0490", "distance": 14101.316594113117}, {"id": "-Z-aO9gwyPEtgarO_iXraw", "alias": "el-califas-tacos-sunnyvale", "name": "El Califas Tacos", "image_url": "https://s3-media4.fl.yelpcdn.com/bphoto/mmqTGFyuGB-iJvOxJxaIbw/o.jpg", "is_closed": false, "url": "https://www.yelp.com/biz/el-califas-tacos-sunnyvale?adjust_creative=IokN4du3-7NwKcCaUms5LA&utm_campaign=yelp_api_v3&utm_medium=api_v3_business_search&utm_source=IokN4du3-7NwKcCaUms5LA", "review_count": 107, "categories": [{"alias": "foodtrucks", "title": "Food Trucks"}, {"alias": "tacos", "title": "Tacos"}], "rating": 5.0, "coordinates": {"latitude": 37.389521, "longitude": -122.030975}, "transactions": [], "price": "$", "location": {"address1": "499 N Mathilda Ave", "address2": "", "address3": null, "city": "Sunnyvale", "zip_code": "94085", "country": "US", "state": "CA", "display_address": ["499 N Mathilda Ave", "Sunnyvale, CA 94085"]}, "phone": "+14088327559", "display_phone": "(408) 832-7559", "distance": 18587.156963879355}, {"id": "4aUwpoE5lMkmSYgTd0oHsw", "alias": "ate-3-one-santa-cruz", "name": "Ate 3 One", "image_url": "https://s3-media2.fl.yelpcdn.com/bphoto/a9U4E2HcUQx6kcJPpaLLMw/o.jpg", "is_closed": false, "url": "https://www.yelp.com/biz/ate-3-one-santa-cruz?adjust_creative=IokN4du3-7NwKcCaUms5LA&utm_campaign=yelp_api_v3&utm_medium=api_v3_business_search&utm_source=IokN4du3-7NwKcCaUms5LA", "review_count": 36, "categories": [{"alias": "foodtrucks", "title": "Food Trucks"}, {"alias": "tacos", "title": "Tacos"}], "rating": 3.5, "coordinates": {"latitude": 37.0326080322266, "longitude": -121.983581542969}, "transactions": [], "price": "$$", "location": {"address1": "", "address2": "", "address3": null, "city": "Santa Cruz", "zip_code": "95065", "country": "US", "state": "CA", "display_address": ["Santa Cruz, CA 95065"]}, "phone": "+18312475696", "display_phone": "(831) 247-5696", "distance": 21341.280883714167}, {"id": "uCODHpIeY04LEo4oKDfblA", "alias": "tacos-la-chilanguita-vip-san-jose", "name": "Tacos La Chilanguita VIP", "image_url": "https://s3-media4.fl.yelpcdn.com/bphoto/RFselELmtn0FigRqIA9Jsg/o.jpg", "is_closed": false, "url": "https://www.yelp.com/biz/tacos-la-chilanguita-vip-san-jose?adjust_creative=IokN4du3-7NwKcCaUms5LA&utm_campaign=yelp_api_v3&utm_medium=api_v3_business_search&utm_source=IokN4du3-7NwKcCaUms5LA", "review_count": 7, "categories": [{"alias": "foodtrucks", "title": "Food Trucks"}, {"alias": "tacos", "title": "Tacos"}], "rating": 4.5, "coordinates": {"latitude": 37.3695179, "longitude": -121.8421132}, "transactions": [], "location": {"address1": "280 Nort Capitol Ave", "address2": "Ste 95128", "address3": null, "city": "San Jose", "zip_code": "95127", "country": "US", "state": "CA", "display_address": ["280 Nort Capitol Ave", "Ste 95128", "San Jose, CA 95127"]}, "phone": "+14087915395", "display_phone": "(408) 791-5395", "distance": 20002.95367055432}, {"id": "qArqv7Sl3-kz7m-I0-pyuw", "alias": "scratch-cookery-san-jose-2", "name": "Scratch Cookery", "image_url": "https://s3-media2.fl.yelpcdn.com/bphoto/3bI-gW0tJ17iJqo1qn_W7A/o.jpg", "is_closed": false, "url": "https://www.yelp.com/biz/scratch-cookery-san-jose-2?adjust_creative=IokN4du3-7NwKcCaUms5LA&utm_campaign=yelp_api_v3&utm_medium=api_v3_business_search&utm_source=IokN4du3-7NwKcCaUms5LA", "review_count": 107, "categories": [{"alias": "foodtrucks", "title": "Food Trucks"}, {"alias": "chickenshop", "title": "Chicken Shop"}, {"alias": "tradamerican", "title": "American (Traditional)"}], "rating": 4.5, "coordinates": {"latitude": 37.374431, "longitude": -121.856157}, "transactions": [], "price": "$$", "location": {"address1": "", "address2": null, "address3": "", "city": "San Jose", "zip_code": "95133", "country": "US", "state": "CA", "display_address": ["San Jose, CA 95133"]}, "phone": "+14086010396", "display_phone": "(408) 601-0396", "distance": 19181.496268696606}, {"id": "jWWg0p9GTCho2RJIPhD6pQ", "alias": "tasteebytes-sj-san-jose", "name": "Tasteebytes SJ", "image_url": "https://s3-media2.fl.yelpcdn.com/bphoto/nxVvWa0ydNA-XfWpWEwd6w/o.jpg", "is_closed": false, "url": "https://www.yelp.com/biz/tasteebytes-sj-san-jose?adjust_creative=IokN4du3-7NwKcCaUms5LA&utm_campaign=yelp_api_v3&utm_medium=api_v3_business_search&utm_source=IokN4du3-7NwKcCaUms5LA", "review_count": 94, "categories": [{"alias": "foodtrucks", "title": "Food Trucks"}, {"alias": "hotdog", "title": "Hot Dogs"}], "rating": 4.5, "coordinates": {"latitude": 37.36058, "longitude": -121.89913}, "transactions": [], "price": "$", "location": {"address1": "326 Commercial St", "address2": "", "address3": "", "city": "San Jose", "zip_code": "95132", "country": "US", "state": "CA", "display_address": ["326 Commercial St", "San Jose, CA 95132"]}, "phone": "+16692437123", "display_phone": "(669) 243-7123", "distance": 16495.70121900297}, {"id": "GcfdjsPGaXrY02Q3bsKvew", "alias": "el-diferente-san-jose-4", "name": "El Diferente", "image_url": "https://s3-media4.fl.yelpcdn.com/bphoto/bTeYqqJp0YrJkkfM5OiPZg/o.jpg", "is_closed": false, "url": "https://www.yelp.com/biz/el-diferente-san-jose-4?adjust_creative=IokN4du3-7NwKcCaUms5LA&utm_campaign=yelp_api_v3&utm_medium=api_v3_business_search&utm_source=IokN4du3-7NwKcCaUms5LA", "review_count": 41, "categories": [{"alias": "foodtrucks", "title": "Food Trucks"}, {"alias": "tacos", "title": "Tacos"}, {"alias": "catering", "title": "Caterers"}], "rating": 5.0, "coordinates": {"latitude": 37.324611, "longitude": -121.880933}, "transactions": [], "price": "$", "location": {"address1": "795 S 2nd St", "address2": "", "address3": null, "city": "San Jose", "zip_code": "95112", "country": "US", "state": "CA", "display_address": ["795 S 2nd St", "San Jose, CA 95112"]}, "phone": "+14086651936", "display_phone": "(408) 665-1936", "distance": 13958.224076528159}, {"id": "MQDbjcZzQ9E3DTcoBF6dEw", "alias": "brooklyn-pizzeria-mobile-food-truck-santa-clara-4", "name": "Brooklyn Pizzeria Mobile Food Truck", "image_url": "https://s3-media2.fl.yelpcdn.com/bphoto/szDWnD758aSGG_O0yoKpEg/o.jpg", "is_closed": false, "url": "https://www.yelp.com/biz/brooklyn-pizzeria-mobile-food-truck-santa-clara-4?adjust_creative=IokN4du3-7NwKcCaUms5LA&utm_campaign=yelp_api_v3&utm_medium=api_v3_business_search&utm_source=IokN4du3-7NwKcCaUms5LA", "review_count": 23, "categories": [{"alias": "foodtrucks", "title": "Food Trucks"}, {"alias": "pizza", "title": "Pizza"}], "rating": 3.5, "coordinates": {"latitude": 37.3380215690544, "longitude": -121.996589643474}, "transactions": [], "price": "$$", "location": {"address1": "", "address2": null, "address3": "", "city": "Santa clara", "zip_code": "95051", "country": "US", "state": "CA", "display_address": ["Santa clara, CA 95051"]}, "phone": "+14085026836", "display_phone": "(408) 502-6836", "distance": 12398.798090313996}, {"id": "tGTSCjKLMa8vn8KArGZN_w", "alias": "just-mix-and-eat-san-jose", "name": "Just Mix & Eat", "image_url": "https://s3-media1.fl.yelpcdn.com/bphoto/orF5KUbsUaPobWI9MmbgFA/o.jpg", "is_closed": false, "url": "https://www.yelp.com/biz/just-mix-and-eat-san-jose?adjust_creative=IokN4du3-7NwKcCaUms5LA&utm_campaign=yelp_api_v3&utm_medium=api_v3_business_search&utm_source=IokN4du3-7NwKcCaUms5LA", "review_count": 30, "categories": [{"alias": "chicken_wings", "title": "Chicken Wings"}, {"alias": "korean", "title": "Korean"}, {"alias": "foodtrucks", "title": "Food Trucks"}], "rating": 3.0, "coordinates": {"latitude": 37.38256, "longitude": -121.94398}, "transactions": ["pickup", "delivery"], "price": "$$", "location": {"address1": "3295 Woodward Ave", "address2": null, "address3": "", "city": "San Jose", "zip_code": "95054", "country": "US", "state": "CA", "display_address": ["3295 Woodward Ave", "San Jose, CA 95054"]}, "phone": "+16692209394", "display_phone": "(669) 220-9394", "distance": 17570.49392365532}, {"id": "ehMR39g9buWG6MrVEZu5IQ", "alias": "mattia-pizza-santa-cruz", "name": "Mattia Pizza", "image_url": "https://s3-media4.fl.yelpcdn.com/bphoto/dcNrXqtdoBeHTE7UQcYWZw/o.jpg", "is_closed": false, "url": "https://www.yelp.com/biz/mattia-pizza-santa-cruz?adjust_creative=IokN4du3-7NwKcCaUms5LA&utm_campaign=yelp_api_v3&utm_medium=api_v3_business_search&utm_source=IokN4du3-7NwKcCaUms5LA", "review_count": 5, "categories": [{"alias": "foodtrucks", "title": "Food Trucks"}, {"alias": "pizza", "title": "Pizza"}, {"alias": "italian", "title": "Italian"}], "rating": 5.0, "coordinates": {"latitude": 36.9740700490871, "longitude": -122.030959837139}, "transactions": [], "location": {"address1": "", "address2": "", "address3": null, "city": "Santa Cruz", "zip_code": "95060", "country": "US", "state": "CA", "display_address": ["Santa Cruz, CA 95060"]}, "phone": "+16692369182", "display_phone": "(669) 236-9182", "distance": 28505.813744473206}, {"id": "zCpS3YdGozD7Y38B9Gy2uA", "alias": "puerto-vallarta-frutas-fresca-san-jose", "name": "Puerto Vallarta Frutas Fresca", "image_url": "https://s3-media1.fl.yelpcdn.com/bphoto/c6uENW3KEjqZGiwN1l1AYQ/o.jpg", "is_closed": false, "url": "https://www.yelp.com/biz/puerto-vallarta-frutas-fresca-san-jose?adjust_creative=IokN4du3-7NwKcCaUms5LA&utm_campaign=yelp_api_v3&utm_medium=api_v3_business_search&utm_source=IokN4du3-7NwKcCaUms5LA", "review_count": 7, "categories": [{"alias": "foodstands", "title": "Food Stands"}], "rating": 3.5, "coordinates": {"latitude": 37.3378858, "longitude": -121.8431894}, "transactions": [], "price": "$", "location": {"address1": "1199 S King Rd", "address2": "", "address3": "", "city": "San Jose", "zip_code": "95122", "country": "US", "state": "CA", "display_address": ["1199 S King Rd", "San Jose, CA 95122"]}, "phone": "+14084723196", "display_phone": "(408) 472-3196", "distance": 17290.103636851654}, {"id": "or6vgjw2EFtsWUW_F_eW3A", "alias": "yoshi-food-truck-fremont-2", "name": "Yoshi Food Truck", "image_url": "https://s3-media3.fl.yelpcdn.com/bphoto/YTdMb9ocRxHjMv-CEYwN5g/o.jpg", "is_closed": false, "url": "https://www.yelp.com/biz/yoshi-food-truck-fremont-2?adjust_creative=IokN4du3-7NwKcCaUms5LA&utm_campaign=yelp_api_v3&utm_medium=api_v3_business_search&utm_source=IokN4du3-7NwKcCaUms5LA", "review_count": 27, "categories": [{"alias": "foodtrucks", "title": "Food Trucks"}, {"alias": "poke", "title": "Poke"}, {"alias": "japanese", "title": "Japanese"}], "rating": 4.5, "coordinates": {"latitude": 37.494597, "longitude": -121.94160967}, "transactions": [], "location": {"address1": "45500 Fremont Blvd", "address2": null, "address3": "", "city": "Fremont", "zip_code": "94538", "country": "US", "state": "CA", "display_address": ["45500 Fremont Blvd", "Fremont, CA 94538"]}, "phone": "+16693776666", "display_phone": "(669) 377-6666", "distance": 29647.625880389267}, {"id": "gMzVS6LgUkUpip1NwwHaLQ", "alias": "twister-food-truck-san-jose-14", "name": "Twister Food Truck", "image_url": "https://s3-media4.fl.yelpcdn.com/bphoto/R_s82Wu2MBCHOM6xMRNzIg/o.jpg", "is_closed": false, "url": "https://www.yelp.com/biz/twister-food-truck-san-jose-14?adjust_creative=IokN4du3-7NwKcCaUms5LA&utm_campaign=yelp_api_v3&utm_medium=api_v3_business_search&utm_source=IokN4du3-7NwKcCaUms5LA", "review_count": 42, "categories": [{"alias": "foodtrucks", "title": "Food Trucks"}, {"alias": "asianfusion", "title": "Asian Fusion"}], "rating": 3.5, "coordinates": {"latitude": 37.36971, "longitude": -121.89675}, "transactions": [], "price": "$", "location": {"address1": "660 East Gish Rd", "address2": null, "address3": null, "city": "San Jose", "zip_code": "95112", "country": "US", "state": "CA", "display_address": ["660 East Gish Rd", "San Jose, CA 95112"]}, "phone": "+15106953921", "display_phone": "(510) 695-3921", "distance": 17417.01817071526}, {"id": "IU3OJCdlT92FsM8ohRiWig", "alias": "el-buen-taco-santa-cruz-2", "name": "El Buen Taco", "image_url": "https://s3-media2.fl.yelpcdn.com/bphoto/A_KAIKX-yDTTk2TTkFnFhw/o.jpg", "is_closed": false, "url": "https://www.yelp.com/biz/el-buen-taco-santa-cruz-2?adjust_creative=IokN4du3-7NwKcCaUms5LA&utm_campaign=yelp_api_v3&utm_medium=api_v3_business_search&utm_source=IokN4du3-7NwKcCaUms5LA", "review_count": 22, "categories": [{"alias": "tacos", "title": "Tacos"}, {"alias": "foodtrucks", "title": "Food Trucks"}], "rating": 4.5, "coordinates": {"latitude": 36.97017, "longitude": -122.02429}, "transactions": [], "location": {"address1": null, "address2": null, "address3": "", "city": "Santa Cruz", "zip_code": "95060", "country": "US", "state": "CA", "display_address": ["Santa Cruz, CA 95060"]}, "phone": "+18317130703", "display_phone": "(831) 713-0703", "distance": 28498.373515793213}, {"id": "6xHfXm7hcWRJgnXup0cHdA", "alias": "tacos-de-los-altos-san-jose", "name": "Tacos De Los Altos", "image_url": "https://s3-media2.fl.yelpcdn.com/bphoto/PdbW4mITavXeCO7nfdweAQ/o.jpg", "is_closed": false, "url": "https://www.yelp.com/biz/tacos-de-los-altos-san-jose?adjust_creative=IokN4du3-7NwKcCaUms5LA&utm_campaign=yelp_api_v3&utm_medium=api_v3_business_search&utm_source=IokN4du3-7NwKcCaUms5LA", "review_count": 23, "categories": [{"alias": "mexican", "title": "Mexican"}, {"alias": "foodtrucks", "title": "Food Trucks"}], "rating": 3.5, "coordinates": {"latitude": 37.292772307992, "longitude": -121.874259486794}, "transactions": [], "price": "$$", "location": {"address1": "2310 Canoas Gardens Ave", "address2": "", "address3": "", "city": "San Jose", "zip_code": "95125", "country": "US", "state": "CA", "display_address": ["2310 Canoas Gardens Ave", "San Jose, CA 95125"]}, "phone": "+14081111111", "display_phone": "(408) 111-1111", "distance": 11899.169656238886}, {"id": "JTzWc_nHK5-XGqC77Y_yoA", "alias": "tacos-el-pelon-san-jose", "name": "Tacos El Pelon", "image_url": "https://s3-media1.fl.yelpcdn.com/bphoto/16pzFDCGkwn1sL67d2XepA/o.jpg", "is_closed": false, "url": "https://www.yelp.com/biz/tacos-el-pelon-san-jose?adjust_creative=IokN4du3-7NwKcCaUms5LA&utm_campaign=yelp_api_v3&utm_medium=api_v3_business_search&utm_source=IokN4du3-7NwKcCaUms5LA", "review_count": 40, "categories": [{"alias": "foodtrucks", "title": "Food Trucks"}, {"alias": "tacos", "title": "Tacos"}], "rating": 4.0, "coordinates": {"latitude": 37.3520331729227, "longitude": -121.824255734682}, "transactions": ["pickup", "delivery"], "price": "$", "location": {"address1": "1137 Mcginness Ave", "address2": "", "address3": "", "city": "San Jose", "zip_code": "95127", "country": "US", "state": "CA", "display_address": ["1137 Mcginness Ave", "San Jose, CA 95127"]}, "phone": "+14085922474", "display_phone": "(408) 592-2474", "distance": 19585.728758166595}, {"id": "oBrzFGtTxFIpMsxgfnWJSw", "alias": "tacos-los-3-hermanos-san-jose-4", "name": "Tacos Los 3 Hermanos", "image_url": "https://s3-media3.fl.yelpcdn.com/bphoto/-q5H-P10Vv3nauCdJT9zqg/o.jpg", "is_closed": false, "url": "https://www.yelp.com/biz/tacos-los-3-hermanos-san-jose-4?adjust_creative=IokN4du3-7NwKcCaUms5LA&utm_campaign=yelp_api_v3&utm_medium=api_v3_business_search&utm_source=IokN4du3-7NwKcCaUms5LA", "review_count": 9, "categories": [{"alias": "mexican", "title": "Mexican"}, {"alias": "foodtrucks", "title": "Food Trucks"}], "rating": 3.0, "coordinates": {"latitude": 37.3130124035993, "longitude": -121.870943344749}, "transactions": [], "price": "$", "location": {"address1": "1611 Monterrey Hwy", "address2": "", "address3": "", "city": "San Jose", "zip_code": "95112", "country": "US", "state": "CA", "display_address": ["1611 Monterrey Hwy", "San Jose, CA 95112"]}, "phone": "+14083558151", "display_phone": "(408) 355-8151", "distance": 13599.377828604032}, {"id": "Qa7brHniluYGS6kvDLn_7Q", "alias": "3geeks-food-truck-santa-clara", "name": "3GEEKS FOOD TRUCK", "image_url": "https://s3-media2.fl.yelpcdn.com/bphoto/Ahw89hwfujcvycQ_3soddQ/o.jpg", "is_closed": false, "url": "https://www.yelp.com/biz/3geeks-food-truck-santa-clara?adjust_creative=IokN4du3-7NwKcCaUms5LA&utm_campaign=yelp_api_v3&utm_medium=api_v3_business_search&utm_source=IokN4du3-7NwKcCaUms5LA", "review_count": 86, "categories": [{"alias": "seafood", "title": "Seafood"}, {"alias": "cheesesteaks", "title": "Cheesesteaks"}, {"alias": "foodtrucks", "title": "Food Trucks"}], "rating": 3.0, "coordinates": {"latitude": 37.39911, "longitude": -121.95728}, "transactions": [], "price": "$$", "location": {"address1": null, "address2": null, "address3": "", "city": "Santa Clara", "zip_code": "95054", "country": "US", "state": "CA", "display_address": ["Santa Clara, CA 95054"]}, "phone": "+14089090709", "display_phone": "(408) 909-0709", "distance": 19106.791502617958}, {"id": "HayiFbi-9xFPhNjIad1lmA", "alias": "road-dogs-san-jose", "name": "Road Dogs", "image_url": "https://s3-media1.fl.yelpcdn.com/bphoto/2Zf1lrcEta1d89YmGI_-aA/o.jpg", "is_closed": false, "url": "https://www.yelp.com/biz/road-dogs-san-jose?adjust_creative=IokN4du3-7NwKcCaUms5LA&utm_campaign=yelp_api_v3&utm_medium=api_v3_business_search&utm_source=IokN4du3-7NwKcCaUms5LA", "review_count": 117, "categories": [{"alias": "hotdog", "title": "Hot Dogs"}, {"alias": "foodtrucks", "title": "Food Trucks"}], "rating": 4.0, "coordinates": {"latitude": 37.4825052756125, "longitude": -121.925558528338}, "transactions": ["pickup"], "price": "$", "location": {"address1": "", "address2": "", "address3": "", "city": "San Jose", "zip_code": "95132", "country": "US", "state": "CA", "display_address": ["San Jose, CA 95132"]}, "phone": "+14088351867", "display_phone": "(408) 835-1867", "distance": 28795.448901594893}, {"id": "ai1PcujD1397VPMNc8Ffcg", "alias": "cross-hatch-eatery-sunnyvale", "name": "Cross Hatch Eatery", "image_url": "https://s3-media1.fl.yelpcdn.com/bphoto/HPquQAnn8mSmsNlng5Z-_A/o.jpg", "is_closed": false, "url": "https://www.yelp.com/biz/cross-hatch-eatery-sunnyvale?adjust_creative=IokN4du3-7NwKcCaUms5LA&utm_campaign=yelp_api_v3&utm_medium=api_v3_business_search&utm_source=IokN4du3-7NwKcCaUms5LA", "review_count": 1, "categories": [{"alias": "asianfusion", "title": "Asian Fusion"}, {"alias": "foodtrucks", "title": "Food Trucks"}], "rating": 1.0, "coordinates": {"latitude": 37.3998374938965, "longitude": -121.997146606445}, "transactions": [], "location": {"address1": "", "address2": null, "address3": "", "city": "Sunnyvale", "zip_code": "94089", "country": "US", "state": "CA", "display_address": ["Sunnyvale, CA 94089"]}, "phone": "+16692322267", "display_phone": "(669) 232-2267", "distance": 20712.036442931807}, {"id": "rM6pPB_qmQ3de5yGpfLT1g", "alias": "lomo-libre-san-francisco-2", "name": "Lomo Libre", "image_url": "https://s3-media1.fl.yelpcdn.com/bphoto/vjnO-EUjFHKoLMy2_JQYvg/o.jpg", "is_closed": false, "url": "https://www.yelp.com/biz/lomo-libre-san-francisco-2?adjust_creative=IokN4du3-7NwKcCaUms5LA&utm_campaign=yelp_api_v3&utm_medium=api_v3_business_search&utm_source=IokN4du3-7NwKcCaUms5LA", "review_count": 8, "categories": [{"alias": "foodtrucks", "title": "Food Trucks"}, {"alias": "peruvian", "title": "Peruvian"}], "rating": 5.0, "coordinates": {"latitude": 37.799634, "longitude": -122.436301}, "transactions": [], "location": {"address1": "2101 Lombard St", "address2": "", "address3": null, "city": "San Francisco", "zip_code": "94123", "country": "US", "state": "CA", "display_address": ["2101 Lombard St", "San Francisco, CA 94123"]}, "phone": "+14156198149", "display_phone": "(415) 619-8149", "distance": 75279.12497470289}, {"id": "PxzM_zNIOy7jdtwT-fbB0w", "alias": "minnie-bells-san-francisco-2", "name": "Minnie Bells", "image_url": "https://s3-media2.fl.yelpcdn.com/bphoto/5YNxEigMmu8anIwGkIsEzg/o.jpg", "is_closed": false, "url": "https://www.yelp.com/biz/minnie-bells-san-francisco-2?adjust_creative=IokN4du3-7NwKcCaUms5LA&utm_campaign=yelp_api_v3&utm_medium=api_v3_business_search&utm_source=IokN4du3-7NwKcCaUms5LA", "review_count": 15, "categories": [{"alias": "soulfood", "title": "Soul Food"}, {"alias": "foodtrucks", "title": "Food Trucks"}, {"alias": "comfortfood", "title": "Comfort Food"}], "rating": 4.5, "coordinates": {"latitude": 37.7769775466477, "longitude": -122.416963241994}, "transactions": [], "location": {"address1": "", "address2": "", "address3": null, "city": "San Francisco", "zip_code": "94103", "country": "US", "state": "CA", "display_address": ["San Francisco, CA 94103"]}, "phone": "+14152739340", "display_phone": "(415) 273-9340", "distance": 72240.93362057717}, {"id": "kIsGtzHcIxk40klNpTWuog", "alias": "grillaz-gone-wild-hayward", "name": "Grillaz Gone Wild", "image_url": "https://s3-media1.fl.yelpcdn.com/bphoto/4OKiJlqTPiue8J6EbwO3ug/o.jpg", "is_closed": false, "url": "https://www.yelp.com/biz/grillaz-gone-wild-hayward?adjust_creative=IokN4du3-7NwKcCaUms5LA&utm_campaign=yelp_api_v3&utm_medium=api_v3_business_search&utm_source=IokN4du3-7NwKcCaUms5LA", "review_count": 124, "categories": [{"alias": "cheesesteaks", "title": "Cheesesteaks"}, {"alias": "foodtrucks", "title": "Food Trucks"}, {"alias": "sandwiches", "title": "Sandwiches"}], "rating": 4.0, "coordinates": {"latitude": 37.63805, "longitude": -122.07161}, "transactions": [], "price": "$", "location": {"address1": "", "address2": "", "address3": "", "city": "Hayward", "zip_code": "94544", "country": "US", "state": "CA", "display_address": ["Hayward, CA 94544"]}, "phone": "+17075013252", "display_phone": "(707) 501-3252", "distance": 44869.96999910502}, {"id": "Is1KN9f5THyPgo1RjAxRzg", "alias": "madd-mex-cantina-food-truck-san-mateo-3", "name": "Madd Mex Cantina Food Truck", "image_url": "https://s3-media3.fl.yelpcdn.com/bphoto/sqUQfoUkNqzsWDktPN09Dg/o.jpg", "is_closed": false, "url": "https://www.yelp.com/biz/madd-mex-cantina-food-truck-san-mateo-3?adjust_creative=IokN4du3-7NwKcCaUms5LA&utm_campaign=yelp_api_v3&utm_medium=api_v3_business_search&utm_source=IokN4du3-7NwKcCaUms5LA", "review_count": 225, "categories": [{"alias": "foodtrucks", "title": "Food Trucks"}, {"alias": "mexican", "title": "Mexican"}, {"alias": "catering", "title": "Caterers"}], "rating": 4.5, "coordinates": {"latitude": 37.5521392822266, "longitude": -122.260833740234}, "transactions": [], "price": "$", "location": {"address1": "", "address2": null, "address3": "", "city": "San Mateo", "zip_code": "94404", "country": "US", "state": "CA", "display_address": ["San Mateo, CA 94404"]}, "phone": "", "display_phone": "", "distance": 44571.16538545667}, {"id": "uuouQQIFQ1B9mkmcxaAKFA", "alias": "tacos-el-rey-oakland", "name": "Tacos El Rey", "image_url": "https://s3-media2.fl.yelpcdn.com/bphoto/DblyFrtT9uyPCQAUfPbYbQ/o.jpg", "is_closed": false, "url": "https://www.yelp.com/biz/tacos-el-rey-oakland?adjust_creative=IokN4du3-7NwKcCaUms5LA&utm_campaign=yelp_api_v3&utm_medium=api_v3_business_search&utm_source=IokN4du3-7NwKcCaUms5LA", "review_count": 9, "categories": [{"alias": "foodtrucks", "title": "Food Trucks"}, {"alias": "mexican", "title": "Mexican"}], "rating": 4.0, "coordinates": {"latitude": 37.8294034, "longitude": -122.2875758}, "transactions": [], "price": "$", "location": {"address1": "40th & Horton", "address2": "", "address3": null, "city": "Oakland", "zip_code": "94608", "country": "US", "state": "CA", "display_address": ["40th & Horton", "Oakland, CA 94608"]}, "phone": "+15108130232", "display_phone": "(510) 813-0232", "distance": 72223.92852792187}, {"id": "XTJJ_PUQoJKIh31ZIzsFzw", "alias": "cochinita-food-truck-san-francisco-6", "name": "Cochinita Food Truck", "image_url": "https://s3-media2.fl.yelpcdn.com/bphoto/w77SOd2jVJjOh1lwuYQ42w/o.jpg", "is_closed": false, "url": "https://www.yelp.com/biz/cochinita-food-truck-san-francisco-6?adjust_creative=IokN4du3-7NwKcCaUms5LA&utm_campaign=yelp_api_v3&utm_medium=api_v3_business_search&utm_source=IokN4du3-7NwKcCaUms5LA", "review_count": 49, "categories": [{"alias": "foodtrucks", "title": "Food Trucks"}, {"alias": "mexican", "title": "Mexican"}], "rating": 4.5, "coordinates": {"latitude": 37.770753, "longitude": -122.3916722}, "transactions": [], "price": "$", "location": {"address1": "601 Mission Blvd N", "address2": null, "address3": "", "city": "San Francisco", "zip_code": "94103", "country": "US", "state": "CA", "display_address": ["601 Mission Blvd N", "San Francisco, CA 94103"]}, "phone": "+14159883663", "display_phone": "(415) 988-3663", "distance": 70483.4279985147}]}