{"location": "Novato, CA", "term": "restaurant", "radius": 4757, "businesses": [{"id": "lMSDoF7f_1pcVfzIk5q0dg", "alias": "aurora-ristorante-italiano-novato", "name": "Aurora Ristorante Italiano", "image_url": "https://s3-media3.fl.yelpcdn.com/bphoto/-TZbFjRQqNHhVC5y4qor1Q/o.jpg", "is_closed": false, "url": "https://www.yelp.com/biz/aurora-ristorante-italiano-novato?adjust_creative=IokN4du3-7NwKcCaUms5LA&utm_campaign=yelp_api_v3&utm_medium=api_v3_business_search&utm_source=IokN4du3-7NwKcCaUms5LA", "review_count": 201, "categories": [{"alias": "italian", "title": "Italian"}, {"alias": "seafood", "title": "Seafood"}], "rating": 4.0, "coordinates": {"latitude": 38.068184, "longitude": -122.533537}, "transactions": ["restaurant_reservation"], "price": "$$", "location": {"address1": "8 Commercial Blvd", "address2": "", "address3": "", "city": "Novato", "zip_code": "94949", "country": "US", "state": "CA", "display_address": ["8 Commercial Blvd", "Novato, CA 94949"]}, "phone": "+14153828488", "display_phone": "(415) 382-8488", "distance": 3672.2850855097954}, {"id": "9gPayefpYNpoibu_Q7JD7g", "alias": "le-col-rouge-novato", "name": "Le Col Rouge", "image_url": "https://s3-media3.fl.yelpcdn.com/bphoto/lsNwpefCgpVukq0C6JEp9A/o.jpg", "is_closed": false, "url": "https://www.yelp.com/biz/le-col-rouge-novato?adjust_creative=IokN4du3-7NwKcCaUms5LA&utm_campaign=yelp_api_v3&utm_medium=api_v3_business_search&utm_source=IokN4du3-7NwKcCaUms5LA", "review_count": 88, "categories": [{"alias": "southern", "title": "Southern"}, {"alias": "chickenshop", "title": "Chicken Shop"}], "rating": 4.0, "coordinates": {"latitude": 38.09689633, "longitude": -122.57021017}, "transactions": [], "price": "$$", "location": {"address1": "1531 S Novato Blvd", "address2": "Ste A", "address3": "", "city": "Novato", "zip_code": "94947", "country": "US", "state": "CA", "display_address": ["1531 S Novato Blvd", "Ste A", "Novato, CA 94947"]}, "phone": "+14158956466", "display_phone": "(415) 895-6466", "distance": 866.2537378119957}, {"id": "HyvJv1PiYdiBt0nr-_oJ-w", "alias": "finnegans-marin-novato-2", "name": "Finnegan's Marin", "image_url": "https://s3-media3.fl.yelpcdn.com/bphoto/Rf3hejgPimQSx3BRg97_MA/o.jpg", "is_closed": false, "url": "https://www.yelp.com/biz/finnegans-marin-novato-2?adjust_creative=IokN4du3-7NwKcCaUms5LA&utm_campaign=yelp_api_v3&utm_medium=api_v3_business_search&utm_source=IokN4du3-7NwKcCaUms5LA", "review_count": 365, "categories": [{"alias": "bars", "title": "Bars"}, {"alias": "tradamerican", "title": "American (Traditional)"}], "rating": 4.0, "coordinates": {"latitude": 38.106972, "longitude": -122.568627}, "transactions": ["restaurant_reservation"], "price": "$$", "location": {"address1": "877 Grant Ave", "address2": null, "address3": "", "city": "Novato", "zip_code": "94945", "country": "US", "state": "CA", "display_address": ["877 Grant Ave", "Novato, CA 94945"]}, "phone": "+14158991516", "display_phone": "(415) 899-1516", "distance": 1720.8340121097433}, {"id": "ADBG3lIz-QtqtR8_nXsdRw", "alias": "wildfox-novato-2", "name": "Wildfox", "image_url": "https://s3-media3.fl.yelpcdn.com/bphoto/L1PZZ6qvNOpP4yWiCVzyYw/o.jpg", "is_closed": false, "url": "https://www.yelp.com/biz/wildfox-novato-2?adjust_creative=IokN4du3-7NwKcCaUms5LA&utm_campaign=yelp_api_v3&utm_medium=api_v3_business_search&utm_source=IokN4du3-7NwKcCaUms5LA", "review_count": 550, "categories": [{"alias": "tradamerican", "title": "American (Traditional)"}], "rating": 3.5, "coordinates": {"latitude": 38.0513305664062, "longitude": -122.532333374023}, "transactions": ["restaurant_reservation", "pickup", "delivery"], "price": "$$", "location": {"address1": "225 Alameda Del Prado", "address2": "", "address3": "", "city": "Novato", "zip_code": "94949", "country": "US", "state": "CA", "display_address": ["225 Alameda Del Prado", "Novato, CA 94949"]}, "phone": "+14158839125", "display_phone": "(415) 883-9125", "distance": 5249.678038313848}, {"id": "QkdsQRCVtlQql-g-G6GpNg", "alias": "hopmonk-tavern-novato-novato-2", "name": "HopMonk Tavern Novato", "image_url": "https://s3-media3.fl.yelpcdn.com/bphoto/RrEp9hXAkPdY8RetP-H44Q/o.jpg", "is_closed": false, "url": "https://www.yelp.com/biz/hopmonk-tavern-novato-novato-2?adjust_creative=IokN4du3-7NwKcCaUms5LA&utm_campaign=yelp_api_v3&utm_medium=api_v3_business_search&utm_source=IokN4du3-7NwKcCaUms5LA", "review_count": 638, "categories": [{"alias": "newamerican", "title": "American (New)"}, {"alias": "bars", "title": "Bars"}, {"alias": "musicvenues", "title": "Music Venues"}], "rating": 3.5, "coordinates": {"latitude": 38.0882715, "longitude": -122.5538328}, "transactions": ["restaurant_reservation", "pickup", "delivery"], "price": "$$", "location": {"address1": "224 Vintage Way", "address2": "", "address3": "", "city": "Novato", "zip_code": "94945", "country": "US", "state": "CA", "display_address": ["224 Vintage Way", "Novato, CA 94945"]}, "phone": "+14158926200", "display_phone": "(415) 892-6200", "distance": 868.7758239315343}, {"id": "H2j4yPKCXCaS4uG-NzlbKg", "alias": "pearl-novato-novato-3", "name": "Pearl Novato", "image_url": "https://s3-media2.fl.yelpcdn.com/bphoto/uQHCtrHOfEUvqr1Jaivdyg/o.jpg", "is_closed": false, "url": "https://www.yelp.com/biz/pearl-novato-novato-3?adjust_creative=IokN4du3-7NwKcCaUms5LA&utm_campaign=yelp_api_v3&utm_medium=api_v3_business_search&utm_source=IokN4du3-7NwKcCaUms5LA", "review_count": 114, "categories": [{"alias": "bubbletea", "title": "Bubble Tea"}, {"alias": "vietnamese", "title": "Vietnamese"}, {"alias": "poke", "title": "Poke"}], "rating": 4.5, "coordinates": {"latitude": 38.10408, "longitude": -122.57183}, "transactions": [], "price": "$$", "location": {"address1": "942 Diablo Ave", "address2": null, "address3": "", "city": "Novato", "zip_code": "94947", "country": "US", "state": "CA", "display_address": ["942 Diablo Ave", "Novato, CA 94947"]}, "phone": "+14157619469", "display_phone": "(415) 761-9469", "distance": 1283.3536394877792}, {"id": "tycrcipxZLCIBCgjlPrMTg", "alias": "boca-tavern-novato", "name": "Boca Tavern", "image_url": "https://s3-media3.fl.yelpcdn.com/bphoto/KceD7S-SoVC4cFXgB9H4cg/o.jpg", "is_closed": false, "url": "https://www.yelp.com/biz/boca-tavern-novato?adjust_creative=IokN4du3-7NwKcCaUms5LA&utm_campaign=yelp_api_v3&utm_medium=api_v3_business_search&utm_source=IokN4du3-7NwKcCaUms5LA", "review_count": 268, "categories": [{"alias": "newamerican", "title": "American (New)"}, {"alias": "bars", "title": "Bars"}], "rating": 3.5, "coordinates": {"latitude": 38.066264, "longitude": -122.5405519}, "transactions": ["restaurant_reservation", "pickup", "delivery"], "price": "$$", "location": {"address1": "340 Ignacio Blvd", "address2": "", "address3": "", "city": "Novato", "zip_code": "94949", "country": "US", "state": "CA", "display_address": ["340 Ignacio Blvd", "Novato, CA 94949"]}, "phone": "+14158830901", "display_phone": "(415) 883-0901", "distance": 3462.143739099262}, {"id": "fJEu5Cjge1n16BWAirk38w", "alias": "chianti-cucina-novato", "name": "Chianti Cucina", "image_url": "https://s3-media2.fl.yelpcdn.com/bphoto/5HOdhgBBSx2qoU6Ve7ZqIw/o.jpg", "is_closed": false, "url": "https://www.yelp.com/biz/chianti-cucina-novato?adjust_creative=IokN4du3-7NwKcCaUms5LA&utm_campaign=yelp_api_v3&utm_medium=api_v3_business_search&utm_source=IokN4du3-7NwKcCaUms5LA", "review_count": 321, "categories": [{"alias": "italian", "title": "Italian"}], "rating": 4.0, "coordinates": {"latitude": 38.10915, "longitude": -122.56892}, "transactions": ["restaurant_reservation", "pickup"], "price": "$$", "location": {"address1": "7416 Redwood Blvd", "address2": null, "address3": "", "city": "Novato", "zip_code": "94945", "country": "US", "state": "CA", "display_address": ["7416 Redwood Blvd", "Novato, CA 94945"]}, "phone": "+14158780314", "display_phone": "(415) 878-0314", "distance": 1957.9273221003666}, {"id": "rv0TTeF5kW6KM0mbKRO12w", "alias": "saffron-grill-and-market-novato-2", "name": "Saffron Grill & Market", "image_url": "https://s3-media2.fl.yelpcdn.com/bphoto/pvqkwIbDuz78vWcwPjdaVw/o.jpg", "is_closed": false, "url": "https://www.yelp.com/biz/saffron-grill-and-market-novato-2?adjust_creative=IokN4du3-7NwKcCaUms5LA&utm_campaign=yelp_api_v3&utm_medium=api_v3_business_search&utm_source=IokN4du3-7NwKcCaUms5LA", "review_count": 105, "categories": [{"alias": "grocery", "title": "Grocery"}, {"alias": "mediterranean", "title": "Mediterranean"}, {"alias": "persian", "title": "Persian/Iranian"}], "rating": 4.5, "coordinates": {"latitude": 38.0690524, "longitude": -122.5411165}, "transactions": ["pickup"], "price": "$$", "location": {"address1": "469 Entrada Dr", "address2": "", "address3": "", "city": "Novato", "zip_code": "94949", "country": "US", "state": "CA", "display_address": ["469 Entrada Dr", "Novato, CA 94949"]}, "phone": "+14155064277", "display_phone": "(415) 506-4277", "distance": 3204.903569591319}, {"id": "5YrrQy9O4lia4m1lbCFZVA", "alias": "lotus-curry-house-novato", "name": "Lotus Curry House", "image_url": "https://s3-media1.fl.yelpcdn.com/bphoto/lm5dLNFUtbndkLpIvQ_A9g/o.jpg", "is_closed": false, "url": "https://www.yelp.com/biz/lotus-curry-house-novato?adjust_creative=IokN4du3-7NwKcCaUms5LA&utm_campaign=yelp_api_v3&utm_medium=api_v3_business_search&utm_source=IokN4du3-7NwKcCaUms5LA", "review_count": 36, "categories": [{"alias": "indpak", "title": "Indian"}], "rating": 4.5, "coordinates": {"latitude": 38.10668, "longitude": -122.56674}, "transactions": [], "location": {"address1": "807 Grant Ave", "address2": "", "address3": null, "city": "Novato", "zip_code": "94945", "country": "US", "state": "CA", "display_address": ["807 Grant Ave", "Novato, CA 94945"]}, "phone": "+14154083911", "display_phone": "(415) 408-3911", "distance": 1644.5216781318954}, {"id": "ofAJNgc1CNRucCCKNZmvZg", "alias": "rickeys-restaurant-novato-2", "name": "Rickey's Restaurant", "image_url": "https://s3-media2.fl.yelpcdn.com/bphoto/64pCW_CCsLCEclTvLLqF2g/o.jpg", "is_closed": false, "url": "https://www.yelp.com/biz/rickeys-restaurant-novato-2?adjust_creative=IokN4du3-7NwKcCaUms5LA&utm_campaign=yelp_api_v3&utm_medium=api_v3_business_search&utm_source=IokN4du3-7NwKcCaUms5LA", "review_count": 11, "categories": [{"alias": "newamerican", "title": "American (New)"}, {"alias": "seafood", "title": "Seafood"}, {"alias": "bars", "title": "Bars"}], "rating": 4.0, "coordinates": {"latitude": 38.07058, "longitude": -122.53998}, "transactions": [], "location": {"address1": "250 Entrada Dr", "address2": "", "address3": null, "city": "Novato", "zip_code": "94949", "country": "US", "state": "CA", "display_address": ["250 Entrada Dr", "Novato, CA 94949"]}, "phone": "+14158702990", "display_phone": "(415) 870-2990", "distance": 3108.371604590813}, {"id": "Qf0R1i3rYYjeBcmSUOXrOA", "alias": "sushi-tri-novato-2", "name": "Sushi Tri", "image_url": "https://s3-media2.fl.yelpcdn.com/bphoto/voL-dyHo2K_cCjWiDHmDLQ/o.jpg", "is_closed": false, "url": "https://www.yelp.com/biz/sushi-tri-novato-2?adjust_creative=IokN4du3-7NwKcCaUms5LA&utm_campaign=yelp_api_v3&utm_medium=api_v3_business_search&utm_source=IokN4du3-7NwKcCaUms5LA", "review_count": 261, "categories": [{"alias": "sushi", "title": "Sushi Bars"}, {"alias": "japanese", "title": "Japanese"}], "rating": 4.0, "coordinates": {"latitude": 38.06725, "longitude": -122.53911}, "transactions": ["delivery"], "price": "$$", "location": {"address1": "333 Enfrente Rd", "address2": "", "address3": null, "city": "Novato", "zip_code": "94949", "country": "US", "state": "CA", "display_address": ["333 Enfrente Rd", "Novato, CA 94949"]}, "phone": "+14153829988", "display_phone": "(415) 382-9988", "distance": 3444.68146803141}, {"id": "v1N0_tIa4U1srfqgbJSDgQ", "alias": "super-duper-burgers-novato-2", "name": "Super Duper Burgers", "image_url": "https://s3-media1.fl.yelpcdn.com/bphoto/uj0Wd80x3u1jwDkTVXh2DA/o.jpg", "is_closed": false, "url": "https://www.yelp.com/biz/super-duper-burgers-novato-2?adjust_creative=IokN4du3-7NwKcCaUms5LA&utm_campaign=yelp_api_v3&utm_medium=api_v3_business_search&utm_source=IokN4du3-7NwKcCaUms5LA", "review_count": 481, "categories": [{"alias": "burgers", "title": "Burgers"}, {"alias": "tradamerican", "title": "American (Traditional)"}], "rating": 4.0, "coordinates": {"latitude": 38.0632928821622, "longitude": -122.533205}, "transactions": [], "price": "$$", "location": {"address1": "5800 Nave Dr", "address2": "Ste C", "address3": "Hamilton Marketplace", "city": "Novato", "zip_code": "94949", "country": "US", "state": "CA", "display_address": ["5800 Nave Dr", "Ste C", "Hamilton Marketplace", "Novato, CA 94949"]}, "phone": "+14153821980", "display_phone": "(415) 382-1980", "distance": 4105.320607503312}, {"id": "CBQyKcfKwoXZ3KhMvHaobw", "alias": "little-goan-indian-cafe-novato-2", "name": "Little Goan Indian Cafe", "image_url": "https://s3-media2.fl.yelpcdn.com/bphoto/qTAesdUi9VY49_tvKoVdeg/o.jpg", "is_closed": false, "url": "https://www.yelp.com/biz/little-goan-indian-cafe-novato-2?adjust_creative=IokN4du3-7NwKcCaUms5LA&utm_campaign=yelp_api_v3&utm_medium=api_v3_business_search&utm_source=IokN4du3-7NwKcCaUms5LA", "review_count": 202, "categories": [{"alias": "indpak", "title": "Indian"}], "rating": 4.5, "coordinates": {"latitude": 38.1114143801854, "longitude": -122.591370899412}, "transactions": ["pickup", "delivery"], "price": "$$", "location": {"address1": "2007 Novato Blvd", "address2": "", "address3": "", "city": "Novato", "zip_code": "94947", "country": "US", "state": "CA", "display_address": ["2007 Novato Blvd", "Novato, CA 94947"]}, "phone": "+14158780490", "display_phone": "(415) 878-0490", "distance": 3322.8963406756475}, {"id": "CyI1K5uSrfQVgK-1YZ0afw", "alias": "jjs-burger-joint-novato", "name": "JJ's Burger Joint", "image_url": "https://s3-media4.fl.yelpcdn.com/bphoto/dSTSou611JWT8UwgViWRYA/o.jpg", "is_closed": false, "url": "https://www.yelp.com/biz/jjs-burger-joint-novato?adjust_creative=IokN4du3-7NwKcCaUms5LA&utm_campaign=yelp_api_v3&utm_medium=api_v3_business_search&utm_source=IokN4du3-7NwKcCaUms5LA", "review_count": 346, "categories": [{"alias": "burgers", "title": "Burgers"}, {"alias": "bbq", "title": "Barbeque"}, {"alias": "tradamerican", "title": "American (Traditional)"}], "rating": 4.5, "coordinates": {"latitude": 38.111646, "longitude": -122.592464}, "transactions": ["pickup", "delivery"], "price": "$$", "location": {"address1": "2031 Novato Blvd", "address2": "", "address3": "", "city": "Novato", "zip_code": "94947", "country": "US", "state": "CA", "display_address": ["2031 Novato Blvd", "Novato, CA 94947"]}, "phone": "+14158956677", "display_phone": "(415) 895-6677", "distance": 3413.266479866861}, {"id": "UWhU6UPNpraGSJjiPsuTGQ", "alias": "grazie-restaurant-novato", "name": "Grazie Restaurant", "image_url": "https://s3-media1.fl.yelpcdn.com/bphoto/4egL2lL26JJ13w4bM9cFdw/o.jpg", "is_closed": false, "url": "https://www.yelp.com/biz/grazie-restaurant-novato?adjust_creative=IokN4du3-7NwKcCaUms5LA&utm_campaign=yelp_api_v3&utm_medium=api_v3_business_search&utm_source=IokN4du3-7NwKcCaUms5LA", "review_count": 370, "categories": [{"alias": "italian", "title": "Italian"}, {"alias": "newamerican", "title": "American (New)"}, {"alias": "breakfast_brunch", "title": "Breakfast & Brunch"}], "rating": 4.0, "coordinates": {"latitude": 38.10691, "longitude": -122.56739}, "transactions": ["delivery"], "price": "$$", "location": {"address1": "823 Grant Ave", "address2": null, "address3": "", "city": "Novato", "zip_code": "94945", "country": "US", "state": "CA", "display_address": ["823 Grant Ave", "Novato, CA 94945"]}, "phone": "+14158975181", "display_phone": "(415) 897-5181", "distance": 1683.1338597640433}, {"id": "iV_uClZx8kSnPetIJUpYPg", "alias": "chao-praya-novato", "name": "Chao Praya", "image_url": "https://s3-media4.fl.yelpcdn.com/bphoto/OrjUdE6Q4Sc3GJYt8sJFVQ/o.jpg", "is_closed": false, "url": "https://www.yelp.com/biz/chao-praya-novato?adjust_creative=IokN4du3-7NwKcCaUms5LA&utm_campaign=yelp_api_v3&utm_medium=api_v3_business_search&utm_source=IokN4du3-7NwKcCaUms5LA", "review_count": 219, "categories": [{"alias": "thai", "title": "Thai"}], "rating": 4.0, "coordinates": {"latitude": 38.098928, "longitude": -122.571432}, "transactions": ["delivery"], "price": "$$", "location": {"address1": "1553 S Novato Blvd", "address2": "Ste G", "address3": "", "city": "Novato", "zip_code": "94947", "country": "US", "state": "CA", "display_address": ["1553 S Novato Blvd", "Ste G", "Novato, CA 94947"]}, "phone": "+14158929303", "display_phone": "(415) 892-9303", "distance": 1094.4257042347003}, {"id": "SWBJVkNvBnw6N6fOVHDbZQ", "alias": "hilltop-1892-novato", "name": "Hilltop 1892", "image_url": "https://s3-media2.fl.yelpcdn.com/bphoto/S1Z2mjtl-tnZ9EaaCUfCLA/o.jpg", "is_closed": false, "url": "https://www.yelp.com/biz/hilltop-1892-novato?adjust_creative=IokN4du3-7NwKcCaUms5LA&utm_campaign=yelp_api_v3&utm_medium=api_v3_business_search&utm_source=IokN4du3-7NwKcCaUms5LA", "review_count": 416, "categories": [{"alias": "newamerican", "title": "American (New)"}], "rating": 3.5, "coordinates": {"latitude": 38.101796, "longitude": -122.567452}, "transactions": [], "price": "$$", "location": {"address1": "850 Lamont Ave", "address2": "", "address3": "", "city": "Novato", "zip_code": "94945", "country": "US", "state": "CA", "display_address": ["850 Lamont Ave", "Novato, CA 94945"]}, "phone": "+14158931892", "display_phone": "(415) 893-1892", "distance": 1191.8892504050789}, {"id": "w-5EJzd-SeWi6Y3qQKyYhQ", "alias": "marvins-breakfast-club-novato", "name": "Marvin's Breakfast Club", "image_url": "https://s3-media1.fl.yelpcdn.com/bphoto/P2QcASjQr8ijAyuqpPprog/o.jpg", "is_closed": false, "url": "https://www.yelp.com/biz/marvins-breakfast-club-novato?adjust_creative=IokN4du3-7NwKcCaUms5LA&utm_campaign=yelp_api_v3&utm_medium=api_v3_business_search&utm_source=IokN4du3-7NwKcCaUms5LA", "review_count": 653, "categories": [{"alias": "breakfast_brunch", "title": "Breakfast & Brunch"}], "rating": 4.5, "coordinates": {"latitude": 38.1079694, "longitude": -122.5717214}, "transactions": [], "price": "$$", "location": {"address1": "1112 Grant Ave", "address2": "", "address3": "", "city": "Novato", "zip_code": "94945", "country": "US", "state": "CA", "display_address": ["1112 Grant Ave", "Novato, CA 94945"]}, "phone": "+14158924482", "display_phone": "(415) 892-4482", "distance": 1930.7978533648125}, {"id": "0V5gzeGKeNoxSfAuJuBvOg", "alias": "masas-sushi-and-appetizer-novato", "name": "Masa's Sushi and Appetizer", "image_url": "https://s3-media4.fl.yelpcdn.com/bphoto/o7JNiSrupdVYzkSA26lUtg/o.jpg", "is_closed": false, "url": "https://www.yelp.com/biz/masas-sushi-and-appetizer-novato?adjust_creative=IokN4du3-7NwKcCaUms5LA&utm_campaign=yelp_api_v3&utm_medium=api_v3_business_search&utm_source=IokN4du3-7NwKcCaUms5LA", "review_count": 248, "categories": [{"alias": "sushi", "title": "Sushi Bars"}, {"alias": "japanese", "title": "Japanese"}], "rating": 4.0, "coordinates": {"latitude": 38.106876, "longitude": -122.56696}, "transactions": ["delivery"], "price": "$$", "location": {"address1": "813 Grant Ave", "address2": null, "address3": "", "city": "Novato", "zip_code": "94945", "country": "US", "state": "CA", "display_address": ["813 Grant Ave", "Novato, CA 94945"]}, "phone": "+14158920081", "display_phone": "(415) 892-0081", "distance": 1666.315678912971}, {"id": "KY4tWCD8juMRWPQOXkI7XQ", "alias": "moylans-brewery-and-restaurant-novato", "name": "Moylan's Brewery & Restaurant", "image_url": "https://s3-media2.fl.yelpcdn.com/bphoto/2yqjBElL0OU8qdHOL6rgMw/o.jpg", "is_closed": false, "url": "https://www.yelp.com/biz/moylans-brewery-and-restaurant-novato?adjust_creative=IokN4du3-7NwKcCaUms5LA&utm_campaign=yelp_api_v3&utm_medium=api_v3_business_search&utm_source=IokN4du3-7NwKcCaUms5LA", "review_count": 508, "categories": [{"alias": "breweries", "title": "Breweries"}, {"alias": "newamerican", "title": "American (New)"}], "rating": 3.5, "coordinates": {"latitude": 38.09409, "longitude": -122.55678}, "transactions": [], "price": "$$", "location": {"address1": "15 Rowland Way", "address2": "", "address3": "", "city": "Novato", "zip_code": "94945", "country": "US", "state": "CA", "display_address": ["15 Rowland Way", "Novato, CA 94945"]}, "phone": "+14158984677", "display_phone": "(415) 898-4677", "distance": 504.9170533592619}, {"id": "kcBDcqoMnmDFNA2OeOI8bA", "alias": "the-village-pizzeria-novato", "name": "The Village Pizzeria", "image_url": "https://s3-media1.fl.yelpcdn.com/bphoto/l7DZDHlPNDzyTMQRaBDyeA/o.jpg", "is_closed": false, "url": "https://www.yelp.com/biz/the-village-pizzeria-novato?adjust_creative=IokN4du3-7NwKcCaUms5LA&utm_campaign=yelp_api_v3&utm_medium=api_v3_business_search&utm_source=IokN4du3-7NwKcCaUms5LA", "review_count": 136, "categories": [{"alias": "italian", "title": "Italian"}, {"alias": "pizza", "title": "Pizza"}], "rating": 4.0, "coordinates": {"latitude": 38.1083163, "longitude": -122.5725471}, "transactions": [], "price": "$$", "location": {"address1": "1200 Grant Ave", "address2": "", "address3": "", "city": "Novato", "zip_code": "94945", "country": "US", "state": "CA", "display_address": ["1200 Grant Ave", "Novato, CA 94945"]}, "phone": "+14158982234", "display_phone": "(415) 898-2234", "distance": 1994.546859758571}, {"id": "zZDC_fErZBVe7jRlvromDw", "alias": "carmens-la-hacienda-restaurant-novato", "name": "Carmen's La Hacienda Restaurant", "image_url": "https://s3-media4.fl.yelpcdn.com/bphoto/yzKIshPeREZNMPi2XLa3Sg/o.jpg", "is_closed": false, "url": "https://www.yelp.com/biz/carmens-la-hacienda-restaurant-novato?adjust_creative=IokN4du3-7NwKcCaUms5LA&utm_campaign=yelp_api_v3&utm_medium=api_v3_business_search&utm_source=IokN4du3-7NwKcCaUms5LA", "review_count": 293, "categories": [{"alias": "mexican", "title": "Mexican"}], "rating": 4.0, "coordinates": {"latitude": 38.1082745, "longitude": -122.5745928}, "transactions": [], "price": "$", "location": {"address1": "1401 Grant Ave", "address2": "", "address3": "", "city": "Novato", "zip_code": "94945", "country": "US", "state": "CA", "display_address": ["1401 Grant Ave", "Novato, CA 94945"]}, "phone": "+14158975514", "display_phone": "(415) 897-5514", "distance": 2074.9009372720543}, {"id": "V04as2cl_UFexTNX9RwNBQ", "alias": "taki-japanese-restaurant-novato", "name": "Taki Japanese Restaurant", "image_url": "https://s3-media4.fl.yelpcdn.com/bphoto/zIzKThobVgybisIoRFicKA/o.jpg", "is_closed": false, "url": "https://www.yelp.com/biz/taki-japanese-restaurant-novato?adjust_creative=IokN4du3-7NwKcCaUms5LA&utm_campaign=yelp_api_v3&utm_medium=api_v3_business_search&utm_source=IokN4du3-7NwKcCaUms5LA", "review_count": 283, "categories": [{"alias": "japanese", "title": "Japanese"}, {"alias": "sushi", "title": "Sushi Bars"}, {"alias": "gluten_free", "title": "Gluten-Free"}], "rating": 4.0, "coordinates": {"latitude": 38.0667055, "longitude": -122.5430193}, "transactions": ["delivery"], "price": "$$", "location": {"address1": "452 Ignacio Blvd", "address2": "", "address3": "", "city": "Novato", "zip_code": "94949", "country": "US", "state": "CA", "display_address": ["452 Ignacio Blvd", "Novato, CA 94949"]}, "phone": "+14158832423", "display_phone": "(415) 883-2423", "distance": 3264.728691795254}, {"id": "s7z7kTY3IMUotg4R4QtjIQ", "alias": "my-thai-ii-restaurant-novato", "name": "My Thai II Restaurant", "image_url": "https://s3-media1.fl.yelpcdn.com/bphoto/soYoeApc0blWBZL3g42DUA/o.jpg", "is_closed": false, "url": "https://www.yelp.com/biz/my-thai-ii-restaurant-novato?adjust_creative=IokN4du3-7NwKcCaUms5LA&utm_campaign=yelp_api_v3&utm_medium=api_v3_business_search&utm_source=IokN4du3-7NwKcCaUms5LA", "review_count": 226, "categories": [{"alias": "thai", "title": "Thai"}], "rating": 4.0, "coordinates": {"latitude": 38.1067, "longitude": -122.56686}, "transactions": ["pickup", "delivery"], "price": "$$", "location": {"address1": "811 Grant Ave", "address2": "", "address3": "", "city": "Novato", "zip_code": "94945", "country": "US", "state": "CA", "display_address": ["811 Grant Ave", "Novato, CA 94945"]}, "phone": "+14158955080", "display_phone": "(415) 895-5080", "distance": 1658.4640119247626}, {"id": "t6E674wBr80442yTf_vURQ", "alias": "taqueria-mi-pueblo-iii-novato", "name": "Taqueria Mi Pueblo III", "image_url": "https://s3-media1.fl.yelpcdn.com/bphoto/_yyyZX-tBsqdKKOyGLvxKQ/o.jpg", "is_closed": false, "url": "https://www.yelp.com/biz/taqueria-mi-pueblo-iii-novato?adjust_creative=IokN4du3-7NwKcCaUms5LA&utm_campaign=yelp_api_v3&utm_medium=api_v3_business_search&utm_source=IokN4du3-7NwKcCaUms5LA", "review_count": 406, "categories": [{"alias": "mexican", "title": "Mexican"}], "rating": 4.0, "coordinates": {"latitude": 38.1071548461914, "longitude": -122.569313049316}, "transactions": ["delivery"], "price": "$$", "location": {"address1": "905 Grant Ave", "address2": "", "address3": "", "city": "Novato", "zip_code": "94945", "country": "US", "state": "CA", "display_address": ["905 Grant Ave", "Novato, CA 94945"]}, "phone": "+14158780122", "display_phone": "(415) 878-0122", "distance": 1754.3773977272238}, {"id": "ks_2w1GG3kc3lc4mbeb9QA", "alias": "batika-india-bistro-novato-2", "name": "Batika India Bistro", "image_url": "https://s3-media2.fl.yelpcdn.com/bphoto/uom8Ek9T_4tYxVJQdrZF9w/o.jpg", "is_closed": false, "url": "https://www.yelp.com/biz/batika-india-bistro-novato-2?adjust_creative=IokN4du3-7NwKcCaUms5LA&utm_campaign=yelp_api_v3&utm_medium=api_v3_business_search&utm_source=IokN4du3-7NwKcCaUms5LA", "review_count": 392, "categories": [{"alias": "indpak", "title": "Indian"}], "rating": 4.0, "coordinates": {"latitude": 38.107758, "longitude": -122.568242}, "transactions": ["pickup", "delivery"], "price": "$$", "location": {"address1": "868 Grant Ave", "address2": "", "address3": "", "city": "Novato", "zip_code": "94945", "country": "US", "state": "CA", "display_address": ["868 Grant Ave", "Novato, CA 94945"]}, "phone": "+14158955757", "display_phone": "(415) 895-5757", "distance": 1793.1379451651192}, {"id": "4NSX6NMa4siHOSrZIJ7Biw", "alias": "rickeys-restaurant-novato", "name": "Rickey's Restaurant", "image_url": "https://s3-media4.fl.yelpcdn.com/bphoto/etC5ueoQ4SSo9PfyDIgWUQ/o.jpg", "is_closed": false, "url": "https://www.yelp.com/biz/rickeys-restaurant-novato?adjust_creative=IokN4du3-7NwKcCaUms5LA&utm_campaign=yelp_api_v3&utm_medium=api_v3_business_search&utm_source=IokN4du3-7NwKcCaUms5LA", "review_count": 206, "categories": [{"alias": "newamerican", "title": "American (New)"}, {"alias": "bars", "title": "Bars"}, {"alias": "seafood", "title": "Seafood"}], "rating": 3.5, "coordinates": {"latitude": 38.07063, "longitude": -122.53995}, "transactions": [], "price": "$$", "location": {"address1": "250 Entrada Dr", "address2": "", "address3": "", "city": "Novato", "zip_code": "94949", "country": "US", "state": "CA", "display_address": ["250 Entrada Dr", "Novato, CA 94949"]}, "phone": "+14158702990", "display_phone": "(415) 870-2990", "distance": 3108.371604590813}, {"id": "_MCAiJVn3MyhkJjTgtFxJA", "alias": "bacon-novato", "name": "Bacon", "image_url": "https://s3-media4.fl.yelpcdn.com/bphoto/BnbvBqR_fuH6zaLTtiRw1A/o.jpg", "is_closed": false, "url": "https://www.yelp.com/biz/bacon-novato?adjust_creative=IokN4du3-7NwKcCaUms5LA&utm_campaign=yelp_api_v3&utm_medium=api_v3_business_search&utm_source=IokN4du3-7NwKcCaUms5LA", "review_count": 336, "categories": [{"alias": "breakfast_brunch", "title": "Breakfast & Brunch"}, {"alias": "burgers", "title": "Burgers"}, {"alias": "tradamerican", "title": "American (Traditional)"}], "rating": 4.0, "coordinates": {"latitude": 38.108974, "longitude": -122.576435}, "transactions": ["delivery"], "price": "$$", "location": {"address1": "1516 Grant Ave", "address2": "", "address3": "", "city": "Novato", "zip_code": "94945", "country": "US", "state": "CA", "display_address": ["1516 Grant Ave", "Novato, CA 94945"]}, "phone": "+14158929900", "display_phone": "(415) 892-9900", "distance": 2231.679640157491}, {"id": "3x7de4dwSUJNbOM4ZOXGug", "alias": "forks-and-fingers-novato", "name": "Forks and Fingers", "image_url": "https://s3-media1.fl.yelpcdn.com/bphoto/VEy6-5YSyGOV4kivOOG54A/o.jpg", "is_closed": false, "url": "https://www.yelp.com/biz/forks-and-fingers-novato?adjust_creative=IokN4du3-7NwKcCaUms5LA&utm_campaign=yelp_api_v3&utm_medium=api_v3_business_search&utm_source=IokN4du3-7NwKcCaUms5LA", "review_count": 99, "categories": [{"alias": "catering", "title": "Caterers"}, {"alias": "cafes", "title": "Cafes"}], "rating": 4.5, "coordinates": {"latitude": 38.0736808776855, "longitude": -122.53694152832}, "transactions": [], "price": "$", "location": {"address1": "372 Bel Marin Keys Blvd", "address2": "Ste M", "address3": "", "city": "Novato", "zip_code": "94949", "country": "US", "state": "CA", "display_address": ["372 Bel Marin Keys Blvd", "Ste M", "Novato, CA 94949"]}, "phone": "+14158831900", "display_phone": "(415) 883-1900", "distance": 3025.788071499845}, {"id": "OyXaIhABVM3bwo6h66ELDg", "alias": "toast-restaurant-novato-4", "name": "Toast Restaurant", "image_url": "https://s3-media1.fl.yelpcdn.com/bphoto/W0-NRkuf8a1D-o5Za6z8IA/o.jpg", "is_closed": false, "url": "https://www.yelp.com/biz/toast-restaurant-novato-4?adjust_creative=IokN4du3-7NwKcCaUms5LA&utm_campaign=yelp_api_v3&utm_medium=api_v3_business_search&utm_source=IokN4du3-7NwKcCaUms5LA", "review_count": 908, "categories": [{"alias": "newamerican", "title": "American (New)"}, {"alias": "breakfast_brunch", "title": "Breakfast & Brunch"}, {"alias": "salad", "title": "Salad"}], "rating": 3.5, "coordinates": {"latitude": 38.063568, "longitude": -122.533413}, "transactions": ["delivery"], "price": "$$", "location": {"address1": "5800 Nave Dr", "address2": "", "address3": "", "city": "Novato", "zip_code": "94949", "country": "US", "state": "CA", "display_address": ["5800 Nave Dr", "Novato, CA 94949"]}, "phone": "+14153821144", "display_phone": "(415) 382-1144", "distance": 4070.007527229711}, {"id": "jii6n6U-6zYKAcliDPaUmw", "alias": "boca-pizzeria-novato", "name": "Boca Pizzeria", "image_url": "https://s3-media4.fl.yelpcdn.com/bphoto/FFcMNeWHzyppTdgOSKcf3g/o.jpg", "is_closed": false, "url": "https://www.yelp.com/biz/boca-pizzeria-novato?adjust_creative=IokN4du3-7NwKcCaUms5LA&utm_campaign=yelp_api_v3&utm_medium=api_v3_business_search&utm_source=IokN4du3-7NwKcCaUms5LA", "review_count": 324, "categories": [{"alias": "pizza", "title": "Pizza"}], "rating": 3.5, "coordinates": {"latitude": 38.067496, "longitude": -122.541828}, "transactions": ["restaurant_reservation", "pickup", "delivery"], "price": "$$", "location": {"address1": "454 Ignacio Blvd", "address2": "", "address3": "", "city": "Novato", "zip_code": "94949", "country": "US", "state": "CA", "display_address": ["454 Ignacio Blvd", "Novato, CA 94949"]}, "phone": "+14158832302", "display_phone": "(415) 883-2302", "distance": 3286.4617187212693}, {"id": "KPoKHPoqagn8eA-lGResuQ", "alias": "el-rey-mexican-bar-and-grill-novato-3", "name": "El Rey Mexican Bar and Grill", "image_url": "https://s3-media1.fl.yelpcdn.com/bphoto/-lj3yxtA2paJa3MbdXnJtQ/o.jpg", "is_closed": false, "url": "https://www.yelp.com/biz/el-rey-mexican-bar-and-grill-novato-3?adjust_creative=IokN4du3-7NwKcCaUms5LA&utm_campaign=yelp_api_v3&utm_medium=api_v3_business_search&utm_source=IokN4du3-7NwKcCaUms5LA", "review_count": 77, "categories": [{"alias": "mexican", "title": "Mexican"}, {"alias": "cocktailbars", "title": "Cocktail Bars"}, {"alias": "sandwiches", "title": "Sandwiches"}], "rating": 4.0, "coordinates": {"latitude": 38.1077, "longitude": -122.57795}, "transactions": [], "price": "$$", "location": {"address1": "940 7th St", "address2": null, "address3": "", "city": "Novato", "zip_code": "94947", "country": "US", "state": "CA", "display_address": ["940 7th St", "Novato, CA 94947"]}, "phone": "+14158921471", "display_phone": "(415) 892-1471", "distance": 2215.619779395118}, {"id": "Uf2fPLbPU5Xfr0cGyA40dA", "alias": "ming-yen-novato-2", "name": "Ming Yen", "image_url": "https://s3-media1.fl.yelpcdn.com/bphoto/wQ9kKrjJRJoJvFJJQ7BLHg/o.jpg", "is_closed": false, "url": "https://www.yelp.com/biz/ming-yen-novato-2?adjust_creative=IokN4du3-7NwKcCaUms5LA&utm_campaign=yelp_api_v3&utm_medium=api_v3_business_search&utm_source=IokN4du3-7NwKcCaUms5LA", "review_count": 177, "categories": [{"alias": "chinese", "title": "Chinese"}], "rating": 4.0, "coordinates": {"latitude": 38.1094, "longitude": -122.57795}, "transactions": ["pickup", "delivery"], "price": "$$", "location": {"address1": "1628 Grant Ave", "address2": "", "address3": "", "city": "Novato", "zip_code": "94945", "country": "US", "state": "CA", "display_address": ["1628 Grant Ave", "Novato, CA 94945"]}, "phone": "+14158975800", "display_phone": "(415) 897-5800", "distance": 2343.871265456078}, {"id": "9pQyd0x6xLpMpWrrg8QTow", "alias": "l-and-l-hawaiian-barbecue-novato-4", "name": "L&L Hawaiian Barbecue", "image_url": "https://s3-media1.fl.yelpcdn.com/bphoto/xzoAQodaR8TYd9tEpG_43w/o.jpg", "is_closed": false, "url": "https://www.yelp.com/biz/l-and-l-hawaiian-barbecue-novato-4?adjust_creative=IokN4du3-7NwKcCaUms5LA&utm_campaign=yelp_api_v3&utm_medium=api_v3_business_search&utm_source=IokN4du3-7NwKcCaUms5LA", "review_count": 54, "categories": [{"alias": "bbq", "title": "Barbeque"}], "rating": 3.5, "coordinates": {"latitude": 38.10622, "longitude": -122.57008}, "transactions": ["delivery"], "location": {"address1": "7320 Redwood Blvd", "address2": "Ste B", "address3": null, "city": "Novato", "zip_code": "94945", "country": "US", "state": "CA", "display_address": ["7320 Redwood Blvd", "Ste B", "Novato, CA 94945"]}, "phone": "+14158926565", "display_phone": "(415) 892-6565", "distance": 1699.233886549754}, {"id": "Bnd2RfOk2_42GSrRGBaOGg", "alias": "dragon-cafe-novato", "name": "Dragon Cafe", "image_url": "https://s3-media1.fl.yelpcdn.com/bphoto/wlYDWfrHoW1sk-oWqlg-qQ/o.jpg", "is_closed": false, "url": "https://www.yelp.com/biz/dragon-cafe-novato?adjust_creative=IokN4du3-7NwKcCaUms5LA&utm_campaign=yelp_api_v3&utm_medium=api_v3_business_search&utm_source=IokN4du3-7NwKcCaUms5LA", "review_count": 78, "categories": [{"alias": "chinese", "title": "Chinese"}], "rating": 4.0, "coordinates": {"latitude": 38.0653863, "longitude": -122.5400407}, "transactions": ["delivery"], "price": "$$", "location": {"address1": "528 Alameda Del Prado", "address2": "", "address3": "", "city": "Novato", "zip_code": "94949", "country": "US", "state": "CA", "display_address": ["528 Alameda Del Prado", "Novato, CA 94949"]}, "phone": "+14158834595", "display_phone": "(415) 883-4595", "distance": 3602.6734834164486}, {"id": "461g_eFT-QaoBKjc_HWHVA", "alias": "sushiholic-novato", "name": "Sushiholic", "image_url": "https://s3-media4.fl.yelpcdn.com/bphoto/520iyPPtThd1xRW9ox1vIw/o.jpg", "is_closed": false, "url": "https://www.yelp.com/biz/sushiholic-novato?adjust_creative=IokN4du3-7NwKcCaUms5LA&utm_campaign=yelp_api_v3&utm_medium=api_v3_business_search&utm_source=IokN4du3-7NwKcCaUms5LA", "review_count": 337, "categories": [{"alias": "japanese", "title": "Japanese"}, {"alias": "sushi", "title": "Sushi Bars"}], "rating": 3.5, "coordinates": {"latitude": 38.0916437303352, "longitude": -122.554037704843}, "transactions": ["delivery"], "price": "$$", "location": {"address1": "112 Vintage Way", "address2": "", "address3": "", "city": "Novato", "zip_code": "94998", "country": "US", "state": "CA", "display_address": ["112 Vintage Way", "Novato, CA 94998"]}, "phone": "+14158988500", "display_phone": "(415) 898-8500", "distance": 710.4752581166248}, {"id": "b0f7PiV9j1KKwcE-byH9zA", "alias": "italian-delite-novato-2", "name": "Italian Delite", "image_url": "https://s3-media3.fl.yelpcdn.com/bphoto/PdVlIPFpo5tkyTdA07gp3A/o.jpg", "is_closed": false, "url": "https://www.yelp.com/biz/italian-delite-novato-2?adjust_creative=IokN4du3-7NwKcCaUms5LA&utm_campaign=yelp_api_v3&utm_medium=api_v3_business_search&utm_source=IokN4du3-7NwKcCaUms5LA", "review_count": 301, "categories": [{"alias": "italian", "title": "Italian"}, {"alias": "sandwiches", "title": "Sandwiches"}], "rating": 4.5, "coordinates": {"latitude": 38.1063343, "longitude": -122.5712238}, "transactions": [], "price": "$", "location": {"address1": "971 Front St", "address2": "", "address3": "", "city": "Novato", "zip_code": "94945", "country": "US", "state": "CA", "display_address": ["971 Front St", "Novato, CA 94945"]}, "phone": "+14158929221", "display_phone": "(415) 892-9221", "distance": 1772.0564940418076}, {"id": "71HIWwu-wqjbqiJpaeWCGA", "alias": "maya-palenque-novato", "name": "Maya Palenque", "image_url": "https://s3-media2.fl.yelpcdn.com/bphoto/DmorMty297ybSXV-FIRaSw/o.jpg", "is_closed": false, "url": "https://www.yelp.com/biz/maya-palenque-novato?adjust_creative=IokN4du3-7NwKcCaUms5LA&utm_campaign=yelp_api_v3&utm_medium=api_v3_business_search&utm_source=IokN4du3-7NwKcCaUms5LA", "review_count": 172, "categories": [{"alias": "mexican", "title": "Mexican"}, {"alias": "cocktailbars", "title": "Cocktail Bars"}], "rating": 3.5, "coordinates": {"latitude": 38.0678084, "longitude": -122.5388635}, "transactions": [], "price": "$$", "location": {"address1": "349 Enfrente Rd", "address2": "", "address3": "", "city": "Novato", "zip_code": "94949", "country": "US", "state": "CA", "display_address": ["349 Enfrente Rd", "Novato, CA 94949"]}, "phone": "+14158836292", "display_phone": "(415) 883-6292", "distance": 3405.600491846532}, {"id": "R-U1_7DhX-epw8X-sCeztQ", "alias": "tommys-salsa-novato-2", "name": "Tommy's Salsa!", "image_url": "https://s3-media1.fl.yelpcdn.com/bphoto/fH30gNcxrP3Ohq2rljjJrw/o.jpg", "is_closed": false, "url": "https://www.yelp.com/biz/tommys-salsa-novato-2?adjust_creative=IokN4du3-7NwKcCaUms5LA&utm_campaign=yelp_api_v3&utm_medium=api_v3_business_search&utm_source=IokN4du3-7NwKcCaUms5LA", "review_count": 207, "categories": [{"alias": "mexican", "title": "Mexican"}], "rating": 4.0, "coordinates": {"latitude": 38.0987994676479, "longitude": -122.571222519344}, "transactions": ["delivery"], "price": "$$", "location": {"address1": "1553 S Novato Blvd", "address2": "Ste F", "address3": "", "city": "Novato", "zip_code": "94947", "country": "US", "state": "CA", "display_address": ["1553 S Novato Blvd", "Ste F", "Novato, CA 94947"]}, "phone": "+14158981351", "display_phone": "(415) 898-1351", "distance": 1071.2346285222727}, {"id": "YEhw8BljDa2RiNPHi0n3rg", "alias": "checker-ny-deli-novato-2", "name": "Checker NY Deli", "image_url": "https://s3-media4.fl.yelpcdn.com/bphoto/JUdEKlLV5Rrztr_nRlmZdA/o.jpg", "is_closed": false, "url": "https://www.yelp.com/biz/checker-ny-deli-novato-2?adjust_creative=IokN4du3-7NwKcCaUms5LA&utm_campaign=yelp_api_v3&utm_medium=api_v3_business_search&utm_source=IokN4du3-7NwKcCaUms5LA", "review_count": 56, "categories": [{"alias": "delis", "title": "Delis"}], "rating": 3.5, "coordinates": {"latitude": 38.0930953, "longitude": -122.5551583}, "transactions": [], "location": {"address1": "104 Vintage Way", "address2": null, "address3": "", "city": "Novato", "zip_code": "94945", "country": "US", "state": "CA", "display_address": ["104 Vintage Way", "Novato, CA 94945"]}, "phone": "+14152090099", "display_phone": "(415) 209-0099", "distance": 670.1195997571581}, {"id": "1PzBUIup0-ZauHqLqFF-VA", "alias": "china-palace-novato", "name": "China Palace", "image_url": "https://s3-media2.fl.yelpcdn.com/bphoto/pr0afRrAnZ0PdzMy_4BshQ/o.jpg", "is_closed": false, "url": "https://www.yelp.com/biz/china-palace-novato?adjust_creative=IokN4du3-7NwKcCaUms5LA&utm_campaign=yelp_api_v3&utm_medium=api_v3_business_search&utm_source=IokN4du3-7NwKcCaUms5LA", "review_count": 261, "categories": [{"alias": "chinese", "title": "Chinese"}], "rating": 3.5, "coordinates": {"latitude": 38.09933, "longitude": -122.56769}, "transactions": ["pickup"], "price": "$$", "location": {"address1": "7089 Redwood Blvd", "address2": "", "address3": "", "city": "Novato", "zip_code": "94945", "country": "US", "state": "CA", "display_address": ["7089 Redwood Blvd", "Novato, CA 94945"]}, "phone": "+14158926563", "display_phone": "(415) 892-6563", "distance": 927.8419720933691}, {"id": "dIT-8bTpKbbuC5_cJYP0vg", "alias": "thailand-restaurant-novato", "name": "Thailand Restaurant", "image_url": "https://s3-media2.fl.yelpcdn.com/bphoto/9xzVh4I0vIWDtNNuOKEorw/o.jpg", "is_closed": false, "url": "https://www.yelp.com/biz/thailand-restaurant-novato?adjust_creative=IokN4du3-7NwKcCaUms5LA&utm_campaign=yelp_api_v3&utm_medium=api_v3_business_search&utm_source=IokN4du3-7NwKcCaUms5LA", "review_count": 28, "categories": [{"alias": "thai", "title": "Thai"}], "rating": 3.0, "coordinates": {"latitude": 38.06378, "longitude": -122.53362}, "transactions": [], "location": {"address1": "5800 Nave Dr", "address2": "Ste D", "address3": null, "city": "Novato", "zip_code": "94949", "country": "US", "state": "CA", "display_address": ["5800 Nave Dr", "Ste D", "Novato, CA 94949"]}, "phone": "+14158831899", "display_phone": "(415) 883-1899", "distance": 4060.1664534182655}, {"id": "nYFiEOs7ytfmDkdxTFNq2g", "alias": "china-house-novato", "name": "China House", "image_url": "https://s3-media3.fl.yelpcdn.com/bphoto/SYKAgpc67LaQkCLeMZ3Kvg/o.jpg", "is_closed": false, "url": "https://www.yelp.com/biz/china-house-novato?adjust_creative=IokN4du3-7NwKcCaUms5LA&utm_campaign=yelp_api_v3&utm_medium=api_v3_business_search&utm_source=IokN4du3-7NwKcCaUms5LA", "review_count": 98, "categories": [{"alias": "chinese", "title": "Chinese"}], "rating": 4.0, "coordinates": {"latitude": 38.1082069, "longitude": -122.5728704}, "transactions": ["pickup", "delivery"], "price": "$", "location": {"address1": "1222 Grant Ave", "address2": "", "address3": "", "city": "Novato", "zip_code": "94945", "country": "US", "state": "CA", "display_address": ["1222 Grant Ave", "Novato, CA 94945"]}, "phone": "+14158979630", "display_phone": "(415) 897-9630", "distance": 2031.098542773875}, {"id": "gT4WJe1KvOKns6fRfSuedA", "alias": "trattoria-ghiringhelli-grill-and-bar-novato", "name": "Trattoria Ghiringhelli Grill & Bar", "image_url": "https://s3-media1.fl.yelpcdn.com/bphoto/ztNwNj6Ln0cPyEA7KePBww/o.jpg", "is_closed": false, "url": "https://www.yelp.com/biz/trattoria-ghiringhelli-grill-and-bar-novato?adjust_creative=IokN4du3-7NwKcCaUms5LA&utm_campaign=yelp_api_v3&utm_medium=api_v3_business_search&utm_source=IokN4du3-7NwKcCaUms5LA", "review_count": 263, "categories": [{"alias": "italian", "title": "Italian"}, {"alias": "burgers", "title": "Burgers"}, {"alias": "sportsbars", "title": "Sports Bars"}], "rating": 3.5, "coordinates": {"latitude": 38.0972141, "longitude": -122.5710753}, "transactions": ["pickup", "delivery"], "price": "$$", "location": {"address1": "1535 S Novato Blvd", "address2": "", "address3": "", "city": "Novato", "zip_code": "94947", "country": "US", "state": "CA", "display_address": ["1535 S Novato Blvd", "Novato, CA 94947"]}, "phone": "+14158784977", "display_phone": "(415) 878-4977", "distance": 951.9845724684671}, {"id": "0zhGLRoLkLAw33K6awBdpQ", "alias": "taqueria-real-novato", "name": "Taqueria Real", "image_url": "https://s3-media2.fl.yelpcdn.com/bphoto/247yGi0UASFByZpGqixNoA/o.jpg", "is_closed": false, "url": "https://www.yelp.com/biz/taqueria-real-novato?adjust_creative=IokN4du3-7NwKcCaUms5LA&utm_campaign=yelp_api_v3&utm_medium=api_v3_business_search&utm_source=IokN4du3-7NwKcCaUms5LA", "review_count": 183, "categories": [{"alias": "mexican", "title": "Mexican"}], "rating": 3.5, "coordinates": {"latitude": 38.07293, "longitude": -122.53638}, "transactions": ["pickup"], "price": "$", "location": {"address1": "354 Bel Marin Keys Blvd", "address2": "", "address3": "", "city": "Novato", "zip_code": "94949", "country": "US", "state": "CA", "display_address": ["354 Bel Marin Keys Blvd", "Novato, CA 94949"]}, "phone": "+14153820522", "display_phone": "(415) 382-0522", "distance": 3116.101590701286}, {"id": "pTRnezU3aVLnJS2u_UohXg", "alias": "creekside-bakery-novato", "name": "Creekside Bakery", "image_url": "https://s3-media3.fl.yelpcdn.com/bphoto/ysYZAf75Kp2x11sxqX0iNw/o.jpg", "is_closed": false, "url": "https://www.yelp.com/biz/creekside-bakery-novato?adjust_creative=IokN4du3-7NwKcCaUms5LA&utm_campaign=yelp_api_v3&utm_medium=api_v3_business_search&utm_source=IokN4du3-7NwKcCaUms5LA", "review_count": 196, "categories": [{"alias": "bakeries", "title": "Bakeries"}, {"alias": "desserts", "title": "Desserts"}, {"alias": "sandwiches", "title": "Sandwiches"}], "rating": 4.5, "coordinates": {"latitude": 38.1078968749617, "longitude": -122.579500152858}, "transactions": [], "price": "$$", "location": {"address1": "1719 Grant Ave", "address2": "", "address3": "", "city": "Novato", "zip_code": "94945", "country": "US", "state": "CA", "display_address": ["1719 Grant Ave", "Novato, CA 94945"]}, "phone": "+14158927655", "display_phone": "(415) 892-7655", "distance": 2301.5671123276925}, {"id": "kdh_Qhga4vf9GAVVyjFUxQ", "alias": "matsuyama-novato", "name": "Matsuyama", "image_url": "https://s3-media4.fl.yelpcdn.com/bphoto/_W8qHmPQja4ggqEpisP3HA/o.jpg", "is_closed": false, "url": "https://www.yelp.com/biz/matsuyama-novato?adjust_creative=IokN4du3-7NwKcCaUms5LA&utm_campaign=yelp_api_v3&utm_medium=api_v3_business_search&utm_source=IokN4du3-7NwKcCaUms5LA", "review_count": 128, "categories": [{"alias": "japanese", "title": "Japanese"}], "rating": 3.5, "coordinates": {"latitude": 38.1056068, "longitude": -122.5712905}, "transactions": [], "price": "$$", "location": {"address1": "939 Front St", "address2": null, "address3": "", "city": "Novato", "zip_code": "94945", "country": "US", "state": "CA", "display_address": ["939 Front St", "Novato, CA 94945"]}, "phone": "+14152099823", "display_phone": "(415) 209-9823", "distance": 1676.8613255810253}, {"id": "5Mm58WZFzrWbtXop9mylkg", "alias": "mod-pizza-novato", "name": "MOD Pizza", "image_url": "https://s3-media2.fl.yelpcdn.com/bphoto/f3uM5fmQR6HiqsPu9dR47w/o.jpg", "is_closed": false, "url": "https://www.yelp.com/biz/mod-pizza-novato?adjust_creative=IokN4du3-7NwKcCaUms5LA&utm_campaign=yelp_api_v3&utm_medium=api_v3_business_search&utm_source=IokN4du3-7NwKcCaUms5LA", "review_count": 147, "categories": [{"alias": "hotdogs", "title": "Fast Food"}, {"alias": "pizza", "title": "Pizza"}], "rating": 3.5, "coordinates": {"latitude": 38.0910921, "longitude": -122.5562176}, "transactions": [], "price": "$", "location": {"address1": "140 Vintage Way", "address2": null, "address3": null, "city": "Novato", "zip_code": "94945", "country": "US", "state": "CA", "display_address": ["140 Vintage Way", "Novato, CA 94945"]}, "phone": "+16282037170", "display_phone": "(628) 203-7170", "distance": 642.9037786779436}, {"id": "xW7aY9-w2V5U7VKQeVgItQ", "alias": "michaels-sourdough-sandwiches-novato", "name": "Michael's Sourdough Sandwiches", "image_url": "https://s3-media1.fl.yelpcdn.com/bphoto/qwn-5fzgoQHjIlCw3gZOcg/o.jpg", "is_closed": false, "url": "https://www.yelp.com/biz/michaels-sourdough-sandwiches-novato?adjust_creative=IokN4du3-7NwKcCaUms5LA&utm_campaign=yelp_api_v3&utm_medium=api_v3_business_search&utm_source=IokN4du3-7NwKcCaUms5LA", "review_count": 148, "categories": [{"alias": "delis", "title": "Delis"}, {"alias": "sandwiches", "title": "Sandwiches"}], "rating": 4.0, "coordinates": {"latitude": 38.070364, "longitude": -122.531407}, "transactions": [], "price": "$", "location": {"address1": "42 Digital Dr", "address2": "Ste 8", "address3": "", "city": "Novato", "zip_code": "94949", "country": "US", "state": "CA", "display_address": ["42 Digital Dr", "Ste 8", "Novato, CA 94949"]}, "phone": "+14158835110", "display_phone": "(415) 883-5110", "distance": 3634.184368838232}, {"id": "Poor9bVykb_lXSsynN8HSg", "alias": "belli-deli-novato", "name": "Belli Deli", "image_url": "https://s3-media2.fl.yelpcdn.com/bphoto/pS9pJRbLy2XNN2sbaagb_g/o.jpg", "is_closed": false, "url": "https://www.yelp.com/biz/belli-deli-novato?adjust_creative=IokN4du3-7NwKcCaUms5LA&utm_campaign=yelp_api_v3&utm_medium=api_v3_business_search&utm_source=IokN4du3-7NwKcCaUms5LA", "review_count": 86, "categories": [{"alias": "delis", "title": "Delis"}, {"alias": "sandwiches", "title": "Sandwiches"}], "rating": 4.5, "coordinates": {"latitude": 38.1150499, "longitude": -122.56302}, "transactions": [], "price": "$", "location": {"address1": "1530 Armstrong Ave", "address2": "", "address3": "", "city": "Novato", "zip_code": "94945", "country": "US", "state": "CA", "display_address": ["1530 Armstrong Ave", "Novato, CA 94945"]}, "phone": "+14158975770", "display_phone": "(415) 897-5770", "distance": 2641.4345050407787}, {"id": "vvJF5hAgHQ3Re1H9YexYyg", "alias": "jennie-lows-chinese-cuisine-novato", "name": "Jennie Low's Chinese Cuisine", "image_url": "https://s3-media1.fl.yelpcdn.com/bphoto/MOfn5cJlPW1NpaqGk4-dOg/o.jpg", "is_closed": false, "url": "https://www.yelp.com/biz/jennie-lows-chinese-cuisine-novato?adjust_creative=IokN4du3-7NwKcCaUms5LA&utm_campaign=yelp_api_v3&utm_medium=api_v3_business_search&utm_source=IokN4du3-7NwKcCaUms5LA", "review_count": 213, "categories": [{"alias": "chinese", "title": "Chinese"}, {"alias": "seafood", "title": "Seafood"}], "rating": 3.5, "coordinates": {"latitude": 38.09235, "longitude": -122.555888}, "transactions": ["delivery"], "price": "$$", "location": {"address1": "120 Vintage Way", "address2": "Ste D9", "address3": "", "city": "Novato", "zip_code": "94945", "country": "US", "state": "CA", "display_address": ["120 Vintage Way", "Ste D9", "Novato, CA 94945"]}, "phone": "+14158928838", "display_phone": "(415) 892-8838", "distance": 725.571592174704}, {"id": "-1K2a9BI9qjlma21HmY0HA", "alias": "the-habit-burger-grill-novato", "name": "The Habit Burger Grill", "image_url": "https://s3-media3.fl.yelpcdn.com/bphoto/SBzUHcchxRn5dNcLh7CZmA/o.jpg", "is_closed": false, "url": "https://www.yelp.com/biz/the-habit-burger-grill-novato?adjust_creative=IokN4du3-7NwKcCaUms5LA&utm_campaign=yelp_api_v3&utm_medium=api_v3_business_search&utm_source=IokN4du3-7NwKcCaUms5LA", "review_count": 126, "categories": [{"alias": "burgers", "title": "Burgers"}], "rating": 4.0, "coordinates": {"latitude": 38.103817, "longitude": -122.5721741}, "transactions": [], "price": "$", "location": {"address1": "924 Diablo Ave", "address2": null, "address3": "", "city": "Novato", "zip_code": "94947", "country": "US", "state": "CA", "display_address": ["924 Diablo Ave", "Novato, CA 94947"]}, "phone": "+14158976100", "display_phone": "(415) 897-6100", "distance": 1397.079306512676}, {"id": "b07s0o1hVF0xbdW3mTAPGg", "alias": "deli-74-novato", "name": "Deli 74", "image_url": "https://s3-media1.fl.yelpcdn.com/bphoto/mq6MevcdCWYSuoYIuMwoxQ/o.jpg", "is_closed": false, "url": "https://www.yelp.com/biz/deli-74-novato?adjust_creative=IokN4du3-7NwKcCaUms5LA&utm_campaign=yelp_api_v3&utm_medium=api_v3_business_search&utm_source=IokN4du3-7NwKcCaUms5LA", "review_count": 45, "categories": [{"alias": "delis", "title": "Delis"}, {"alias": "korean", "title": "Korean"}], "rating": 3.5, "coordinates": {"latitude": 38.07082, "longitude": -122.53268}, "transactions": ["delivery"], "price": "$", "location": {"address1": "19 Digital Dr", "address2": "Ste E", "address3": "", "city": "Novato", "zip_code": "94949", "country": "US", "state": "CA", "display_address": ["19 Digital Dr", "Ste E", "Novato, CA 94949"]}, "phone": "", "display_phone": "", "distance": 3512.3074285040993}, {"id": "5sKbrUgrgTo5kDLyarvpMA", "alias": "la-carreta-novato-novato-2", "name": "La Carreta - Novato", "image_url": "https://s3-media1.fl.yelpcdn.com/bphoto/tLCt5E6MFabZBmBOjWbakA/o.jpg", "is_closed": false, "url": "https://www.yelp.com/biz/la-carreta-novato-novato-2?adjust_creative=IokN4du3-7NwKcCaUms5LA&utm_campaign=yelp_api_v3&utm_medium=api_v3_business_search&utm_source=IokN4du3-7NwKcCaUms5LA", "review_count": 56, "categories": [{"alias": "mexican", "title": "Mexican"}, {"alias": "bars", "title": "Bars"}, {"alias": "seafood", "title": "Seafood"}], "rating": 3.0, "coordinates": {"latitude": 38.1108322, "longitude": -122.5926374}, "transactions": ["delivery"], "price": "$$", "location": {"address1": "2033 Novato Blvd", "address2": "", "address3": null, "city": "Novato", "zip_code": "94947", "country": "US", "state": "CA", "display_address": ["2033 Novato Blvd", "Novato, CA 94947"]}, "phone": "+14154936875", "display_phone": "(415) 493-6875", "distance": 3369.2192481612606}, {"id": "pwbI5QcgyVo4WY8aXWrJIA", "alias": "mountain-mikes-pizza-novato", "name": "Mountain Mike's Pizza", "image_url": "https://s3-media4.fl.yelpcdn.com/bphoto/acANHa9yTKRkOLtcgi3NWg/o.jpg", "is_closed": false, "url": "https://www.yelp.com/biz/mountain-mikes-pizza-novato?adjust_creative=IokN4du3-7NwKcCaUms5LA&utm_campaign=yelp_api_v3&utm_medium=api_v3_business_search&utm_source=IokN4du3-7NwKcCaUms5LA", "review_count": 108, "categories": [{"alias": "pizza", "title": "Pizza"}, {"alias": "sportsbars", "title": "Sports Bars"}, {"alias": "venues", "title": "Venues & Event Spaces"}], "rating": 3.5, "coordinates": {"latitude": 38.100115, "longitude": -122.571784}, "transactions": ["pickup", "delivery"], "price": "$$", "location": {"address1": "1561 S Novato Blvd", "address2": "", "address3": "", "city": "Novato", "zip_code": "94947", "country": "US", "state": "CA", "display_address": ["1561 S Novato Blvd", "Novato, CA 94947"]}, "phone": "+14158988800", "display_phone": "(415) 898-8800", "distance": 1207.8246119428416}, {"id": "IrewZUrWOy2wyyOYX-o6Ww", "alias": "las-guitarras-restaurant-novato", "name": "Las Guitarras Restaurant", "image_url": "https://s3-media3.fl.yelpcdn.com/bphoto/WWsFVQUs8vzoaTQCGW6Nwg/o.jpg", "is_closed": false, "url": "https://www.yelp.com/biz/las-guitarras-restaurant-novato?adjust_creative=IokN4du3-7NwKcCaUms5LA&utm_campaign=yelp_api_v3&utm_medium=api_v3_business_search&utm_source=IokN4du3-7NwKcCaUms5LA", "review_count": 182, "categories": [{"alias": "mexican", "title": "Mexican"}], "rating": 3.0, "coordinates": {"latitude": 38.10757, "longitude": -122.56646}, "transactions": [], "price": "$$", "location": {"address1": "1017 Reichert Ave", "address2": "", "address3": "", "city": "Novato", "zip_code": "94945", "country": "US", "state": "CA", "display_address": ["1017 Reichert Ave", "Novato, CA 94945"]}, "phone": "+14158923171", "display_phone": "(415) 892-3171", "distance": 1735.1800308561403}, {"id": "aTrIb5IsDAeFYiASKBowVg", "alias": "chick-fil-a-novato-10", "name": "Chick-fil-A", "image_url": "https://s3-media3.fl.yelpcdn.com/bphoto/eWmB3lyFXKynBC3Xm0g1JA/o.jpg", "is_closed": false, "url": "https://www.yelp.com/biz/chick-fil-a-novato-10?adjust_creative=IokN4du3-7NwKcCaUms5LA&utm_campaign=yelp_api_v3&utm_medium=api_v3_business_search&utm_source=IokN4du3-7NwKcCaUms5LA", "review_count": 245, "categories": [{"alias": "hotdogs", "title": "Fast Food"}], "rating": 3.0, "coordinates": {"latitude": 38.094081, "longitude": -122.557485}, "transactions": [], "price": "$", "location": {"address1": "35 Rowland Way", "address2": "", "address3": "", "city": "Novato", "zip_code": "94945", "country": "US", "state": "CA", "display_address": ["35 Rowland Way", "Novato, CA 94945"]}, "phone": "+14158977710", "display_phone": "(415) 897-7710", "distance": 446.5757137818826}, {"id": "nCralVzKx61vrqt7ZF7dCQ", "alias": "marys-pizza-shack-novato", "name": "Mary's Pizza Shack", "image_url": "https://s3-media2.fl.yelpcdn.com/bphoto/OSLXV7EbCLC8tzz6PcVbRA/o.jpg", "is_closed": false, "url": "https://www.yelp.com/biz/marys-pizza-shack-novato?adjust_creative=IokN4du3-7NwKcCaUms5LA&utm_campaign=yelp_api_v3&utm_medium=api_v3_business_search&utm_source=IokN4du3-7NwKcCaUms5LA", "review_count": 140, "categories": [{"alias": "pizza", "title": "Pizza"}, {"alias": "italian", "title": "Italian"}], "rating": 3.0, "coordinates": {"latitude": 38.1227209748576, "longitude": -122.603542215895}, "transactions": ["delivery"], "price": "$$", "location": {"address1": "121 San Marin Dr", "address2": "", "address3": "", "city": "Novato", "zip_code": "94945", "country": "US", "state": "CA", "display_address": ["121 San Marin Dr", "Novato, CA 94945"]}, "phone": "+14158976266", "display_phone": "(415) 897-6266", "distance": 4953.11161938598}, {"id": "vqTa8n3-QdMCfT2TzXk05A", "alias": "in-n-out-burger-novato", "name": "In-N-Out Burger", "image_url": "https://s3-media3.fl.yelpcdn.com/bphoto/1crbJDVN0l9ANQt2oRo7DQ/o.jpg", "is_closed": false, "url": "https://www.yelp.com/biz/in-n-out-burger-novato?adjust_creative=IokN4du3-7NwKcCaUms5LA&utm_campaign=yelp_api_v3&utm_medium=api_v3_business_search&utm_source=IokN4du3-7NwKcCaUms5LA", "review_count": 139, "categories": [{"alias": "burgers", "title": "Burgers"}, {"alias": "hotdogs", "title": "Fast Food"}], "rating": 3.5, "coordinates": {"latitude": 38.0897502194278, "longitude": -122.554930162974}, "transactions": [], "price": "$", "location": {"address1": "216 Vintage Way", "address2": "", "address3": "", "city": "Novato", "zip_code": "94945", "country": "US", "state": "CA", "display_address": ["216 Vintage Way", "Novato, CA 94945"]}, "phone": "+18007861000", "display_phone": "(800) 786-1000", "distance": 692.1590638549624}, {"id": "bhZA0iwyicgthEDY9kXAmg", "alias": "nugget-markets-novato", "name": "Nugget Markets", "image_url": "https://s3-media3.fl.yelpcdn.com/bphoto/mPUdac8JMc8VCnE3G9As4Q/o.jpg", "is_closed": false, "url": "https://www.yelp.com/biz/nugget-markets-novato?adjust_creative=IokN4du3-7NwKcCaUms5LA&utm_campaign=yelp_api_v3&utm_medium=api_v3_business_search&utm_source=IokN4du3-7NwKcCaUms5LA", "review_count": 86, "categories": [{"alias": "grocery", "title": "Grocery"}, {"alias": "markets", "title": "Fruits & Veggies"}, {"alias": "sandwiches", "title": "Sandwiches"}], "rating": 4.0, "coordinates": {"latitude": 38.0673514770916, "longitude": -122.543033141425}, "transactions": [], "price": "$$", "location": {"address1": "470 Ignacio Blvd", "address2": "", "address3": "", "city": "Novato", "zip_code": "94949", "country": "US", "state": "CA", "display_address": ["470 Ignacio Blvd", "Novato, CA 94949"]}, "phone": "+14158834600", "display_phone": "(415) 883-4600", "distance": 3244.493703964203}, {"id": "fcnSAPTua2lRKunWxpGfPg", "alias": "rustic-bakery-novato", "name": "Rustic Bakery", "image_url": "https://s3-media2.fl.yelpcdn.com/bphoto/47zpdWsnqiKG2-7PhKG6XA/o.jpg", "is_closed": false, "url": "https://www.yelp.com/biz/rustic-bakery-novato?adjust_creative=IokN4du3-7NwKcCaUms5LA&utm_campaign=yelp_api_v3&utm_medium=api_v3_business_search&utm_source=IokN4du3-7NwKcCaUms5LA", "review_count": 268, "categories": [{"alias": "bakeries", "title": "Bakeries"}, {"alias": "cafes", "title": "Cafes"}], "rating": 3.5, "coordinates": {"latitude": 38.10824, "longitude": -122.57472}, "transactions": ["pickup"], "price": "$$", "location": {"address1": "1407 Grant Ave", "address2": "", "address3": "", "city": "Novato", "zip_code": "94945", "country": "US", "state": "CA", "display_address": ["1407 Grant Ave", "Novato, CA 94945"]}, "phone": "+14158784952", "display_phone": "(415) 878-4952", "distance": 2083.179619010667}, {"id": "aS1lZWxVVcvGxdOIe0hpcw", "alias": "cafe-cruiser-novato", "name": "Cafe Cruiser", "image_url": "https://s3-media4.fl.yelpcdn.com/bphoto/WHQGfB4ixFM3VWPHvb2YQA/o.jpg", "is_closed": false, "url": "https://www.yelp.com/biz/cafe-cruiser-novato?adjust_creative=IokN4du3-7NwKcCaUms5LA&utm_campaign=yelp_api_v3&utm_medium=api_v3_business_search&utm_source=IokN4du3-7NwKcCaUms5LA", "review_count": 56, "categories": [{"alias": "sandwiches", "title": "Sandwiches"}, {"alias": "cafes", "title": "Cafes"}], "rating": 4.5, "coordinates": {"latitude": 38.06967, "longitude": -122.53393}, "transactions": [], "price": "$", "location": {"address1": "8 Digital Dr", "address2": "Ste 108", "address3": "", "city": "Novato", "zip_code": "94949", "country": "US", "state": "CA", "display_address": ["8 Digital Dr", "Ste 108", "Novato, CA 94949"]}, "phone": "+14153820670", "display_phone": "(415) 382-0670", "distance": 3500.077483893367}, {"id": "6RuwsFTVSbKsMlzY-YJGxw", "alias": "china-village-novato", "name": "China Village", "image_url": "https://s3-media2.fl.yelpcdn.com/bphoto/imqHsB67Oo8-YiyLwM0-IQ/o.jpg", "is_closed": false, "url": "https://www.yelp.com/biz/china-village-novato?adjust_creative=IokN4du3-7NwKcCaUms5LA&utm_campaign=yelp_api_v3&utm_medium=api_v3_business_search&utm_source=IokN4du3-7NwKcCaUms5LA", "review_count": 92, "categories": [{"alias": "chinese", "title": "Chinese"}], "rating": 3.5, "coordinates": {"latitude": 38.121942, "longitude": -122.6040644}, "transactions": ["pickup", "delivery"], "price": "$", "location": {"address1": "107 San Marin Dr", "address2": "", "address3": "", "city": "Novato", "zip_code": "94945", "country": "US", "state": "CA", "display_address": ["107 San Marin Dr", "Novato, CA 94945"]}, "phone": "+14158923823", "display_phone": "(415) 892-3823", "distance": 4977.564003237394}, {"id": "65DCX_3UcD0nIKXJWmfGug", "alias": "red-boy-pizza-and-restaurant-ignacio-novato", "name": "Red Boy Pizza & Restaurant Ignacio", "image_url": "https://s3-media3.fl.yelpcdn.com/bphoto/4WO9qYxfp_u5Gs3Y3RjTLw/o.jpg", "is_closed": false, "url": "https://www.yelp.com/biz/red-boy-pizza-and-restaurant-ignacio-novato?adjust_creative=IokN4du3-7NwKcCaUms5LA&utm_campaign=yelp_api_v3&utm_medium=api_v3_business_search&utm_source=IokN4du3-7NwKcCaUms5LA", "review_count": 176, "categories": [{"alias": "italian", "title": "Italian"}, {"alias": "pizza", "title": "Pizza"}], "rating": 3.5, "coordinates": {"latitude": 38.069071, "longitude": -122.5410094}, "transactions": ["pickup", "delivery"], "price": "$$", "location": {"address1": "459 Entrada Dr", "address2": "", "address3": "", "city": "Novato", "zip_code": "94949", "country": "US", "state": "CA", "display_address": ["459 Entrada Dr", "Novato, CA 94949"]}, "phone": "+14153827711", "display_phone": "(415) 382-7711", "distance": 3206.5702348885065}, {"id": "xeCcrqriziEZocKxhvIIuA", "alias": "green-bamboo-chinese-novato", "name": "Green Bamboo Chinese", "image_url": "https://s3-media4.fl.yelpcdn.com/bphoto/RaECTglc1JvMgFr-ix5K8w/o.jpg", "is_closed": false, "url": "https://www.yelp.com/biz/green-bamboo-chinese-novato?adjust_creative=IokN4du3-7NwKcCaUms5LA&utm_campaign=yelp_api_v3&utm_medium=api_v3_business_search&utm_source=IokN4du3-7NwKcCaUms5LA", "review_count": 67, "categories": [{"alias": "chinese", "title": "Chinese"}], "rating": 3.5, "coordinates": {"latitude": 38.068818, "longitude": -122.541284}, "transactions": ["pickup", "delivery"], "price": "$", "location": {"address1": "471 Entrada Dr", "address2": "", "address3": "", "city": "Novato", "zip_code": "94949", "country": "US", "state": "CA", "display_address": ["471 Entrada Dr", "Novato, CA 94949"]}, "phone": "+14158839060", "display_phone": "(415) 883-9060", "distance": 3190.674451899474}, {"id": "z-pdEFIVG-fKezR9n1CGOQ", "alias": "tagliaferris-delicatessen-and-cafe-novato-2", "name": "Tagliaferri's Delicatessen & Cafe", "image_url": "https://s3-media1.fl.yelpcdn.com/bphoto/-Og5d1i7D-tO8aMi-k5zjA/o.jpg", "is_closed": false, "url": "https://www.yelp.com/biz/tagliaferris-delicatessen-and-cafe-novato-2?adjust_creative=IokN4du3-7NwKcCaUms5LA&utm_campaign=yelp_api_v3&utm_medium=api_v3_business_search&utm_source=IokN4du3-7NwKcCaUms5LA", "review_count": 149, "categories": [{"alias": "catering", "title": "Caterers"}, {"alias": "delis", "title": "Delis"}, {"alias": "sandwiches", "title": "Sandwiches"}], "rating": 3.5, "coordinates": {"latitude": 38.1089485, "longitude": -122.5786488}, "transactions": [], "price": "$$", "location": {"address1": "1701 Grant Ave", "address2": "", "address3": "", "city": "Novato", "zip_code": "94945", "country": "US", "state": "CA", "display_address": ["1701 Grant Ave", "Novato, CA 94945"]}, "phone": "+14158979677", "display_phone": "(415) 897-9677", "distance": 2343.781696377438}, {"id": "vhkE89ZtIWrJoKvG5TPELw", "alias": "the-melt-bus-novato", "name": "The Melt Bus", "image_url": "https://s3-media1.fl.yelpcdn.com/bphoto/CMM7bXLjtyMIRjlCWJIbhA/o.jpg", "is_closed": false, "url": "https://www.yelp.com/biz/the-melt-bus-novato?adjust_creative=IokN4du3-7NwKcCaUms5LA&utm_campaign=yelp_api_v3&utm_medium=api_v3_business_search&utm_source=IokN4du3-7NwKcCaUms5LA", "review_count": 1, "categories": [{"alias": "foodtrucks", "title": "Food Trucks"}, {"alias": "tradamerican", "title": "American (Traditional)"}, {"alias": "sandwiches", "title": "Sandwiches"}], "rating": 4.0, "coordinates": {"latitude": 38.0888423851396, "longitude": -122.552307085303}, "transactions": [], "location": {"address1": "Rowland Plz", "address2": "", "address3": "", "city": "Novato", "zip_code": "", "country": "US", "state": "CA", "display_address": ["Rowland Plz", "Novato, CA"]}, "phone": "", "display_phone": "", "distance": 942.8956752535548}, {"id": "qltapfwDOWY33dncLCLnHQ", "alias": "star-restaurant-novato", "name": "Star Restaurant", "image_url": "https://s3-media2.fl.yelpcdn.com/bphoto/JjIThdXFazNKJkZRbnPY9g/o.jpg", "is_closed": false, "url": "https://www.yelp.com/biz/star-restaurant-novato?adjust_creative=IokN4du3-7NwKcCaUms5LA&utm_campaign=yelp_api_v3&utm_medium=api_v3_business_search&utm_source=IokN4du3-7NwKcCaUms5LA", "review_count": 145, "categories": [{"alias": "tradamerican", "title": "American (Traditional)"}, {"alias": "breakfast_brunch", "title": "Breakfast & Brunch"}], "rating": 3.0, "coordinates": {"latitude": 38.10669, "longitude": -122.57909}, "transactions": ["delivery"], "price": "$$", "location": {"address1": "1700 Novato Blvd", "address2": "", "address3": "", "city": "Novato", "zip_code": "94947", "country": "US", "state": "CA", "display_address": ["1700 Novato Blvd", "Novato, CA 94947"]}, "phone": "+14158971970", "display_phone": "(415) 897-1970", "distance": 2174.84509360455}, {"id": "_RpKtXboyemrxaF4x3VTsw", "alias": "browns-binyerd-novato", "name": "Brown's Binyerd", "image_url": "https://s3-media2.fl.yelpcdn.com/bphoto/bFFBCI6Z1Pv4KxBqI9ajeg/o.jpg", "is_closed": false, "url": "https://www.yelp.com/biz/browns-binyerd-novato?adjust_creative=IokN4du3-7NwKcCaUms5LA&utm_campaign=yelp_api_v3&utm_medium=api_v3_business_search&utm_source=IokN4du3-7NwKcCaUms5LA", "review_count": 21, "categories": [{"alias": "tradamerican", "title": "American (Traditional)"}, {"alias": "sportsbars", "title": "Sports Bars"}, {"alias": "poolhalls", "title": "Pool Halls"}], "rating": 3.0, "coordinates": {"latitude": 38.1082899, "longitude": -122.57126}, "transactions": [], "price": "$", "location": {"address1": "1009 1st St", "address2": "", "address3": "", "city": "Novato", "zip_code": "94945", "country": "US", "state": "CA", "display_address": ["1009 1st St", "Novato, CA 94945"]}, "phone": "+14158971925", "display_phone": "(415) 897-1925", "distance": 1914.471761450686}, {"id": "BDMN53C95xG_ELwgMqub6A", "alias": "sams-place-novato", "name": "Sam's Place", "image_url": "https://s3-media2.fl.yelpcdn.com/bphoto/3IQQbRwVcYF9nH3KAs5kow/o.jpg", "is_closed": false, "url": "https://www.yelp.com/biz/sams-place-novato?adjust_creative=IokN4du3-7NwKcCaUms5LA&utm_campaign=yelp_api_v3&utm_medium=api_v3_business_search&utm_source=IokN4du3-7NwKcCaUms5LA", "review_count": 89, "categories": [{"alias": "newamerican", "title": "American (New)"}, {"alias": "burgers", "title": "Burgers"}, {"alias": "sandwiches", "title": "Sandwiches"}], "rating": 3.5, "coordinates": {"latitude": 38.09821, "longitude": -122.57051}, "transactions": ["pickup"], "price": "$$", "location": {"address1": "1545 S Novato Blvd", "address2": "", "address3": "", "city": "Novato", "zip_code": "94947", "country": "US", "state": "CA", "display_address": ["1545 S Novato Blvd", "Novato, CA 94947"]}, "phone": "+14152096668", "display_phone": "(415) 209-6668", "distance": 1038.6988728461683}, {"id": "SDcAc8wvlvIj9_kun0-ZrA", "alias": "firehouse-subs-novato-novato", "name": "Firehouse Subs - Novato", "image_url": "https://s3-media3.fl.yelpcdn.com/bphoto/Zc2olV8b7k_UoQVdsSnCWQ/o.jpg", "is_closed": false, "url": "https://www.yelp.com/biz/firehouse-subs-novato-novato?adjust_creative=IokN4du3-7NwKcCaUms5LA&utm_campaign=yelp_api_v3&utm_medium=api_v3_business_search&utm_source=IokN4du3-7NwKcCaUms5LA", "review_count": 110, "categories": [{"alias": "sandwiches", "title": "Sandwiches"}, {"alias": "hotdogs", "title": "Fast Food"}, {"alias": "delis", "title": "Delis"}], "rating": 3.5, "coordinates": {"latitude": 38.11187, "longitude": -122.56931}, "transactions": ["pickup", "delivery"], "price": "$$", "location": {"address1": "7505 Redwood", "address2": "Ste A", "address3": "", "city": "Novato", "zip_code": "94945", "country": "US", "state": "CA", "display_address": ["7505 Redwood", "Ste A", "Novato, CA 94945"]}, "phone": "+14154083403", "display_phone": "(415) 408-3403", "distance": 2256.4349325685503}, {"id": "mBSKj9hzWikf5ZkhXgpMvg", "alias": "original-buffalo-wings-restaurant-novato", "name": "Original Buffalo Wings Restaurant", "image_url": "https://s3-media2.fl.yelpcdn.com/bphoto/irwnZmzGSv6S8G-U7rWUFA/o.jpg", "is_closed": false, "url": "https://www.yelp.com/biz/original-buffalo-wings-restaurant-novato?adjust_creative=IokN4du3-7NwKcCaUms5LA&utm_campaign=yelp_api_v3&utm_medium=api_v3_business_search&utm_source=IokN4du3-7NwKcCaUms5LA", "review_count": 48, "categories": [{"alias": "chicken_wings", "title": "Chicken Wings"}], "rating": 2.5, "coordinates": {"latitude": 38.06548, "longitude": -122.53983}, "transactions": [], "price": "$", "location": {"address1": "520 Alameda Del Prado", "address2": "", "address3": "", "city": "Novato", "zip_code": "94949", "country": "US", "state": "CA", "display_address": ["520 Alameda Del Prado", "Novato, CA 94949"]}, "phone": "+14158833131", "display_phone": "(415) 883-3131", "distance": 3626.9183747368747}, {"id": "6nnhLxpK7yCNaGYKNY1TDw", "alias": "sushi-novato-novato", "name": "Sushi Novato", "image_url": "https://s3-media1.fl.yelpcdn.com/bphoto/9i7AIJe4gwrwbuHsztMfrA/o.jpg", "is_closed": false, "url": "https://www.yelp.com/biz/sushi-novato-novato?adjust_creative=IokN4du3-7NwKcCaUms5LA&utm_campaign=yelp_api_v3&utm_medium=api_v3_business_search&utm_source=IokN4du3-7NwKcCaUms5LA", "review_count": 1, "categories": [{"alias": "sushi", "title": "Sushi Bars"}], "rating": 4.0, "coordinates": {"latitude": 38.122797, "longitude": -122.603011}, "transactions": [], "location": {"address1": "155 San Marin Dr", "address2": "Ste A", "address3": null, "city": "Novato", "zip_code": "94945", "country": "US", "state": "CA", "display_address": ["155 San Marin Dr", "Ste A", "Novato, CA 94945"]}, "phone": "", "display_phone": "", "distance": 4927.466863991269}, {"id": "bpZtF9TjBXRA4L1bwFCr6Q", "alias": "nekter-juice-bar-novato", "name": "Nekter Juice Bar", "image_url": "https://s3-media4.fl.yelpcdn.com/bphoto/dfUqEwW4EyEpxDLeJnwSTA/o.jpg", "is_closed": false, "url": "https://www.yelp.com/biz/nekter-juice-bar-novato?adjust_creative=IokN4du3-7NwKcCaUms5LA&utm_campaign=yelp_api_v3&utm_medium=api_v3_business_search&utm_source=IokN4du3-7NwKcCaUms5LA", "review_count": 109, "categories": [{"alias": "gluten_free", "title": "Gluten-Free"}, {"alias": "juicebars", "title": "Juice Bars & Smoothies"}, {"alias": "acaibowls", "title": "Acai Bowls"}], "rating": 3.0, "coordinates": {"latitude": 38.063899, "longitude": -122.533744}, "transactions": [], "price": "$", "location": {"address1": "5800 Nave Dr", "address2": "Ste L", "address3": "", "city": "Novato", "zip_code": "94949", "country": "US", "state": "CA", "display_address": ["5800 Nave Dr", "Ste L", "Novato, CA 94949"]}, "phone": "+14158959200", "display_phone": "(415) 895-9200", "distance": 4023.163627371137}, {"id": "WzHzZcHAgqtJ_yDyqe0WdQ", "alias": "panera-bread-novato", "name": "Panera Bread", "image_url": "https://s3-media2.fl.yelpcdn.com/bphoto/wsRvLWA2Xujs_s4wdfhqAA/o.jpg", "is_closed": false, "url": "https://www.yelp.com/biz/panera-bread-novato?adjust_creative=IokN4du3-7NwKcCaUms5LA&utm_campaign=yelp_api_v3&utm_medium=api_v3_business_search&utm_source=IokN4du3-7NwKcCaUms5LA", "review_count": 119, "categories": [{"alias": "salad", "title": "Salad"}, {"alias": "soup", "title": "Soup"}, {"alias": "sandwiches", "title": "Sandwiches"}], "rating": 3.0, "coordinates": {"latitude": 38.0908218901101, "longitude": -122.554440906746}, "transactions": [], "price": "$$", "location": {"address1": "132 Vintage Way", "address2": "Ste F17", "address3": "", "city": "Novato", "zip_code": "94945", "country": "US", "state": "CA", "display_address": ["132 Vintage Way", "Ste F17", "Novato, CA 94945"]}, "phone": "+14158971056", "display_phone": "(415) 897-1056", "distance": 692.3691040576723}, {"id": "AG6i61NpCJKtvPyjcw1cYw", "alias": "china-express-novato", "name": "China Express", "image_url": "https://s3-media3.fl.yelpcdn.com/bphoto/ClNHnW_63HSqB-N5wrcNGA/o.jpg", "is_closed": false, "url": "https://www.yelp.com/biz/china-express-novato?adjust_creative=IokN4du3-7NwKcCaUms5LA&utm_campaign=yelp_api_v3&utm_medium=api_v3_business_search&utm_source=IokN4du3-7NwKcCaUms5LA", "review_count": 84, "categories": [{"alias": "chinese", "title": "Chinese"}, {"alias": "hotdogs", "title": "Fast Food"}], "rating": 3.5, "coordinates": {"latitude": 38.0981418, "longitude": -122.5703767}, "transactions": ["pickup", "delivery"], "price": "$", "location": {"address1": "1543 S Novato Blvd", "address2": "", "address3": "", "city": "Novato", "zip_code": "94947", "country": "US", "state": "CA", "display_address": ["1543 S Novato Blvd", "Novato, CA 94947"]}, "phone": "+14158999778", "display_phone": "(415) 899-9778", "distance": 1031.9008349777757}, {"id": "-2vMnywufNcw1rTb-Lbmog", "alias": "el-palmar-restaurant-novato", "name": "El Palmar Restaurant", "image_url": "https://s3-media2.fl.yelpcdn.com/bphoto/r2Ge59ZDHG845LUlg2c1pg/o.jpg", "is_closed": false, "url": "https://www.yelp.com/biz/el-palmar-restaurant-novato?adjust_creative=IokN4du3-7NwKcCaUms5LA&utm_campaign=yelp_api_v3&utm_medium=api_v3_business_search&utm_source=IokN4du3-7NwKcCaUms5LA", "review_count": 52, "categories": [{"alias": "mexican", "title": "Mexican"}], "rating": 3.5, "coordinates": {"latitude": 38.1079348, "longitude": -122.5715614}, "transactions": [], "price": "$", "location": {"address1": "1108 Grant Ave", "address2": "", "address3": "", "city": "Novato", "zip_code": "94945", "country": "US", "state": "CA", "display_address": ["1108 Grant Ave", "Novato, CA 94945"]}, "phone": "+14158939199", "display_phone": "(415) 893-9199", "distance": 1917.7414052568615}, {"id": "egyX78UkLtasUk4Qc_6j2Q", "alias": "stefanos-pizza-novato-2", "name": "Stefano's  Pizza", "image_url": "https://s3-media4.fl.yelpcdn.com/bphoto/o0YRnB4nUs_K518lrDVUNw/o.jpg", "is_closed": false, "url": "https://www.yelp.com/biz/stefanos-pizza-novato-2?adjust_creative=IokN4du3-7NwKcCaUms5LA&utm_campaign=yelp_api_v3&utm_medium=api_v3_business_search&utm_source=IokN4du3-7NwKcCaUms5LA", "review_count": 113, "categories": [{"alias": "pizza", "title": "Pizza"}, {"alias": "desserts", "title": "Desserts"}, {"alias": "sandwiches", "title": "Sandwiches"}], "rating": 3.5, "coordinates": {"latitude": 38.0988585948944, "longitude": -122.570693716407}, "transactions": ["pickup", "delivery"], "price": "$$", "location": {"address1": "1553 S Novato Blvd", "address2": "", "address3": "", "city": "Novato", "zip_code": "94947", "country": "US", "state": "CA", "display_address": ["1553 S Novato Blvd", "Novato, CA 94947"]}, "phone": "+14158784959", "display_phone": "(415) 878-4959", "distance": 1064.2534545119563}, {"id": "h-ebiiISTvkcwiANGS7oTg", "alias": "extreme-pizza-novato-novato", "name": "Extreme Pizza - Novato", "image_url": "https://s3-media1.fl.yelpcdn.com/bphoto/QqLkLy0gFrDwNfmBKGpLFw/o.jpg", "is_closed": false, "url": "https://www.yelp.com/biz/extreme-pizza-novato-novato?adjust_creative=IokN4du3-7NwKcCaUms5LA&utm_campaign=yelp_api_v3&utm_medium=api_v3_business_search&utm_source=IokN4du3-7NwKcCaUms5LA", "review_count": 105, "categories": [{"alias": "pizza", "title": "Pizza"}, {"alias": "salad", "title": "Salad"}, {"alias": "sandwiches", "title": "Sandwiches"}], "rating": 3.5, "coordinates": {"latitude": 38.092434, "longitude": -122.554339}, "transactions": ["pickup", "delivery"], "price": "$$", "location": {"address1": "104 Vintage Way", "address2": "Ste A-9", "address3": "", "city": "Novato", "zip_code": "94945", "country": "US", "state": "CA", "display_address": ["104 Vintage Way", "Ste A-9", "Novato, CA 94945"]}, "phone": "+14158986575", "display_phone": "(415) 898-6575", "distance": 679.5027791028325}, {"id": "-mYCYL1ghIoATbRNRpOJ4Q", "alias": "the-foraged-cafe-novato", "name": "The Foraged Cafe", "image_url": "https://s3-media3.fl.yelpcdn.com/bphoto/E_yUensfBrAQsD9WRnR5Bg/o.jpg", "is_closed": false, "url": "https://www.yelp.com/biz/the-foraged-cafe-novato?adjust_creative=IokN4du3-7NwKcCaUms5LA&utm_campaign=yelp_api_v3&utm_medium=api_v3_business_search&utm_source=IokN4du3-7NwKcCaUms5LA", "review_count": 3, "categories": [{"alias": "cafes", "title": "Cafes"}, {"alias": "breakfast_brunch", "title": "Breakfast & Brunch"}, {"alias": "soup", "title": "Soup"}], "rating": 4.5, "coordinates": {"latitude": 38.1252681826552, "longitude": -122.603917568922}, "transactions": [], "price": "$$", "location": {"address1": "351 San Andreas Dr", "address2": "", "address3": null, "city": "Novato", "zip_code": "94947", "country": "US", "state": "CA", "display_address": ["351 San Andreas Dr", "Novato, CA 94947"]}, "phone": "+14155724315", "display_phone": "(415) 572-4315", "distance": 5173.384476365269}, {"id": "pW_maSR3fmWnu-7SboN-Wg", "alias": "marin-coffee-roasters-novato", "name": "Marin Coffee Roasters", "image_url": "https://s3-media1.fl.yelpcdn.com/bphoto/dEorkE0f-jB76bb-BHA2bQ/o.jpg", "is_closed": false, "url": "https://www.yelp.com/biz/marin-coffee-roasters-novato?adjust_creative=IokN4du3-7NwKcCaUms5LA&utm_campaign=yelp_api_v3&utm_medium=api_v3_business_search&utm_source=IokN4du3-7NwKcCaUms5LA", "review_count": 38, "categories": [{"alias": "cafes", "title": "Cafes"}], "rating": 3.5, "coordinates": {"latitude": 38.0987510681152, "longitude": -122.570793151855}, "transactions": ["pickup", "delivery"], "price": "$", "location": {"address1": "1551 S Novato Blvd", "address2": "", "address3": "", "city": "Novato", "zip_code": "94960", "country": "US", "state": "CA", "display_address": ["1551 S Novato Blvd", "Novato, CA 94960"]}, "phone": "+14158928373", "display_phone": "(415) 892-8373", "distance": 1044.9713319493342}, {"id": "DC42MrpWtqEeWRmMsn6Z8w", "alias": "the-everest-momo-fremont-2", "name": "The Everest Momo", "image_url": "https://s3-media2.fl.yelpcdn.com/bphoto/T2f7tUQ1c104otx9oSdqYw/o.jpg", "is_closed": false, "url": "https://www.yelp.com/biz/the-everest-momo-fremont-2?adjust_creative=IokN4du3-7NwKcCaUms5LA&utm_campaign=yelp_api_v3&utm_medium=api_v3_business_search&utm_source=IokN4du3-7NwKcCaUms5LA", "review_count": 23, "categories": [{"alias": "foodtrucks", "title": "Food Trucks"}, {"alias": "indpak", "title": "Indian"}, {"alias": "himalayan", "title": "Himalayan/Nepalese"}], "rating": 4.5, "coordinates": {"latitude": 37.54643, "longitude": -121.98512}, "transactions": [], "price": "$", "location": {"address1": "39233 Fremont Blvd", "address2": null, "address3": null, "city": "Fremont", "zip_code": "94538", "country": "US", "state": "CA", "display_address": ["39233 Fremont Blvd", "Fremont, CA 94538"]}, "phone": "+14088406369", "display_phone": "(408) 840-6369", "distance": 79077.85518971655}, {"id": "I8SgHx4AIU2CGFLVjFr4_A", "alias": "casa-del-palmar-restaurant-novato", "name": "Casa Del Palmar Restaurant", "image_url": "https://s3-media4.fl.yelpcdn.com/bphoto/5gMh4rOS9cepX2fiCEbpbA/o.jpg", "is_closed": false, "url": "https://www.yelp.com/biz/casa-del-palmar-restaurant-novato?adjust_creative=IokN4du3-7NwKcCaUms5LA&utm_campaign=yelp_api_v3&utm_medium=api_v3_business_search&utm_source=IokN4du3-7NwKcCaUms5LA", "review_count": 7, "categories": [{"alias": "restaurants", "title": "Restaurants"}], "rating": 3.5, "coordinates": {"latitude": 38.1079521, "longitude": -122.5716414}, "transactions": [], "price": "$$$", "location": {"address1": "1110 Grant Ave", "address2": "", "address3": "", "city": "Novato", "zip_code": "94945", "country": "US", "state": "CA", "display_address": ["1110 Grant Ave", "Novato, CA 94945"]}, "phone": "", "display_phone": "", "distance": 1924.8039096483587}, {"id": "95o3TEAN6jlQFnZKIkej-A", "alias": "chipotle-mexican-grill-novato", "name": "Chipotle Mexican Grill", "image_url": "https://s3-media2.fl.yelpcdn.com/bphoto/YYXSpMcVdWvQJDZOPd4eGQ/o.jpg", "is_closed": false, "url": "https://www.yelp.com/biz/chipotle-mexican-grill-novato?adjust_creative=IokN4du3-7NwKcCaUms5LA&utm_campaign=yelp_api_v3&utm_medium=api_v3_business_search&utm_source=IokN4du3-7NwKcCaUms5LA", "review_count": 117, "categories": [{"alias": "mexican", "title": "Mexican"}, {"alias": "hotdogs", "title": "Fast Food"}], "rating": 2.5, "coordinates": {"latitude": 38.1059911617847, "longitude": -122.569608960731}, "transactions": ["delivery"], "price": "$", "location": {"address1": "880 De Long Ave", "address2": "", "address3": "", "city": "Novato", "zip_code": "94945", "country": "US", "state": "CA", "display_address": ["880 De Long Ave", "Novato, CA 94945"]}, "phone": "+14158920436", "display_phone": "(415) 892-0436", "distance": 1650.6199877891358}, {"id": "ZgFpLpmsPktAK_y2PQ1M2A", "alias": "marin-fresh-dinner-simplified-novato", "name": "Marin Fresh - Dinner Simplified", "image_url": "https://s3-media2.fl.yelpcdn.com/bphoto/OYtNpxQ2ZAaiakQENAa4mQ/o.jpg", "is_closed": false, "url": "https://www.yelp.com/biz/marin-fresh-dinner-simplified-novato?adjust_creative=IokN4du3-7NwKcCaUms5LA&utm_campaign=yelp_api_v3&utm_medium=api_v3_business_search&utm_source=IokN4du3-7NwKcCaUms5LA", "review_count": 3, "categories": [{"alias": "tradamerican", "title": "American (Traditional)"}], "rating": 3.5, "coordinates": {"latitude": 38.0982094, "longitude": -122.5705109}, "transactions": [], "location": {"address1": "1545 S Novato Blvd", "address2": "", "address3": "", "city": "Novato", "zip_code": "94947", "country": "US", "state": "CA", "display_address": ["1545 S Novato Blvd", "Novato, CA 94947"]}, "phone": "+17078495106", "display_phone": "(707) 849-5106", "distance": 942.6099862597493}, {"id": "IShRJGwoIF-76eDqDOhm1g", "alias": "famous-deli-and-bakery-novato", "name": "Famous Deli & Bakery", "image_url": "https://s3-media2.fl.yelpcdn.com/bphoto/-bLHxnKnoVBrNkAfonlb4A/o.jpg", "is_closed": false, "url": "https://www.yelp.com/biz/famous-deli-and-bakery-novato?adjust_creative=IokN4du3-7NwKcCaUms5LA&utm_campaign=yelp_api_v3&utm_medium=api_v3_business_search&utm_source=IokN4du3-7NwKcCaUms5LA", "review_count": 6, "categories": [{"alias": "beer_and_wine", "title": "Beer, Wine & Spirits"}, {"alias": "delis", "title": "Delis"}, {"alias": "donuts", "title": "Donuts"}], "rating": 3.5, "coordinates": {"latitude": 38.06747, "longitude": -122.53908}, "transactions": [], "price": "$", "location": {"address1": "341 Enfrente Rd", "address2": "", "address3": "", "city": "Novato", "zip_code": "94949", "country": "US", "state": "CA", "display_address": ["341 Enfrente Rd", "Novato, CA 94949"]}, "phone": "+14158835135", "display_phone": "(415) 883-5135", "distance": 3430.1777726782343}, {"id": "3524Kedp0Wzeecx7_5AB4Q", "alias": "taco-bell-novato-3", "name": "Taco Bell", "image_url": "https://s3-media3.fl.yelpcdn.com/bphoto/7stzkAoBm9g4ClHEuHl0fg/o.jpg", "is_closed": false, "url": "https://www.yelp.com/biz/taco-bell-novato-3?adjust_creative=IokN4du3-7NwKcCaUms5LA&utm_campaign=yelp_api_v3&utm_medium=api_v3_business_search&utm_source=IokN4du3-7NwKcCaUms5LA", "review_count": 41, "categories": [{"alias": "hotdogs", "title": "Fast Food"}, {"alias": "tacos", "title": "Tacos"}], "rating": 3.0, "coordinates": {"latitude": 38.0941622820273, "longitude": -122.555200240364}, "transactions": ["delivery"], "price": "$", "location": {"address1": "180 Rowland Blvd", "address2": "", "address3": "", "city": "Novato", "zip_code": "94945", "country": "US", "state": "CA", "display_address": ["180 Rowland Blvd", "Novato, CA 94945"]}, "phone": "+14158984003", "display_phone": "(415) 898-4003", "distance": 636.0310031434145}, {"id": "wcRyOpNy1FiXmZXUg-JLtQ", "alias": "marin-coffee-roasters-ignacio", "name": "Marin Coffee Roasters", "image_url": "https://s3-media4.fl.yelpcdn.com/bphoto/1gFgNo5S8Bdz58_2AD8Euw/o.jpg", "is_closed": false, "url": "https://www.yelp.com/biz/marin-coffee-roasters-ignacio?adjust_creative=IokN4du3-7NwKcCaUms5LA&utm_campaign=yelp_api_v3&utm_medium=api_v3_business_search&utm_source=IokN4du3-7NwKcCaUms5LA", "review_count": 47, "categories": [{"alias": "cafes", "title": "Cafes"}], "rating": 4.0, "coordinates": {"latitude": 38.0672038277531, "longitude": -122.542545705284}, "transactions": ["pickup", "delivery"], "price": "$", "location": {"address1": "466 Ignacio Blvd", "address2": "", "address3": "", "city": "Ignacio", "zip_code": "94949", "country": "US", "state": "CA", "display_address": ["466 Ignacio Blvd", "Ignacio, CA 94949"]}, "phone": "+14158849400", "display_phone": "(415) 884-9400", "distance": 3280.6426213051554}, {"id": "lgheXsHqe66AEZwoPDIEpw", "alias": "taco-coma-newark", "name": "Taco Coma", "image_url": "https://s3-media3.fl.yelpcdn.com/bphoto/DDz5lZDL5lDiRR_Ph0L4Sg/o.jpg", "is_closed": false, "url": "https://www.yelp.com/biz/taco-coma-newark?adjust_creative=IokN4du3-7NwKcCaUms5LA&utm_campaign=yelp_api_v3&utm_medium=api_v3_business_search&utm_source=IokN4du3-7NwKcCaUms5LA", "review_count": 3, "categories": [{"alias": "foodstands", "title": "Food Stands"}, {"alias": "tacos", "title": "Tacos"}], "rating": 5.0, "coordinates": {"latitude": 37.53453, "longitude": -122.03284}, "transactions": [], "location": {"address1": "", "address2": null, "address3": "", "city": "Newark", "zip_code": "94560", "country": "US", "state": "CA", "display_address": ["Newark, CA 94560"]}, "phone": "+15106971448", "display_phone": "(510) 697-1448", "distance": 77635.25610452086}, {"id": "Gcu48cUWtY9nCYDPvTL0UQ", "alias": "round-table-pizza-novato-3", "name": "Round Table Pizza", "image_url": "https://s3-media3.fl.yelpcdn.com/bphoto/gD37T1WuA8N0aGeWiT9Qrg/o.jpg", "is_closed": false, "url": "https://www.yelp.com/biz/round-table-pizza-novato-3?adjust_creative=IokN4du3-7NwKcCaUms5LA&utm_campaign=yelp_api_v3&utm_medium=api_v3_business_search&utm_source=IokN4du3-7NwKcCaUms5LA", "review_count": 74, "categories": [{"alias": "pizza", "title": "Pizza"}, {"alias": "buffets", "title": "Buffets"}], "rating": 2.5, "coordinates": {"latitude": 38.10024, "longitude": -122.57258}, "transactions": ["pickup", "delivery"], "price": "$$", "location": {"address1": "1565 S Novato Blvd", "address2": "", "address3": "", "city": "Novato", "zip_code": "94947", "country": "US", "state": "CA", "display_address": ["1565 S Novato Blvd", "Novato, CA 94947"]}, "phone": "+14158972512", "display_phone": "(415) 897-2512", "distance": 1261.2415663725556}, {"id": "lq-juVkG7W3_ODWaots9gw", "alias": "panda-express-novato", "name": "Panda Express", "image_url": "https://s3-media4.fl.yelpcdn.com/bphoto/PYYz4hv-D4gdXHqS6ifPJw/o.jpg", "is_closed": false, "url": "https://www.yelp.com/biz/panda-express-novato?adjust_creative=IokN4du3-7NwKcCaUms5LA&utm_campaign=yelp_api_v3&utm_medium=api_v3_business_search&utm_source=IokN4du3-7NwKcCaUms5LA", "review_count": 55, "categories": [{"alias": "chinese", "title": "Chinese"}, {"alias": "hotdogs", "title": "Fast Food"}], "rating": 2.0, "coordinates": {"latitude": 38.104, "longitude": -122.572}, "transactions": [], "price": "$", "location": {"address1": "975 Diablo Ave", "address2": "", "address3": "", "city": "Novato", "zip_code": "94947", "country": "US", "state": "CA", "display_address": ["975 Diablo Ave", "Novato, CA 94947"]}, "phone": "+14158922163", "display_phone": "(415) 892-2163", "distance": 1556.1580345580503}, {"id": "WEs5gPYSeFXdjHTHY1HbLQ", "alias": "costco-food-court-novato", "name": "Costco Food Court", "image_url": "https://s3-media3.fl.yelpcdn.com/bphoto/cLTsPFRjMMWWLGCUjudVag/o.jpg", "is_closed": false, "url": "https://www.yelp.com/biz/costco-food-court-novato?adjust_creative=IokN4du3-7NwKcCaUms5LA&utm_campaign=yelp_api_v3&utm_medium=api_v3_business_search&utm_source=IokN4du3-7NwKcCaUms5LA", "review_count": 15, "categories": [{"alias": "pizza", "title": "Pizza"}, {"alias": "food_court", "title": "Food Court"}], "rating": 3.0, "coordinates": {"latitude": 38.087266, "longitude": -122.550639}, "transactions": [], "price": "$", "location": {"address1": "300 Vintage Way", "address2": "", "address3": "", "city": "Novato", "zip_code": "94945", "country": "US", "state": "CA", "display_address": ["300 Vintage Way", "Novato, CA 94945"]}, "phone": "+14158991349", "display_phone": "(415) 899-1349", "distance": 1152.83135211259}, {"id": "LkZRPGk5oTv-T6uB2Gi7NA", "alias": "ihop-novato-3", "name": "IHOP", "image_url": "https://s3-media3.fl.yelpcdn.com/bphoto/mU5tfSw_uzwHT28-r7T6pQ/o.jpg", "is_closed": false, "url": "https://www.yelp.com/biz/ihop-novato-3?adjust_creative=IokN4du3-7NwKcCaUms5LA&utm_campaign=yelp_api_v3&utm_medium=api_v3_business_search&utm_source=IokN4du3-7NwKcCaUms5LA", "review_count": 60, "categories": [{"alias": "breakfast_brunch", "title": "Breakfast & Brunch"}, {"alias": "tradamerican", "title": "American (Traditional)"}, {"alias": "burgers", "title": "Burgers"}], "rating": 2.5, "coordinates": {"latitude": 38.0907591, "longitude": -122.5560841}, "transactions": [], "price": "$$", "location": {"address1": "144 Vintage Way", "address2": "", "address3": "", "city": "Novato", "zip_code": "94945", "country": "US", "state": "CA", "display_address": ["144 Vintage Way", "Novato, CA 94945"]}, "phone": "+14158922232", "display_phone": "(415) 892-2232", "distance": 621.4124006584732}, {"id": "C-NpIPym3h2WqP8z-8vztA", "alias": "taqueria-la-fiesta-novato", "name": "Taqueria La Fiesta", "image_url": "https://s3-media1.fl.yelpcdn.com/bphoto/mI_1ITXyN50Qdc-emrX6Lw/o.jpg", "is_closed": false, "url": "https://www.yelp.com/biz/taqueria-la-fiesta-novato?adjust_creative=IokN4du3-7NwKcCaUms5LA&utm_campaign=yelp_api_v3&utm_medium=api_v3_business_search&utm_source=IokN4du3-7NwKcCaUms5LA", "review_count": 41, "categories": [{"alias": "mexican", "title": "Mexican"}], "rating": 2.0, "coordinates": {"latitude": 38.065359, "longitude": -122.539064}, "transactions": [], "price": "$", "location": {"address1": "524 Alameda Del Prado", "address2": "", "address3": "", "city": "Novato", "zip_code": "94949", "country": "US", "state": "CA", "display_address": ["524 Alameda Del Prado", "Novato, CA 94949"]}, "phone": "+14158830340", "display_phone": "(415) 883-0340", "distance": 3617.8992566378947}, {"id": "Cf6ELvxiV2CfzjOYfG8f5g", "alias": "pell-plaza-novato", "name": "Pell Plaza", "image_url": "https://s3-media2.fl.yelpcdn.com/bphoto/BSoViTXNjWwju8IhGA0WwQ/o.jpg", "is_closed": false, "url": "https://www.yelp.com/biz/pell-plaza-novato?adjust_creative=IokN4du3-7NwKcCaUms5LA&utm_campaign=yelp_api_v3&utm_medium=api_v3_business_search&utm_source=IokN4du3-7NwKcCaUms5LA", "review_count": 1, "categories": [{"alias": "food_court", "title": "Food Court"}], "rating": 5.0, "coordinates": {"latitude": 38.0740043137961, "longitude": -122.542874600666}, "transactions": [], "price": "$", "location": {"address1": "504 Redwood Blvd", "address2": "", "address3": "", "city": "Novato", "zip_code": "94947", "country": "US", "state": "CA", "display_address": ["504 Redwood Blvd", "Novato, CA 94947"]}, "phone": "", "display_phone": "", "distance": 2646.4907112310616}, {"id": "jCcAuXhCpeJP2n-8ol7mxg", "alias": "kolobok-russian-soul-food-truck-oakland", "name": "Kolobok Russian Soul Food Truck", "image_url": "https://s3-media1.fl.yelpcdn.com/bphoto/k8s1Bfc05Iw7SJXE6VJ74Q/o.jpg", "is_closed": false, "url": "https://www.yelp.com/biz/kolobok-russian-soul-food-truck-oakland?adjust_creative=IokN4du3-7NwKcCaUms5LA&utm_campaign=yelp_api_v3&utm_medium=api_v3_business_search&utm_source=IokN4du3-7NwKcCaUms5LA", "review_count": 47, "categories": [{"alias": "foodtrucks", "title": "Food Trucks"}, {"alias": "russian", "title": "Russian"}], "rating": 4.5, "coordinates": {"latitude": 37.7883087690458, "longitude": -122.309032460882}, "transactions": [], "price": "$$", "location": {"address1": null, "address2": null, "address3": "", "city": "Oakland", "zip_code": "94577", "country": "US", "state": "CA", "display_address": ["Oakland, CA 94577"]}, "phone": "+15105996542", "display_phone": "(510) 599-6542", "distance": 40443.19880849971}, {"id": "UMqeVRnR0RqO9Su7OHiIkw", "alias": "kfc-novato", "name": "KFC", "image_url": "https://s3-media2.fl.yelpcdn.com/bphoto/LJApyWpi9Ewe08xbtsrWaQ/o.jpg", "is_closed": false, "url": "https://www.yelp.com/biz/kfc-novato?adjust_creative=IokN4du3-7NwKcCaUms5LA&utm_campaign=yelp_api_v3&utm_medium=api_v3_business_search&utm_source=IokN4du3-7NwKcCaUms5LA", "review_count": 49, "categories": [{"alias": "hotdogs", "title": "Fast Food"}, {"alias": "chicken_wings", "title": "Chicken Wings"}, {"alias": "chickenshop", "title": "Chicken Shop"}], "rating": 2.0, "coordinates": {"latitude": 38.1017897025245, "longitude": -122.569872069941}, "transactions": ["pickup", "delivery"], "price": "$", "location": {"address1": "7145 Redwood Blvd", "address2": "", "address3": "", "city": "Novato", "zip_code": "94945", "country": "US", "state": "CA", "display_address": ["7145 Redwood Blvd", "Novato, CA 94945"]}, "phone": "+14158930465", "display_phone": "(415) 893-0465", "distance": 1248.4687042983057}, {"id": "rM6pPB_qmQ3de5yGpfLT1g", "alias": "lomo-libre-san-francisco-2", "name": "Lomo Libre", "image_url": "https://s3-media1.fl.yelpcdn.com/bphoto/vjnO-EUjFHKoLMy2_JQYvg/o.jpg", "is_closed": false, "url": "https://www.yelp.com/biz/lomo-libre-san-francisco-2?adjust_creative=IokN4du3-7NwKcCaUms5LA&utm_campaign=yelp_api_v3&utm_medium=api_v3_business_search&utm_source=IokN4du3-7NwKcCaUms5LA", "review_count": 8, "categories": [{"alias": "foodtrucks", "title": "Food Trucks"}, {"alias": "peruvian", "title": "Peruvian"}], "rating": 5.0, "coordinates": {"latitude": 37.799634, "longitude": -122.436301}, "transactions": [], "location": {"address1": "2101 Lombard St", "address2": "", "address3": null, "city": "San Francisco", "zip_code": "94123", "country": "US", "state": "CA", "display_address": ["2101 Lombard St", "San Francisco, CA 94123"]}, "phone": "+14156198149", "display_phone": "(415) 619-8149", "distance": 34368.8593494838}, {"id": "0LP9bPxWWz8uB1oXtj_aUw", "alias": "mcdonalds-novato", "name": "McDonald's", "image_url": "https://s3-media4.fl.yelpcdn.com/bphoto/hpn85csLyb6lAFIq_0c6cQ/o.jpg", "is_closed": false, "url": "https://www.yelp.com/biz/mcdonalds-novato?adjust_creative=IokN4du3-7NwKcCaUms5LA&utm_campaign=yelp_api_v3&utm_medium=api_v3_business_search&utm_source=IokN4du3-7NwKcCaUms5LA", "review_count": 73, "categories": [{"alias": "hotdogs", "title": "Fast Food"}, {"alias": "burgers", "title": "Burgers"}, {"alias": "coffee", "title": "Coffee & Tea"}], "rating": 2.0, "coordinates": {"latitude": 38.0613919337936, "longitude": -122.532175}, "transactions": [], "price": "$", "location": {"address1": "5600 Nave Dr", "address2": "", "address3": "", "city": "Novato", "zip_code": "94949", "country": "US", "state": "CA", "display_address": ["5600 Nave Dr", "Novato, CA 94949"]}, "phone": "+14155060102", "display_phone": "(415) 506-0102", "distance": 4327.782028820536}, {"id": "CUwBAy6lrFi4x6Neu9eRVw", "alias": "mini-street-burger-alameda-3", "name": "Mini Street Burger", "image_url": "https://s3-media2.fl.yelpcdn.com/bphoto/Kh-OQKBIclWY1dCeIuu57w/o.jpg", "is_closed": false, "url": "https://www.yelp.com/biz/mini-street-burger-alameda-3?adjust_creative=IokN4du3-7NwKcCaUms5LA&utm_campaign=yelp_api_v3&utm_medium=api_v3_business_search&utm_source=IokN4du3-7NwKcCaUms5LA", "review_count": 28, "categories": [{"alias": "foodtrucks", "title": "Food Trucks"}, {"alias": "burgers", "title": "Burgers"}], "rating": 4.0, "coordinates": {"latitude": 37.82628, "longitude": -122.25101}, "transactions": [], "location": {"address1": null, "address2": null, "address3": null, "city": "Alameda", "zip_code": "94611", "country": "US", "state": "CA", "display_address": ["Alameda, CA 94611"]}, "phone": "+15108278982", "display_phone": "(510) 827-8982", "distance": 42649.05218081489}, {"id": "jnzFtyOK_sqUoD4BynokBw", "alias": "burger-king-novato", "name": "Burger King", "image_url": "https://s3-media2.fl.yelpcdn.com/bphoto/_rh5tClKGIGieSpwqsqjaA/o.jpg", "is_closed": false, "url": "https://www.yelp.com/biz/burger-king-novato?adjust_creative=IokN4du3-7NwKcCaUms5LA&utm_campaign=yelp_api_v3&utm_medium=api_v3_business_search&utm_source=IokN4du3-7NwKcCaUms5LA", "review_count": 32, "categories": [{"alias": "hotdogs", "title": "Fast Food"}, {"alias": "burgers", "title": "Burgers"}], "rating": 2.5, "coordinates": {"latitude": 38.0504, "longitude": -122.53204}, "transactions": [], "price": "$", "location": {"address1": "220 Alameda Del Prado", "address2": "", "address3": "", "city": "Novato", "zip_code": "94949", "country": "US", "state": "CA", "display_address": ["220 Alameda Del Prado", "Novato, CA 94949"]}, "phone": "+14158832566", "display_phone": "(415) 883-2566", "distance": 5371.524564812909}, {"id": "036sAGwE55TgfoZXHGhP5w", "alias": "dominos-pizza-novato", "name": "Domino's Pizza", "image_url": "https://s3-media3.fl.yelpcdn.com/bphoto/5IjVtQpuSWUqHVXvCxY0Yw/o.jpg", "is_closed": false, "url": "https://www.yelp.com/biz/dominos-pizza-novato?adjust_creative=IokN4du3-7NwKcCaUms5LA&utm_campaign=yelp_api_v3&utm_medium=api_v3_business_search&utm_source=IokN4du3-7NwKcCaUms5LA", "review_count": 105, "categories": [{"alias": "pizza", "title": "Pizza"}, {"alias": "chicken_wings", "title": "Chicken Wings"}, {"alias": "sandwiches", "title": "Sandwiches"}], "rating": 1.5, "coordinates": {"latitude": 38.1044399, "longitude": -122.57235}, "transactions": [], "price": "$", "location": {"address1": "975 Diablo Ave", "address2": "Ste 102A", "address3": "", "city": "Novato", "zip_code": "94947", "country": "US", "state": "CA", "display_address": ["975 Diablo Ave", "Ste 102A", "Novato, CA 94947"]}, "phone": "+14158785555", "display_phone": "(415) 878-5555", "distance": 1615.0160910853551}, {"id": "Ao6JEl2mmTRiGKg1qttegA", "alias": "mcdonalds-novato-2", "name": "McDonald's", "image_url": "https://s3-media4.fl.yelpcdn.com/bphoto/IT3C7VXg2wfvO_6UOmV8DA/o.jpg", "is_closed": false, "url": "https://www.yelp.com/biz/mcdonalds-novato-2?adjust_creative=IokN4du3-7NwKcCaUms5LA&utm_campaign=yelp_api_v3&utm_medium=api_v3_business_search&utm_source=IokN4du3-7NwKcCaUms5LA", "review_count": 38, "categories": [{"alias": "hotdogs", "title": "Fast Food"}, {"alias": "burgers", "title": "Burgers"}, {"alias": "coffee", "title": "Coffee & Tea"}], "rating": 2.0, "coordinates": {"latitude": 38.1067102, "longitude": -122.5699261}, "transactions": [], "price": "$", "location": {"address1": "7340 Redwood Hwy", "address2": "", "address3": "", "city": "Novato", "zip_code": "94947", "country": "US", "state": "CA", "display_address": ["7340 Redwood Hwy", "Novato, CA 94947"]}, "phone": "+14158976101", "display_phone": "(415) 897-6101", "distance": 1735.023891031613}, {"id": "i6ZwMjYIbmFZ8EGYz6x5Bw", "alias": "phat-salads-and-wraps-napa", "name": "Phat Salads and Wraps", "image_url": "https://s3-media2.fl.yelpcdn.com/bphoto/FbrUwtrVIx2cLXiPdBhHkw/o.jpg", "is_closed": false, "url": "https://www.yelp.com/biz/phat-salads-and-wraps-napa?adjust_creative=IokN4du3-7NwKcCaUms5LA&utm_campaign=yelp_api_v3&utm_medium=api_v3_business_search&utm_source=IokN4du3-7NwKcCaUms5LA", "review_count": 48, "categories": [{"alias": "foodtrucks", "title": "Food Trucks"}, {"alias": "wraps", "title": "Wraps"}], "rating": 4.0, "coordinates": {"latitude": 38.3234491, "longitude": -122.3023962}, "transactions": [], "price": "$", "location": {"address1": "", "address2": "", "address3": "", "city": "Napa", "zip_code": "94558", "country": "US", "state": "CA", "display_address": ["Napa, CA 94558"]}, "phone": "+17073639658", "display_phone": "(707) 363-9658", "distance": 34279.926860079744}, {"id": "O_FLRoDZnPU755B_AbHGWg", "alias": "papa-murphys-novato", "name": "Papa Murphy's", "image_url": "https://s3-media3.fl.yelpcdn.com/bphoto/ZB5qldKFTHlLaO3bLnii0w/o.jpg", "is_closed": false, "url": "https://www.yelp.com/biz/papa-murphys-novato?adjust_creative=IokN4du3-7NwKcCaUms5LA&utm_campaign=yelp_api_v3&utm_medium=api_v3_business_search&utm_source=IokN4du3-7NwKcCaUms5LA", "review_count": 33, "categories": [{"alias": "pizza", "title": "Pizza"}], "rating": 3.0, "coordinates": {"latitude": 38.1024809120147, "longitude": -122.57163289587}, "transactions": [], "price": "$", "location": {"address1": "922 Diablo Avenue", "address2": "Suite B", "address3": "", "city": "Novato", "zip_code": "94947", "country": "US", "state": "CA", "display_address": ["922 Diablo Avenue", "Suite B", "Novato, CA 94947"]}, "phone": "+14158926999", "display_phone": "(415) 892-6999", "distance": 1399.5644749418104}, {"id": "KATUSLvWvAuAx0Wa4fbuTQ", "alias": "jack-in-the-box-novato-2", "name": "Jack in the Box", "image_url": "https://s3-media2.fl.yelpcdn.com/bphoto/4JusDqFSu-F5nWdbt8cHrA/o.jpg", "is_closed": false, "url": "https://www.yelp.com/biz/jack-in-the-box-novato-2?adjust_creative=IokN4du3-7NwKcCaUms5LA&utm_campaign=yelp_api_v3&utm_medium=api_v3_business_search&utm_source=IokN4du3-7NwKcCaUms5LA", "review_count": 26, "categories": [{"alias": "hotdogs", "title": "Fast Food"}, {"alias": "burgers", "title": "Burgers"}, {"alias": "tacos", "title": "Tacos"}], "rating": 2.5, "coordinates": {"latitude": 38.0662676554811, "longitude": -122.539441287518}, "transactions": [], "price": "$", "location": {"address1": "301 Enfrente Rd", "address2": "", "address3": "", "city": "Novato", "zip_code": "94949", "country": "US", "state": "CA", "display_address": ["301 Enfrente Rd", "Novato, CA 94949"]}, "phone": "+14158838196", "display_phone": "(415) 883-8196", "distance": 3515.7175987930104}, {"id": "Z30DmZtMWrRXFV38ky7wnw", "alias": "tortillas-die-la-tierra-novato", "name": "Tortillas die la Tierra", "image_url": "", "is_closed": false, "url": "https://www.yelp.com/biz/tortillas-die-la-tierra-novato?adjust_creative=IokN4du3-7NwKcCaUms5LA&utm_campaign=yelp_api_v3&utm_medium=api_v3_business_search&utm_source=IokN4du3-7NwKcCaUms5LA", "review_count": 1, "categories": [{"alias": "gourmet", "title": "Specialty Food"}, {"alias": "foodstands", "title": "Food Stands"}], "rating": 4.0, "coordinates": {"latitude": 38.1096496582031, "longitude": -122.572769165039}, "transactions": [], "location": {"address1": "", "address2": "", "address3": null, "city": "Novato", "zip_code": "94945", "country": "US", "state": "CA", "display_address": ["Novato, CA 94945"]}, "phone": "+14153281115", "display_phone": "(415) 328-1115", "distance": 3480.840908121134}, {"id": "NkILApm5_X3D9n7utbRGcw", "alias": "taco-bell-novato-2", "name": "Taco Bell", "image_url": "https://s3-media3.fl.yelpcdn.com/bphoto/YftcO_LOTcwKTm1ieI83sQ/o.jpg", "is_closed": false, "url": "https://www.yelp.com/biz/taco-bell-novato-2?adjust_creative=IokN4du3-7NwKcCaUms5LA&utm_campaign=yelp_api_v3&utm_medium=api_v3_business_search&utm_source=IokN4du3-7NwKcCaUms5LA", "review_count": 25, "categories": [{"alias": "hotdogs", "title": "Fast Food"}, {"alias": "tacos", "title": "Tacos"}], "rating": 2.0, "coordinates": {"latitude": 38.106326, "longitude": -122.578808}, "transactions": ["delivery"], "price": "$", "location": {"address1": "930 Seventh Street", "address2": null, "address3": null, "city": "Novato", "zip_code": "94945", "country": "US", "state": "CA", "display_address": ["930 Seventh Street", "Novato, CA 94945"]}, "phone": "+14158780230", "display_phone": "(415) 878-0230", "distance": 2131.6632309093256}, {"id": "hQZefV1AaldklJd8GxJb8w", "alias": "ignacio-wine-and-deli-novato-3", "name": "Ignacio Wine & Deli", "image_url": "https://s3-media3.fl.yelpcdn.com/bphoto/RkIFo8Q1v7dycqh_axauuQ/o.jpg", "is_closed": false, "url": "https://www.yelp.com/biz/ignacio-wine-and-deli-novato-3?adjust_creative=IokN4du3-7NwKcCaUms5LA&utm_campaign=yelp_api_v3&utm_medium=api_v3_business_search&utm_source=IokN4du3-7NwKcCaUms5LA", "review_count": 2, "categories": [{"alias": "beer_and_wine", "title": "Beer, Wine & Spirits"}, {"alias": "delis", "title": "Delis"}], "rating": 3.0, "coordinates": {"latitude": 38.065528, "longitude": -122.539754}, "transactions": [], "location": {"address1": "532 Alameda Del Prado", "address2": "", "address3": "", "city": "Novato", "zip_code": "94949", "country": "US", "state": "CA", "display_address": ["532 Alameda Del Prado", "Novato, CA 94949"]}, "phone": "+14158837347", "display_phone": "(415) 883-7347", "distance": 3568.853012231583}, {"id": "uuouQQIFQ1B9mkmcxaAKFA", "alias": "tacos-el-rey-oakland", "name": "Tacos El Rey", "image_url": "https://s3-media2.fl.yelpcdn.com/bphoto/DblyFrtT9uyPCQAUfPbYbQ/o.jpg", "is_closed": false, "url": "https://www.yelp.com/biz/tacos-el-rey-oakland?adjust_creative=IokN4du3-7NwKcCaUms5LA&utm_campaign=yelp_api_v3&utm_medium=api_v3_business_search&utm_source=IokN4du3-7NwKcCaUms5LA", "review_count": 9, "categories": [{"alias": "foodtrucks", "title": "Food Trucks"}, {"alias": "mexican", "title": "Mexican"}], "rating": 4.0, "coordinates": {"latitude": 37.8294034, "longitude": -122.2875758}, "transactions": [], "price": "$", "location": {"address1": "40th & Horton", "address2": "", "address3": null, "city": "Oakland", "zip_code": "94608", "country": "US", "state": "CA", "display_address": ["40th & Horton", "Oakland, CA 94608"]}, "phone": "+15108130232", "display_phone": "(510) 813-0232", "distance": 37871.798215236944}, {"id": "c4iSz3w9e9yCRrj5omg5yQ", "alias": "subway-restaurants-novato", "name": "Subway Restaurants", "image_url": "https://s3-media3.fl.yelpcdn.com/bphoto/rHnRoGFGdAWeOQiIKF9sHA/o.jpg", "is_closed": false, "url": "https://www.yelp.com/biz/subway-restaurants-novato?adjust_creative=IokN4du3-7NwKcCaUms5LA&utm_campaign=yelp_api_v3&utm_medium=api_v3_business_search&utm_source=IokN4du3-7NwKcCaUms5LA", "review_count": 24, "categories": [{"alias": "sandwiches", "title": "Sandwiches"}], "rating": 2.0, "coordinates": {"latitude": 38.067547, "longitude": -122.543388769788}, "transactions": [], "price": "$", "location": {"address1": "476 Ignacio Blvd", "address2": "", "address3": "", "city": "Novato", "zip_code": "94949", "country": "US", "state": "CA", "display_address": ["476 Ignacio Blvd", "Novato, CA 94949"]}, "phone": "+14153820469", "display_phone": "(415) 382-0469", "distance": 3209.873078183421}, {"id": "XTJJ_PUQoJKIh31ZIzsFzw", "alias": "cochinita-food-truck-san-francisco-6", "name": "Cochinita Food Truck", "image_url": "https://s3-media2.fl.yelpcdn.com/bphoto/w77SOd2jVJjOh1lwuYQ42w/o.jpg", "is_closed": false, "url": "https://www.yelp.com/biz/cochinita-food-truck-san-francisco-6?adjust_creative=IokN4du3-7NwKcCaUms5LA&utm_campaign=yelp_api_v3&utm_medium=api_v3_business_search&utm_source=IokN4du3-7NwKcCaUms5LA", "review_count": 49, "categories": [{"alias": "foodtrucks", "title": "Food Trucks"}, {"alias": "mexican", "title": "Mexican"}], "rating": 4.5, "coordinates": {"latitude": 37.770753, "longitude": -122.3916722}, "transactions": [], "price": "$", "location": {"address1": "601 Mission Blvd N", "address2": null, "address3": "", "city": "San Francisco", "zip_code": "94103", "country": "US", "state": "CA", "display_address": ["601 Mission Blvd N", "San Francisco, CA 94103"]}, "phone": "+14159883663", "display_phone": "(415) 988-3663", "distance": 38760.52058670622}, {"id": "iGpWhfNFNUBUUqGBKT7N5w", "alias": "mamas-african-kitchen-novato", "name": "Mama's African Kitchen", "image_url": "", "is_closed": false, "url": "https://www.yelp.com/biz/mamas-african-kitchen-novato?adjust_creative=IokN4du3-7NwKcCaUms5LA&utm_campaign=yelp_api_v3&utm_medium=api_v3_business_search&utm_source=IokN4du3-7NwKcCaUms5LA", "review_count": 1, "categories": [{"alias": "farmersmarket", "title": "Farmers Market"}, {"alias": "african", "title": "African"}], "rating": 3.0, "coordinates": {"latitude": 38.10607, "longitude": -122.56789}, "transactions": [], "location": {"address1": "", "address2": "", "address3": "", "city": "Novato", "zip_code": "", "country": "US", "state": "CA", "display_address": ["Novato, CA"]}, "phone": "+14153024079", "display_phone": "(415) 302-4079", "distance": 1800.4990615923691}, {"id": "Wp7XgkdLMdfgzBG8shAAvQ", "alias": "little-caesars-pizza-pizza-novato", "name": "Little Caesars Pizza Pizza", "image_url": "https://s3-media1.fl.yelpcdn.com/bphoto/7mqKq6kWkKqNV5fGYAfjIA/o.jpg", "is_closed": false, "url": "https://www.yelp.com/biz/little-caesars-pizza-pizza-novato?adjust_creative=IokN4du3-7NwKcCaUms5LA&utm_campaign=yelp_api_v3&utm_medium=api_v3_business_search&utm_source=IokN4du3-7NwKcCaUms5LA", "review_count": 15, "categories": [{"alias": "pizza", "title": "Pizza"}], "rating": 2.0, "coordinates": {"latitude": 38.10748, "longitude": -122.57755}, "transactions": [], "price": "$", "location": {"address1": "936 7th St", "address2": "Ste M", "address3": "", "city": "Novato", "zip_code": "94945", "country": "US", "state": "CA", "display_address": ["936 7th St", "Ste M", "Novato, CA 94945"]}, "phone": "+14158991111", "display_phone": "(415) 899-1111", "distance": 2153.462979972246}, {"id": "aWrLmSL7SliuVRWDWnChDA", "alias": "subway-restaurants-novato-3", "name": "Subway Restaurants", "image_url": "https://s3-media1.fl.yelpcdn.com/bphoto/setJFjqQYItV0BWVGCXsrA/o.jpg", "is_closed": false, "url": "https://www.yelp.com/biz/subway-restaurants-novato-3?adjust_creative=IokN4du3-7NwKcCaUms5LA&utm_campaign=yelp_api_v3&utm_medium=api_v3_business_search&utm_source=IokN4du3-7NwKcCaUms5LA", "review_count": 27, "categories": [{"alias": "sandwiches", "title": "Sandwiches"}], "rating": 1.5, "coordinates": {"latitude": 38.1018766627581, "longitude": -122.57043993303}, "transactions": [], "price": "$", "location": {"address1": "934 Diablo Ave", "address2": "", "address3": "", "city": "Novato", "zip_code": "94945", "country": "US", "state": "CA", "display_address": ["934 Diablo Ave", "Novato, CA 94945"]}, "phone": "+14158985414", "display_phone": "(415) 898-5414", "distance": 1284.1534477836112}, {"id": "p0pxZ_ozC7iI-Tk_dK9dZg", "alias": "tucker-box-poolside-cafe-novato", "name": "Tucker Box Poolside Cafe", "image_url": "https://s3-media3.fl.yelpcdn.com/bphoto/FOHN1Wz-he-eC5JM9WjZhQ/o.jpg", "is_closed": false, "url": "https://www.yelp.com/biz/tucker-box-poolside-cafe-novato?adjust_creative=IokN4du3-7NwKcCaUms5LA&utm_campaign=yelp_api_v3&utm_medium=api_v3_business_search&utm_source=IokN4du3-7NwKcCaUms5LA", "review_count": 1, "categories": [{"alias": "cafes", "title": "Cafes"}], "rating": 1.0, "coordinates": {"latitude": 38.1251088779253, "longitude": -122.60384246707}, "transactions": [], "price": "$", "location": {"address1": "351 San Andreas Dr", "address2": "", "address3": null, "city": "Novato", "zip_code": "94945", "country": "US", "state": "CA", "display_address": ["351 San Andreas Dr", "Novato, CA 94945"]}, "phone": "", "display_phone": "", "distance": 5156.2220907227575}, {"id": "AcRuCSosqCgWFwD8gL6n3w", "alias": "jack-in-the-box-novato", "name": "Jack in the Box", "image_url": "https://s3-media3.fl.yelpcdn.com/bphoto/twe6BzjPqQdx306EldqhJQ/o.jpg", "is_closed": false, "url": "https://www.yelp.com/biz/jack-in-the-box-novato?adjust_creative=IokN4du3-7NwKcCaUms5LA&utm_campaign=yelp_api_v3&utm_medium=api_v3_business_search&utm_source=IokN4du3-7NwKcCaUms5LA", "review_count": 25, "categories": [{"alias": "hotdogs", "title": "Fast Food"}, {"alias": "burgers", "title": "Burgers"}, {"alias": "tacos", "title": "Tacos"}], "rating": 2.0, "coordinates": {"latitude": 38.1012976170279, "longitude": -122.569578588009}, "transactions": [], "price": "$", "location": {"address1": "7135 Redwood Blvd", "address2": "", "address3": "", "city": "Novato", "zip_code": "94945", "country": "US", "state": "CA", "display_address": ["7135 Redwood Blvd", "Novato, CA 94945"]}, "phone": "+14158780465", "display_phone": "(415) 878-0465", "distance": 1188.620412328506}, {"id": "soYhmH3-s1D-xjDSNTaCUg", "alias": "java-grill-novato", "name": "Java Grill", "image_url": "", "is_closed": false, "url": "https://www.yelp.com/biz/java-grill-novato?adjust_creative=IokN4du3-7NwKcCaUms5LA&utm_campaign=yelp_api_v3&utm_medium=api_v3_business_search&utm_source=IokN4du3-7NwKcCaUms5LA", "review_count": 3, "categories": [{"alias": "tradamerican", "title": "American (Traditional)"}, {"alias": "wraps", "title": "Wraps"}], "rating": 2.0, "coordinates": {"latitude": 38.0663692, "longitude": -122.5423848}, "transactions": [], "price": "$", "location": {"address1": "412 Ignacio Blvd", "address2": "", "address3": "", "city": "Novato", "zip_code": "94949", "country": "US", "state": "CA", "display_address": ["412 Ignacio Blvd", "Novato, CA 94949"]}, "phone": "+14158839733", "display_phone": "(415) 883-9733", "distance": 3342.999809565216}, {"id": "rghwdGIvElZAtuoHt-ikUw", "alias": "subway-restaurants-novato-2", "name": "Subway Restaurants", "image_url": "https://s3-media4.fl.yelpcdn.com/bphoto/9NW4qoIZSM218uuteGYg_g/o.jpg", "is_closed": false, "url": "https://www.yelp.com/biz/subway-restaurants-novato-2?adjust_creative=IokN4du3-7NwKcCaUms5LA&utm_campaign=yelp_api_v3&utm_medium=api_v3_business_search&utm_source=IokN4du3-7NwKcCaUms5LA", "review_count": 13, "categories": [{"alias": "sandwiches", "title": "Sandwiches"}], "rating": 1.5, "coordinates": {"latitude": 38.1226203549029, "longitude": -122.603927537469}, "transactions": ["delivery", "pickup"], "price": "$", "location": {"address1": "111 San Marin Drive", "address2": null, "address3": null, "city": "Novato", "zip_code": "94945", "country": "US", "state": "CA", "display_address": ["111 San Marin Drive", "Novato, CA 94945"]}, "phone": "+14158991886", "display_phone": "(415) 899-1886", "distance": 4970.266436555994}, {"id": "8SNGFcMWZkvS4GWDUL8w1Q", "alias": "noon-o-kabob-san-jose-4", "name": "Noon O Kabob", "image_url": "https://s3-media2.fl.yelpcdn.com/bphoto/5GmY5FRw0m0XEWC5XXbVlA/o.jpg", "is_closed": false, "url": "https://www.yelp.com/biz/noon-o-kabob-san-jose-4?adjust_creative=IokN4du3-7NwKcCaUms5LA&utm_campaign=yelp_api_v3&utm_medium=api_v3_business_search&utm_source=IokN4du3-7NwKcCaUms5LA", "review_count": 29, "categories": [{"alias": "foodtrucks", "title": "Food Trucks"}, {"alias": "kebab", "title": "Kebab"}, {"alias": "persian", "title": "Persian/Iranian"}], "rating": 4.5, "coordinates": {"latitude": 37.3940232, "longitude": -122.0288052}, "transactions": [], "price": "$$", "location": {"address1": null, "address2": null, "address3": null, "city": "San Jose", "zip_code": "95101", "country": "US", "state": "CA", "display_address": ["San Jose, CA 95101"]}, "phone": "+14083346777", "display_phone": "(408) 334-6777", "distance": 90712.47649521574}, {"id": "C9uewBH5505NV0EWYBIJAA", "alias": "lady-and-l-aperitivo-san-jose", "name": "Lady & L'Aperitivo", "image_url": "https://s3-media4.fl.yelpcdn.com/bphoto/3nz0sRE9MlOq_4xVRQRt9w/o.jpg", "is_closed": false, "url": "https://www.yelp.com/biz/lady-and-l-aperitivo-san-jose?adjust_creative=IokN4du3-7NwKcCaUms5LA&utm_campaign=yelp_api_v3&utm_medium=api_v3_business_search&utm_source=IokN4du3-7NwKcCaUms5LA", "review_count": 1, "categories": [{"alias": "bakeries", "title": "Bakeries"}, {"alias": "desserts", "title": "Desserts"}, {"alias": "cheesesteaks", "title": "Cheesesteaks"}], "rating": 5.0, "coordinates": {"latitude": 37.2208938598633, "longitude": -121.861633300781}, "transactions": [], "location": {"address1": null, "address2": null, "address3": "", "city": "San Jose", "zip_code": "95120", "country": "US", "state": "CA", "display_address": ["San Jose, CA 95120"]}, "phone": "", "display_phone": "", "distance": 120478.20390579956}, {"id": "22KzWfCP7jt9tOl6Gl17LQ", "alias": "mai-thai-kitchen-las-vegas", "name": "Mai Thai Kitchen", "image_url": "https://s3-media1.fl.yelpcdn.com/bphoto/t1Zp5dvdlEzcNrgITCLZkw/o.jpg", "is_closed": false, "url": "https://www.yelp.com/biz/mai-thai-kitchen-las-vegas?adjust_creative=IokN4du3-7NwKcCaUms5LA&utm_campaign=yelp_api_v3&utm_medium=api_v3_business_search&utm_source=IokN4du3-7NwKcCaUms5LA", "review_count": 9, "categories": [{"alias": "foodtrucks", "title": "Food Trucks"}, {"alias": "thai", "title": "Thai"}, {"alias": "catering", "title": "Caterers"}], "rating": 3.5, "coordinates": {"latitude": 36.1067341598394, "longitude": -115.040667839348}, "transactions": [], "price": "$$$$", "location": {"address1": "", "address2": "", "address3": null, "city": "Las Vegas", "zip_code": "89122", "country": "US", "state": "NV", "display_address": ["Las Vegas, NV 89122"]}, "phone": "+14152591625", "display_phone": "(415) 259-1625", "distance": 702398.234518729}]}