{"location": "Oakley, CA", "term": "restaurant", "radius": 3617, "businesses": [{"id": "ilojhqf64Zxeux_-d2wNAQ", "alias": "bistro-punahele-tonnelier-oakley", "name": "Bistro Punahele Tonnelier", "image_url": "https://s3-media4.fl.yelpcdn.com/bphoto/uW3PjU9R9oS7l-lxSRXvFw/o.jpg", "is_closed": false, "url": "https://www.yelp.com/biz/bistro-punahele-tonnelier-oakley?adjust_creative=IokN4du3-7NwKcCaUms5LA&utm_campaign=yelp_api_v3&utm_medium=api_v3_business_search&utm_source=IokN4du3-7NwKcCaUms5LA", "review_count": 249, "categories": [{"alias": "breakfast_brunch", "title": "Breakfast & Brunch"}, {"alias": "french", "title": "French"}, {"alias": "hawaiian", "title": "Hawaiian"}], "rating": 4.0, "coordinates": {"latitude": 37.99804, "longitude": -121.71343}, "transactions": [], "price": "$$", "location": {"address1": "3530 Main St", "address2": "", "address3": null, "city": "Oakley", "zip_code": "94561", "country": "US", "state": "CA", "display_address": ["3530 Main St", "Oakley, CA 94561"]}, "phone": "+19256268177", "display_phone": "(925) 626-8177", "distance": 859.6691066372481}, {"id": "CImbQX6-1JIr7yTwdEcMSA", "alias": "buon-appetito-oakley", "name": "Buon Appetito", "image_url": "https://s3-media2.fl.yelpcdn.com/bphoto/lIzST1Et-gbvJCd38olQjQ/o.jpg", "is_closed": false, "url": "https://www.yelp.com/biz/buon-appetito-oakley?adjust_creative=IokN4du3-7NwKcCaUms5LA&utm_campaign=yelp_api_v3&utm_medium=api_v3_business_search&utm_source=IokN4du3-7NwKcCaUms5LA", "review_count": 153, "categories": [{"alias": "italian", "title": "Italian"}], "rating": 3.5, "coordinates": {"latitude": 37.99807, "longitude": -121.71853}, "transactions": [], "price": "$$", "location": {"address1": "3070 Main St", "address2": "", "address3": null, "city": "Oakley", "zip_code": "94561", "country": "US", "state": "CA", "display_address": ["3070 Main St", "Oakley, CA 94561"]}, "phone": "+19256265414", "display_phone": "(925) 626-5414", "distance": 1107.313408927215}, {"id": "nw_aT_rWtUGpkZeSA7EIKw", "alias": "7-mares-grill-oakley", "name": "7 Mares Grill", "image_url": "https://s3-media3.fl.yelpcdn.com/bphoto/LYpSsRwQTfFingTVMkNL5Q/o.jpg", "is_closed": false, "url": "https://www.yelp.com/biz/7-mares-grill-oakley?adjust_creative=IokN4du3-7NwKcCaUms5LA&utm_campaign=yelp_api_v3&utm_medium=api_v3_business_search&utm_source=IokN4du3-7NwKcCaUms5LA", "review_count": 157, "categories": [{"alias": "mexican", "title": "Mexican"}, {"alias": "seafood", "title": "Seafood"}], "rating": 4.0, "coordinates": {"latitude": 37.9915166, "longitude": -121.6994316}, "transactions": [], "price": "$$", "location": {"address1": "200 W Cypress Rd", "address2": "", "address3": "", "city": "Oakley", "zip_code": "94561", "country": "US", "state": "CA", "display_address": ["200 W Cypress Rd", "Oakley, CA 94561"]}, "phone": "+19256793795", "display_phone": "(925) 679-3795", "distance": 928.0825754332429}, {"id": "Y1mbz5NBgmLDSXSHRy8llA", "alias": "wence-house-california-cuisine-brentwood", "name": "Wence House California Cuisine", "image_url": "https://s3-media4.fl.yelpcdn.com/bphoto/ULZ9xuFku2GgHbVwvomC4Q/o.jpg", "is_closed": false, "url": "https://www.yelp.com/biz/wence-house-california-cuisine-brentwood?adjust_creative=IokN4du3-7NwKcCaUms5LA&utm_campaign=yelp_api_v3&utm_medium=api_v3_business_search&utm_source=IokN4du3-7NwKcCaUms5LA", "review_count": 288, "categories": [{"alias": "newamerican", "title": "American (New)"}], "rating": 4.0, "coordinates": {"latitude": 37.96237, "longitude": -121.72966}, "transactions": ["pickup", "delivery"], "price": "$$", "location": {"address1": "6670 Lone Tree Way", "address2": "Ste 1-2", "address3": null, "city": "Brentwood", "zip_code": "94513", "country": "US", "state": "CA", "display_address": ["6670 Lone Tree Way", "Ste 1-2", "Brentwood, CA 94513"]}, "phone": "+19254203969", "display_phone": "(925) 420-3969", "distance": 3584.055500787116}, {"id": "JC8c_NEj8G0KqRG6qH1EqQ", "alias": "la-costa-taqueria-oakley", "name": "La Costa Taqueria", "image_url": "https://s3-media2.fl.yelpcdn.com/bphoto/MGmDx-p0BWJwX_IwMHI-ig/o.jpg", "is_closed": false, "url": "https://www.yelp.com/biz/la-costa-taqueria-oakley?adjust_creative=IokN4du3-7NwKcCaUms5LA&utm_campaign=yelp_api_v3&utm_medium=api_v3_business_search&utm_source=IokN4du3-7NwKcCaUms5LA", "review_count": 593, "categories": [{"alias": "mexican", "title": "Mexican"}], "rating": 4.0, "coordinates": {"latitude": 37.998202, "longitude": -121.717928}, "transactions": [], "price": "$", "location": {"address1": "3100 Main St", "address2": "", "address3": "", "city": "Oakley", "zip_code": "94561", "country": "US", "state": "CA", "display_address": ["3100 Main St", "Oakley, CA 94561"]}, "phone": "+19256251515", "display_phone": "(925) 625-1515", "distance": 1154.5718014005922}, {"id": "yKZ_CysaIV4Dg-0_gHMRMw", "alias": "taquiza-limon-oakley", "name": "Taquiza Limon", "image_url": "https://s3-media2.fl.yelpcdn.com/bphoto/4oEzoIKalGiNpsCbOOknvA/o.jpg", "is_closed": false, "url": "https://www.yelp.com/biz/taquiza-limon-oakley?adjust_creative=IokN4du3-7NwKcCaUms5LA&utm_campaign=yelp_api_v3&utm_medium=api_v3_business_search&utm_source=IokN4du3-7NwKcCaUms5LA", "review_count": 181, "categories": [{"alias": "mexican", "title": "Mexican"}], "rating": 4.5, "coordinates": {"latitude": 38.00304, "longitude": -121.73173}, "transactions": [], "price": "$$", "location": {"address1": "2170 Main St", "address2": "Ste F", "address3": "", "city": "Oakley", "zip_code": "94561", "country": "US", "state": "CA", "display_address": ["2170 Main St", "Ste F", "Oakley, CA 94561"]}, "phone": "+19256844102", "display_phone": "(925) 684-4102", "distance": 2337.1759700419966}, {"id": "dinXe_8_GuxAhxqpDe4izg", "alias": "yum-squared-brentwood", "name": "Yum Squared", "image_url": "https://s3-media4.fl.yelpcdn.com/bphoto/gi_m0L8EDjNRDu-ESrkARg/o.jpg", "is_closed": false, "url": "https://www.yelp.com/biz/yum-squared-brentwood?adjust_creative=IokN4du3-7NwKcCaUms5LA&utm_campaign=yelp_api_v3&utm_medium=api_v3_business_search&utm_source=IokN4du3-7NwKcCaUms5LA", "review_count": 386, "categories": [{"alias": "thai", "title": "Thai"}, {"alias": "asianfusion", "title": "Asian Fusion"}], "rating": 4.0, "coordinates": {"latitude": 37.962706, "longitude": -121.729971}, "transactions": ["pickup"], "price": "$$", "location": {"address1": "6670 Lone Tree Way", "address2": "Ste 5", "address3": "", "city": "Brentwood", "zip_code": "94513", "country": "US", "state": "CA", "display_address": ["6670 Lone Tree Way", "Ste 5", "Brentwood, CA 94513"]}, "phone": "+19254184970", "display_phone": "(925) 418-4970", "distance": 3576.128077033361}, {"id": "yvg4ZqYmP3PNdDd7VAB5fg", "alias": "sabrinas-pizzeria-oakley", "name": "Sabrina's Pizzeria", "image_url": "https://s3-media4.fl.yelpcdn.com/bphoto/QZVgEoUgrO2HuicBgpp3PQ/o.jpg", "is_closed": false, "url": "https://www.yelp.com/biz/sabrinas-pizzeria-oakley?adjust_creative=IokN4du3-7NwKcCaUms5LA&utm_campaign=yelp_api_v3&utm_medium=api_v3_business_search&utm_source=IokN4du3-7NwKcCaUms5LA", "review_count": 188, "categories": [{"alias": "pizza", "title": "Pizza"}], "rating": 4.5, "coordinates": {"latitude": 37.997191, "longitude": -121.730071}, "transactions": [], "price": "$$", "location": {"address1": "2587 Main St", "address2": "", "address3": "", "city": "Oakley", "zip_code": "94561", "country": "US", "state": "CA", "display_address": ["2587 Main St", "Oakley, CA 94561"]}, "phone": "+19256252540", "display_phone": "(925) 625-2540", "distance": 1901.3977505629775}, {"id": "cGQGKewdkUy9LYlb0auH6A", "alias": "raleys-oakley", "name": "Raley's", "image_url": "https://s3-media3.fl.yelpcdn.com/bphoto/Oo_Ox159sDhU0G2udjmAAg/o.jpg", "is_closed": false, "url": "https://www.yelp.com/biz/raleys-oakley?adjust_creative=IokN4du3-7NwKcCaUms5LA&utm_campaign=yelp_api_v3&utm_medium=api_v3_business_search&utm_source=IokN4du3-7NwKcCaUms5LA", "review_count": 53, "categories": [{"alias": "grocery", "title": "Grocery"}, {"alias": "beer_and_wine", "title": "Beer, Wine & Spirits"}, {"alias": "delis", "title": "Delis"}], "rating": 3.5, "coordinates": {"latitude": 38.0042651, "longitude": -121.7329546}, "transactions": [], "price": "$$", "location": {"address1": "2077 Main St", "address2": "", "address3": "", "city": "Oakley", "zip_code": "94561", "country": "US", "state": "CA", "display_address": ["2077 Main St", "Oakley, CA 94561"]}, "phone": "+19256250744", "display_phone": "(925) 625-0744", "distance": 2513.1474663967792}, {"id": "dUrOGG60Dc4WIz1KedsU6A", "alias": "tortas-ahogadas-el-tio-oakley", "name": "Tortas Ahogadas El Tio", "image_url": "https://s3-media1.fl.yelpcdn.com/bphoto/EBE2bfOjSlovNgdVe0x0_w/o.jpg", "is_closed": false, "url": "https://www.yelp.com/biz/tortas-ahogadas-el-tio-oakley?adjust_creative=IokN4du3-7NwKcCaUms5LA&utm_campaign=yelp_api_v3&utm_medium=api_v3_business_search&utm_source=IokN4du3-7NwKcCaUms5LA", "review_count": 67, "categories": [{"alias": "mexican", "title": "Mexican"}], "rating": 4.0, "coordinates": {"latitude": 37.9980840261676, "longitude": -121.715129055083}, "transactions": [], "price": "$", "location": {"address1": "3400 Main St", "address2": "", "address3": "", "city": "Oakley", "zip_code": "94561", "country": "US", "state": "CA", "display_address": ["3400 Main St", "Oakley, CA 94561"]}, "phone": "+19256265773", "display_phone": "(925) 626-5773", "distance": 933.1295378969403}, {"id": "t4M3nyoloRLzj3aKYoDZXA", "alias": "melos-pizza-and-pasta-brentwood", "name": "Melo's Pizza & Pasta", "image_url": "https://s3-media2.fl.yelpcdn.com/bphoto/fqUTUwczwEPjKAMvwBD0og/o.jpg", "is_closed": false, "url": "https://www.yelp.com/biz/melos-pizza-and-pasta-brentwood?adjust_creative=IokN4du3-7NwKcCaUms5LA&utm_campaign=yelp_api_v3&utm_medium=api_v3_business_search&utm_source=IokN4du3-7NwKcCaUms5LA", "review_count": 412, "categories": [{"alias": "italian", "title": "Italian"}, {"alias": "pizza", "title": "Pizza"}], "rating": 4.0, "coordinates": {"latitude": 37.962607, "longitude": -121.731442}, "transactions": ["pickup", "delivery"], "price": "$$", "location": {"address1": "6580 Lone Tree Way", "address2": "", "address3": "", "city": "Brentwood", "zip_code": "94513", "country": "US", "state": "CA", "display_address": ["6580 Lone Tree Way", "Brentwood, CA 94513"]}, "phone": "+19256263773", "display_phone": "(925) 626-3773", "distance": 3650.4794796672213}, {"id": "s6mYlACUetrvJf9DElK_Sw", "alias": "t\u00fa-jalisco-mexican-restaurant-oakley", "name": "T\u00fa Jalisco Mexican Restaurant", "image_url": "https://s3-media1.fl.yelpcdn.com/bphoto/Oyo96UeoIHpEXsCkX_o7Yg/o.jpg", "is_closed": false, "url": "https://www.yelp.com/biz/t%C3%BA-jalisco-mexican-restaurant-oakley?adjust_creative=IokN4du3-7NwKcCaUms5LA&utm_campaign=yelp_api_v3&utm_medium=api_v3_business_search&utm_source=IokN4du3-7NwKcCaUms5LA", "review_count": 68, "categories": [{"alias": "mexican", "title": "Mexican"}, {"alias": "seafood", "title": "Seafood"}, {"alias": "breakfast_brunch", "title": "Breakfast & Brunch"}], "rating": 4.0, "coordinates": {"latitude": 37.9952957881433, "longitude": -121.706308534505}, "transactions": [], "price": "$$", "location": {"address1": "3899 Main St", "address2": "", "address3": "", "city": "Oakley", "zip_code": "94561", "country": "US", "state": "CA", "display_address": ["3899 Main St", "Oakley, CA 94561"]}, "phone": "+19252593475", "display_phone": "(925) 259-3475", "distance": 599.9227572938496}, {"id": "ph-GmfT4b1mSs4tKy4HPoQ", "alias": "savor-house-oakley", "name": "Savor House", "image_url": "https://s3-media2.fl.yelpcdn.com/bphoto/j_Q7zW40cBgn1sggaK0sXA/o.jpg", "is_closed": false, "url": "https://www.yelp.com/biz/savor-house-oakley?adjust_creative=IokN4du3-7NwKcCaUms5LA&utm_campaign=yelp_api_v3&utm_medium=api_v3_business_search&utm_source=IokN4du3-7NwKcCaUms5LA", "review_count": 135, "categories": [{"alias": "chinese", "title": "Chinese"}, {"alias": "japanese", "title": "Japanese"}], "rating": 3.5, "coordinates": {"latitude": 37.9965972900391, "longitude": -121.73201751709}, "transactions": [], "price": "$$", "location": {"address1": "2525 Main St", "address2": "", "address3": "", "city": "Oakley", "zip_code": "94561", "country": "US", "state": "CA", "display_address": ["2525 Main St", "Oakley, CA 94561"]}, "phone": "+19256791888", "display_phone": "(925) 679-1888", "distance": 2040.631553005781}, {"id": "You1Aq6qyOGBFhlrwEhrQg", "alias": "providence-bar-and-eatery-oakley", "name": "Providence Bar & Eatery", "image_url": "https://s3-media2.fl.yelpcdn.com/bphoto/2bOCwVs5rOySo7BncRQgWg/o.jpg", "is_closed": false, "url": "https://www.yelp.com/biz/providence-bar-and-eatery-oakley?adjust_creative=IokN4du3-7NwKcCaUms5LA&utm_campaign=yelp_api_v3&utm_medium=api_v3_business_search&utm_source=IokN4du3-7NwKcCaUms5LA", "review_count": 104, "categories": [{"alias": "bars", "title": "Bars"}, {"alias": "tradamerican", "title": "American (Traditional)"}], "rating": 3.5, "coordinates": {"latitude": 38.0036148, "longitude": -121.7327447}, "transactions": [], "price": "$$", "location": {"address1": "2085 Main St", "address2": "", "address3": "", "city": "Oakley", "zip_code": "94561", "country": "US", "state": "CA", "display_address": ["2085 Main St", "Oakley, CA 94561"]}, "phone": "+19256250292", "display_phone": "(925) 625-0292", "distance": 2473.6672247993056}, {"id": "RL_NIvQMrHFb1yNEQjf3HQ", "alias": "silver-river-restaurant-oakley", "name": "Silver River Restaurant", "image_url": "https://s3-media2.fl.yelpcdn.com/bphoto/eYMpAUOZNaZ5zunXGEluhg/o.jpg", "is_closed": false, "url": "https://www.yelp.com/biz/silver-river-restaurant-oakley?adjust_creative=IokN4du3-7NwKcCaUms5LA&utm_campaign=yelp_api_v3&utm_medium=api_v3_business_search&utm_source=IokN4du3-7NwKcCaUms5LA", "review_count": 114, "categories": [{"alias": "chinese", "title": "Chinese"}], "rating": 3.5, "coordinates": {"latitude": 37.998202, "longitude": -121.717928}, "transactions": [], "price": "$", "location": {"address1": "3100 Main St", "address2": "Ste 276", "address3": "", "city": "Oakley", "zip_code": "94561", "country": "US", "state": "CA", "display_address": ["3100 Main St", "Ste 276", "Oakley, CA 94561"]}, "phone": "+19256259783", "display_phone": "(925) 625-9783", "distance": 1154.5718014005922}, {"id": "62XbclzZyQyGN58J7uVf-g", "alias": "2-legit-2-pit-bbq-oakley", "name": "2 LEGIT 2 PIT BBQ", "image_url": "https://s3-media1.fl.yelpcdn.com/bphoto/c4VRNyebeiCpVdaUCRE2Fw/o.jpg", "is_closed": false, "url": "https://www.yelp.com/biz/2-legit-2-pit-bbq-oakley?adjust_creative=IokN4du3-7NwKcCaUms5LA&utm_campaign=yelp_api_v3&utm_medium=api_v3_business_search&utm_source=IokN4du3-7NwKcCaUms5LA", "review_count": 1, "categories": [{"alias": "catering", "title": "Caterers"}, {"alias": "bbq", "title": "Barbeque"}], "rating": 5.0, "coordinates": {"latitude": 37.99404, "longitude": -121.71503}, "transactions": [], "location": {"address1": "", "address2": "", "address3": null, "city": "Oakley", "zip_code": "94561", "country": "US", "state": "CA", "display_address": ["Oakley, CA 94561"]}, "phone": "+16502747063", "display_phone": "(650) 274-7063", "distance": 774.0455535175059}, {"id": "xLV9Mv75gzmdCNSdeM3-Xw", "alias": "shirasoni-japanese-steakhouse-brentwood", "name": "Shirasoni Japanese Steakhouse", "image_url": "https://s3-media2.fl.yelpcdn.com/bphoto/qYwtqGKQAB5mDzTlmSuF8w/o.jpg", "is_closed": false, "url": "https://www.yelp.com/biz/shirasoni-japanese-steakhouse-brentwood?adjust_creative=IokN4du3-7NwKcCaUms5LA&utm_campaign=yelp_api_v3&utm_medium=api_v3_business_search&utm_source=IokN4du3-7NwKcCaUms5LA", "review_count": 1029, "categories": [{"alias": "japanese", "title": "Japanese"}, {"alias": "sushi", "title": "Sushi Bars"}], "rating": 3.5, "coordinates": {"latitude": 37.96107, "longitude": -121.73432}, "transactions": [], "price": "$$", "location": {"address1": "6367 Lone Tree Way", "address2": "Ste B", "address3": "", "city": "Brentwood", "zip_code": "94513", "country": "US", "state": "CA", "display_address": ["6367 Lone Tree Way", "Ste B", "Brentwood, CA 94513"]}, "phone": "+19252407808", "display_phone": "(925) 240-7808", "distance": 3996.7747299039625}, {"id": "KwR1HvGE_8Y4Q0xGwuVSpA", "alias": "los-charros-oakley-4", "name": "Los Charros", "image_url": "https://s3-media3.fl.yelpcdn.com/bphoto/yMaKCQUJ09f9IAxpmWzwHg/o.jpg", "is_closed": false, "url": "https://www.yelp.com/biz/los-charros-oakley-4?adjust_creative=IokN4du3-7NwKcCaUms5LA&utm_campaign=yelp_api_v3&utm_medium=api_v3_business_search&utm_source=IokN4du3-7NwKcCaUms5LA", "review_count": 115, "categories": [{"alias": "mexican", "title": "Mexican"}], "rating": 4.0, "coordinates": {"latitude": 37.9976961, "longitude": -121.7300731}, "transactions": [], "price": "$", "location": {"address1": "2579 Main St", "address2": "", "address3": null, "city": "Oakley", "zip_code": "94561", "country": "US", "state": "CA", "display_address": ["2579 Main St", "Oakley, CA 94561"]}, "phone": "+19256798400", "display_phone": "(925) 679-8400", "distance": 1951.9766307388995}, {"id": "9t5sP2l5NNCaWUwxTzPhjQ", "alias": "black-bear-diner-oakley", "name": "Black Bear Diner", "image_url": "https://s3-media3.fl.yelpcdn.com/bphoto/4tG0zAS8ArK0f25Nm99I6g/o.jpg", "is_closed": false, "url": "https://www.yelp.com/biz/black-bear-diner-oakley?adjust_creative=IokN4du3-7NwKcCaUms5LA&utm_campaign=yelp_api_v3&utm_medium=api_v3_business_search&utm_source=IokN4du3-7NwKcCaUms5LA", "review_count": 366, "categories": [{"alias": "diners", "title": "Diners"}, {"alias": "breakfast_brunch", "title": "Breakfast & Brunch"}, {"alias": "burgers", "title": "Burgers"}], "rating": 3.5, "coordinates": {"latitude": 37.9973719646826, "longitude": -121.718982647024}, "transactions": [], "price": "$$", "location": {"address1": "3201 Main St", "address2": "", "address3": "", "city": "Oakley", "zip_code": "94561", "country": "US", "state": "CA", "display_address": ["3201 Main St", "Oakley, CA 94561"]}, "phone": "+19256253555", "display_phone": "(925) 625-3555", "distance": 1080.1324322720723}, {"id": "OVGVsFWWfe4DUj7xooX_7A", "alias": "pias-wood-fired-pizza-oakley", "name": "Pia's Wood Fired Pizza", "image_url": "https://s3-media2.fl.yelpcdn.com/bphoto/Wrc99EWQczuprx4YDw_ofQ/o.jpg", "is_closed": false, "url": "https://www.yelp.com/biz/pias-wood-fired-pizza-oakley?adjust_creative=IokN4du3-7NwKcCaUms5LA&utm_campaign=yelp_api_v3&utm_medium=api_v3_business_search&utm_source=IokN4du3-7NwKcCaUms5LA", "review_count": 16, "categories": [{"alias": "pizza", "title": "Pizza"}, {"alias": "foodtrucks", "title": "Food Trucks"}], "rating": 4.5, "coordinates": {"latitude": 37.99404, "longitude": -121.71503}, "transactions": [], "location": {"address1": "", "address2": "", "address3": null, "city": "Oakley", "zip_code": "94561", "country": "US", "state": "CA", "display_address": ["Oakley, CA 94561"]}, "phone": "+19254281345", "display_phone": "(925) 428-1345", "distance": 774.0455535175059}, {"id": "J_5hbVfRj5f_C-q1E_ZESQ", "alias": "chicagos-pizza-with-a-twist-brentwood", "name": "Chicago's Pizza With A Twist", "image_url": "https://s3-media3.fl.yelpcdn.com/bphoto/MfpM8ry6_WfOw1MnL0cp9A/o.jpg", "is_closed": false, "url": "https://www.yelp.com/biz/chicagos-pizza-with-a-twist-brentwood?adjust_creative=IokN4du3-7NwKcCaUms5LA&utm_campaign=yelp_api_v3&utm_medium=api_v3_business_search&utm_source=IokN4du3-7NwKcCaUms5LA", "review_count": 145, "categories": [{"alias": "pizza", "title": "Pizza"}, {"alias": "gluten_free", "title": "Gluten-Free"}, {"alias": "vegan", "title": "Vegan"}], "rating": 4.0, "coordinates": {"latitude": 37.95913, "longitude": -121.69542}, "transactions": ["pickup", "delivery"], "price": "$$", "location": {"address1": "6700 Brentwood Blvd", "address2": "", "address3": null, "city": "Brentwood", "zip_code": "94513", "country": "US", "state": "CA", "display_address": ["6700 Brentwood Blvd", "Brentwood, CA 94513"]}, "phone": "+19255167600", "display_phone": "(925) 516-7600", "distance": 3724.0265178036875}, {"id": "SX7OgQBsjsNqihOm7Y-27Q", "alias": "uncle-wong-chinese-restaurant-oakley", "name": "Uncle Wong Chinese Restaurant", "image_url": "https://s3-media4.fl.yelpcdn.com/bphoto/Ky0hPMc0WSyyzV05PlWLow/o.jpg", "is_closed": false, "url": "https://www.yelp.com/biz/uncle-wong-chinese-restaurant-oakley?adjust_creative=IokN4du3-7NwKcCaUms5LA&utm_campaign=yelp_api_v3&utm_medium=api_v3_business_search&utm_source=IokN4du3-7NwKcCaUms5LA", "review_count": 120, "categories": [{"alias": "chinese", "title": "Chinese"}], "rating": 3.5, "coordinates": {"latitude": 38.00323, "longitude": -121.73367}, "transactions": ["pickup", "delivery"], "price": "$", "location": {"address1": "2005 Main St", "address2": "Unit B", "address3": "", "city": "Oakley", "zip_code": "94561", "country": "US", "state": "CA", "display_address": ["2005 Main St", "Unit B", "Oakley, CA 94561"]}, "phone": "+19256250607", "display_phone": "(925) 625-0607", "distance": 2637.984087136041}, {"id": "whZo0QSwTO5GB_LJhmzOOA", "alias": "popeyes-louisiana-kitchen-oakley", "name": "Popeyes Louisiana Kitchen", "image_url": "https://s3-media1.fl.yelpcdn.com/bphoto/4maBtq4KQmYp3NU5b8P23w/o.jpg", "is_closed": false, "url": "https://www.yelp.com/biz/popeyes-louisiana-kitchen-oakley?adjust_creative=IokN4du3-7NwKcCaUms5LA&utm_campaign=yelp_api_v3&utm_medium=api_v3_business_search&utm_source=IokN4du3-7NwKcCaUms5LA", "review_count": 155, "categories": [{"alias": "hotdogs", "title": "Fast Food"}, {"alias": "chicken_wings", "title": "Chicken Wings"}], "rating": 1.5, "coordinates": {"latitude": 38.001766, "longitude": -121.73181}, "transactions": ["pickup", "delivery"], "price": "$", "location": {"address1": "101 Carol Ln", "address2": "", "address3": null, "city": "Oakley", "zip_code": "94561", "country": "US", "state": "CA", "display_address": ["101 Carol Ln", "Oakley, CA 94561"]}, "phone": "+19254206433", "display_phone": "(925) 420-6433", "distance": 2272.353500780586}, {"id": "s4qNUJl2-tEuEsCpQzK-QQ", "alias": "lumpys-diner-antioch", "name": "Lumpy's Diner", "image_url": "https://s3-media1.fl.yelpcdn.com/bphoto/rqHzJJKazs5_TBfu2z6wfA/o.jpg", "is_closed": false, "url": "https://www.yelp.com/biz/lumpys-diner-antioch?adjust_creative=IokN4du3-7NwKcCaUms5LA&utm_campaign=yelp_api_v3&utm_medium=api_v3_business_search&utm_source=IokN4du3-7NwKcCaUms5LA", "review_count": 629, "categories": [{"alias": "diners", "title": "Diners"}, {"alias": "burgers", "title": "Burgers"}, {"alias": "breakfast_brunch", "title": "Breakfast & Brunch"}], "rating": 4.0, "coordinates": {"latitude": 37.9625344112063, "longitude": -121.733039740349}, "transactions": ["pickup", "delivery"], "price": "$$", "location": {"address1": "5891 Lone Tree Way", "address2": "Ste A", "address3": "", "city": "Antioch", "zip_code": "94531", "country": "US", "state": "CA", "display_address": ["5891 Lone Tree Way", "Ste A", "Antioch, CA 94531"]}, "phone": "+19257785867", "display_phone": "(925) 778-5867", "distance": 3731.3750003865343}, {"id": "A_yz2UAmkuTsDN_T02WjsA", "alias": "mr-pickles-sandwich-shop-oakley", "name": "Mr. Pickle's Sandwich Shop", "image_url": "https://s3-media2.fl.yelpcdn.com/bphoto/vmTLw67wLo-EKvr0T_nE8Q/o.jpg", "is_closed": false, "url": "https://www.yelp.com/biz/mr-pickles-sandwich-shop-oakley?adjust_creative=IokN4du3-7NwKcCaUms5LA&utm_campaign=yelp_api_v3&utm_medium=api_v3_business_search&utm_source=IokN4du3-7NwKcCaUms5LA", "review_count": 66, "categories": [{"alias": "sandwiches", "title": "Sandwiches"}, {"alias": "salad", "title": "Salad"}, {"alias": "soup", "title": "Soup"}], "rating": 3.5, "coordinates": {"latitude": 37.9979449, "longitude": -121.7185741}, "transactions": [], "price": "$", "location": {"address1": "3080 Main St", "address2": "", "address3": "", "city": "Oakley", "zip_code": "94561", "country": "US", "state": "CA", "display_address": ["3080 Main St", "Oakley, CA 94561"]}, "phone": "+19256844060", "display_phone": "(925) 684-4060", "distance": 1092.4417025670257}, {"id": "GhOWp_eSYvHuqQ2AK0qKJw", "alias": "tao-san-jin-antioch-2", "name": "Tao San Jin", "image_url": "https://s3-media2.fl.yelpcdn.com/bphoto/eZzQeMds0cI2Wv9DVPubhg/o.jpg", "is_closed": false, "url": "https://www.yelp.com/biz/tao-san-jin-antioch-2?adjust_creative=IokN4du3-7NwKcCaUms5LA&utm_campaign=yelp_api_v3&utm_medium=api_v3_business_search&utm_source=IokN4du3-7NwKcCaUms5LA", "review_count": 245, "categories": [{"alias": "chinese", "title": "Chinese"}], "rating": 3.0, "coordinates": {"latitude": 37.96301, "longitude": -121.73437}, "transactions": [], "price": "$$", "location": {"address1": "5867 Lone Tree Way", "address2": "", "address3": "", "city": "Antioch", "zip_code": "94531", "country": "US", "state": "CA", "display_address": ["5867 Lone Tree Way", "Antioch, CA 94531"]}, "phone": "+19257771883", "display_phone": "(925) 777-1883", "distance": 3762.501262335161}, {"id": "0eBXBnDDEyFAwmqWPYs-rQ", "alias": "buffalo-wild-wings-brentwood", "name": "Buffalo Wild Wings", "image_url": "https://s3-media1.fl.yelpcdn.com/bphoto/IW1snYh0w6AQ0U2T_9yUYw/o.jpg", "is_closed": false, "url": "https://www.yelp.com/biz/buffalo-wild-wings-brentwood?adjust_creative=IokN4du3-7NwKcCaUms5LA&utm_campaign=yelp_api_v3&utm_medium=api_v3_business_search&utm_source=IokN4du3-7NwKcCaUms5LA", "review_count": 452, "categories": [{"alias": "chicken_wings", "title": "Chicken Wings"}, {"alias": "tradamerican", "title": "American (Traditional)"}, {"alias": "sportsbars", "title": "Sports Bars"}], "rating": 2.5, "coordinates": {"latitude": 37.9611680404803, "longitude": -121.739319562912}, "transactions": ["delivery"], "price": "$$", "location": {"address1": "6051 Lone Tree Way", "address2": "", "address3": "", "city": "Brentwood", "zip_code": "94513", "country": "US", "state": "CA", "display_address": ["6051 Lone Tree Way", "Brentwood, CA 94513"]}, "phone": "+19252407481", "display_phone": "(925) 240-7481", "distance": 4174.660705902469}, {"id": "DGFKJeeNsDUjl3cxKLcy_w", "alias": "india-4-u-antioch-2", "name": "India 4 U", "image_url": "https://s3-media1.fl.yelpcdn.com/bphoto/CRfT3w3k2IVsLD1_lzcLKA/o.jpg", "is_closed": false, "url": "https://www.yelp.com/biz/india-4-u-antioch-2?adjust_creative=IokN4du3-7NwKcCaUms5LA&utm_campaign=yelp_api_v3&utm_medium=api_v3_business_search&utm_source=IokN4du3-7NwKcCaUms5LA", "review_count": 395, "categories": [{"alias": "indpak", "title": "Indian"}, {"alias": "bars", "title": "Bars"}], "rating": 3.5, "coordinates": {"latitude": 37.96407, "longitude": -121.73904}, "transactions": ["pickup"], "price": "$$", "location": {"address1": "5759 Lone Tree Way", "address2": "", "address3": "", "city": "Antioch", "zip_code": "94531", "country": "US", "state": "CA", "display_address": ["5759 Lone Tree Way", "Antioch, CA 94531"]}, "phone": "+19257577475", "display_phone": "(925) 757-7475", "distance": 3909.485905975995}, {"id": "ldZh_eofoSzSPBwDrBBCsg", "alias": "round-table-pizza-oakley", "name": "Round Table Pizza", "image_url": "https://s3-media2.fl.yelpcdn.com/bphoto/TtrV-DJL1vgXzDSbViXLNA/o.jpg", "is_closed": false, "url": "https://www.yelp.com/biz/round-table-pizza-oakley?adjust_creative=IokN4du3-7NwKcCaUms5LA&utm_campaign=yelp_api_v3&utm_medium=api_v3_business_search&utm_source=IokN4du3-7NwKcCaUms5LA", "review_count": 85, "categories": [{"alias": "pizza", "title": "Pizza"}, {"alias": "buffets", "title": "Buffets"}], "rating": 3.0, "coordinates": {"latitude": 38.00243, "longitude": -121.73181}, "transactions": [], "price": "$$", "location": {"address1": "2190 Main St", "address2": "Ste C", "address3": "", "city": "Oakley", "zip_code": "94561", "country": "US", "state": "CA", "display_address": ["2190 Main St", "Ste C", "Oakley, CA 94561"]}, "phone": "+19256251700", "display_phone": "(925) 625-1700", "distance": 2313.369233322534}, {"id": "Co8RMU1-W_Xjc5dI9HsmEQ", "alias": "mountain-mikes-pizza-oakley", "name": "Mountain Mike's Pizza", "image_url": "https://s3-media2.fl.yelpcdn.com/bphoto/8i_75S3zhPfNJWqHlBxbVA/o.jpg", "is_closed": false, "url": "https://www.yelp.com/biz/mountain-mikes-pizza-oakley?adjust_creative=IokN4du3-7NwKcCaUms5LA&utm_campaign=yelp_api_v3&utm_medium=api_v3_business_search&utm_source=IokN4du3-7NwKcCaUms5LA", "review_count": 43, "categories": [{"alias": "pizza", "title": "Pizza"}], "rating": 3.0, "coordinates": {"latitude": 38.00244, "longitude": -121.7337449}, "transactions": ["pickup", "delivery"], "price": "$$", "location": {"address1": "2091 Main Street", "address2": "", "address3": "", "city": "Oakley", "zip_code": "94561", "country": "US", "state": "CA", "display_address": ["2091 Main Street", "Oakley, CA 94561"]}, "phone": "+19256250770", "display_phone": "(925) 625-0770", "distance": 2455.6995890886456}, {"id": "8_bt-9fNY6gFiJlNxxL_qA", "alias": "the-habit-burger-grill-antioch-2", "name": "The Habit Burger Grill", "image_url": "https://s3-media3.fl.yelpcdn.com/bphoto/uw2TzA7yrlDW3-2S9wOsnQ/o.jpg", "is_closed": false, "url": "https://www.yelp.com/biz/the-habit-burger-grill-antioch-2?adjust_creative=IokN4du3-7NwKcCaUms5LA&utm_campaign=yelp_api_v3&utm_medium=api_v3_business_search&utm_source=IokN4du3-7NwKcCaUms5LA", "review_count": 239, "categories": [{"alias": "burgers", "title": "Burgers"}], "rating": 3.5, "coordinates": {"latitude": 37.963219, "longitude": -121.736421}, "transactions": [], "price": "$", "location": {"address1": "5829 Lone Tree Way", "address2": "", "address3": "", "city": "Antioch", "zip_code": "94531", "country": "US", "state": "CA", "display_address": ["5829 Lone Tree Way", "Antioch, CA 94531"]}, "phone": "+19257555030", "display_phone": "(925) 755-5030", "distance": 3849.431083557328}, {"id": "YySRqwsKWORmYVx4GhulMQ", "alias": "designer-dogs-brentwood", "name": "Designer Dogs", "image_url": "https://s3-media2.fl.yelpcdn.com/bphoto/sVTFAHjmPIOlweM-8Kf3TA/o.jpg", "is_closed": false, "url": "https://www.yelp.com/biz/designer-dogs-brentwood?adjust_creative=IokN4du3-7NwKcCaUms5LA&utm_campaign=yelp_api_v3&utm_medium=api_v3_business_search&utm_source=IokN4du3-7NwKcCaUms5LA", "review_count": 80, "categories": [{"alias": "hotdog", "title": "Hot Dogs"}, {"alias": "burgers", "title": "Burgers"}], "rating": 4.0, "coordinates": {"latitude": 37.9598643, "longitude": -121.6961031}, "transactions": [], "price": "$", "location": {"address1": "6630 Brentwood Blvd", "address2": "", "address3": "", "city": "Brentwood", "zip_code": "94513", "country": "US", "state": "CA", "display_address": ["6630 Brentwood Blvd", "Brentwood, CA 94513"]}, "phone": "+19255169906", "display_phone": "(925) 516-9906", "distance": 3642.2183285575534}, {"id": "dy7aQIjjgnlowapnUHbLUA", "alias": "lone-tree-buffet-brentwood", "name": "Lone Tree Buffet", "image_url": "https://s3-media2.fl.yelpcdn.com/bphoto/1b5ZIyG7lmafjCDpRbFX2A/o.jpg", "is_closed": false, "url": "https://www.yelp.com/biz/lone-tree-buffet-brentwood?adjust_creative=IokN4du3-7NwKcCaUms5LA&utm_campaign=yelp_api_v3&utm_medium=api_v3_business_search&utm_source=IokN4du3-7NwKcCaUms5LA", "review_count": 72, "categories": [{"alias": "buffets", "title": "Buffets"}, {"alias": "mongolian", "title": "Mongolian"}, {"alias": "chinese", "title": "Chinese"}], "rating": 3.0, "coordinates": {"latitude": 37.9608799081917, "longitude": -121.736049950123}, "transactions": [], "price": "$$", "location": {"address1": "6281 Lone Tree Way", "address2": "", "address3": null, "city": "Brentwood", "zip_code": "94513", "country": "US", "state": "CA", "display_address": ["6281 Lone Tree Way", "Brentwood, CA 94513"]}, "phone": "+19255169858", "display_phone": "(925) 516-9858", "distance": 4030.816578010182}, {"id": "Jy2s4dE7KGWdpFFazP1idg", "alias": "chilis-antioch-2", "name": "Chili's", "image_url": "https://s3-media3.fl.yelpcdn.com/bphoto/NZWHjmYYVXncUdjCNH5ZhA/o.jpg", "is_closed": false, "url": "https://www.yelp.com/biz/chilis-antioch-2?adjust_creative=IokN4du3-7NwKcCaUms5LA&utm_campaign=yelp_api_v3&utm_medium=api_v3_business_search&utm_source=IokN4du3-7NwKcCaUms5LA", "review_count": 302, "categories": [{"alias": "bars", "title": "Bars"}, {"alias": "tex-mex", "title": "Tex-Mex"}, {"alias": "tradamerican", "title": "American (Traditional)"}], "rating": 2.5, "coordinates": {"latitude": 37.9620169211435, "longitude": -121.735696341501}, "transactions": [], "price": "$$", "location": {"address1": "5809 Lone Tree Way", "address2": "", "address3": "", "city": "Antioch", "zip_code": "94531", "country": "US", "state": "CA", "display_address": ["5809 Lone Tree Way", "Antioch, CA 94531"]}, "phone": "+19257545880", "display_phone": "(925) 754-5880", "distance": 3909.3616367494055}, {"id": "d7tTwp5yDQDUv2Kh8lsX1g", "alias": "el-taco-factory-brentwood", "name": "El Taco Factory", "image_url": "https://s3-media1.fl.yelpcdn.com/bphoto/PtvekvbC-8YljGCQDhvmfw/o.jpg", "is_closed": false, "url": "https://www.yelp.com/biz/el-taco-factory-brentwood?adjust_creative=IokN4du3-7NwKcCaUms5LA&utm_campaign=yelp_api_v3&utm_medium=api_v3_business_search&utm_source=IokN4du3-7NwKcCaUms5LA", "review_count": 293, "categories": [{"alias": "mexican", "title": "Mexican"}], "rating": 3.5, "coordinates": {"latitude": 37.96199, "longitude": -121.72963}, "transactions": [], "price": "$", "location": {"address1": "6660 Lone Tree Way", "address2": "Ste 5", "address3": "", "city": "Brentwood", "zip_code": "94513", "country": "US", "state": "CA", "display_address": ["6660 Lone Tree Way", "Ste 5", "Brentwood, CA 94513"]}, "phone": "+19255130080", "display_phone": "(925) 513-0080", "distance": 3623.40110770751}, {"id": "195BPD5ZrWfw11aGj7RLgg", "alias": "wingstop-brentwood", "name": "Wingstop", "image_url": "https://s3-media3.fl.yelpcdn.com/bphoto/pO182iRHH1uErcIwrPoJuw/o.jpg", "is_closed": false, "url": "https://www.yelp.com/biz/wingstop-brentwood?adjust_creative=IokN4du3-7NwKcCaUms5LA&utm_campaign=yelp_api_v3&utm_medium=api_v3_business_search&utm_source=IokN4du3-7NwKcCaUms5LA", "review_count": 329, "categories": [{"alias": "chicken_wings", "title": "Chicken Wings"}], "rating": 2.0, "coordinates": {"latitude": 37.96101, "longitude": -121.73373}, "transactions": [], "price": "$$", "location": {"address1": "6471 Lone Tree Way", "address2": "", "address3": "", "city": "Brentwood", "zip_code": "94513", "country": "US", "state": "CA", "display_address": ["6471 Lone Tree Way", "Brentwood, CA 94513"]}, "phone": "+19252409495", "display_phone": "(925) 240-9495", "distance": 3880.9724842131764}, {"id": "RsgxKM4y5V_po23Iy3lTww", "alias": "fiya-spice-caribbean-pittsburg", "name": "Fiya Spice Caribbean", "image_url": "https://s3-media1.fl.yelpcdn.com/bphoto/7NBUdJXMLVWdJqIumy-GBg/o.jpg", "is_closed": false, "url": "https://www.yelp.com/biz/fiya-spice-caribbean-pittsburg?adjust_creative=IokN4du3-7NwKcCaUms5LA&utm_campaign=yelp_api_v3&utm_medium=api_v3_business_search&utm_source=IokN4du3-7NwKcCaUms5LA", "review_count": 1, "categories": [{"alias": "foodtrucks", "title": "Food Trucks"}, {"alias": "caribbean", "title": "Caribbean"}, {"alias": "catering", "title": "Caterers"}], "rating": 5.0, "coordinates": {"latitude": 38.011279, "longitude": -121.876098}, "transactions": [], "location": {"address1": "", "address2": null, "address3": "", "city": "Pittsburg", "zip_code": "94565", "country": "US", "state": "CA", "display_address": ["Pittsburg, CA 94565"]}, "phone": "+15106863325", "display_phone": "(510) 686-3325", "distance": 14733.914963932835}, {"id": "QCG4VyJg9CnKsgYJ7t7zNw", "alias": "lone-tree-drive-in-fine-chinese-cuisine-brentwood", "name": "Lone Tree Drive In Fine Chinese Cuisine", "image_url": "https://s3-media2.fl.yelpcdn.com/bphoto/KtjvLtz7BcdAtTIQYfSQAA/o.jpg", "is_closed": false, "url": "https://www.yelp.com/biz/lone-tree-drive-in-fine-chinese-cuisine-brentwood?adjust_creative=IokN4du3-7NwKcCaUms5LA&utm_campaign=yelp_api_v3&utm_medium=api_v3_business_search&utm_source=IokN4du3-7NwKcCaUms5LA", "review_count": 79, "categories": [{"alias": "chinese", "title": "Chinese"}], "rating": 3.0, "coordinates": {"latitude": 37.96108, "longitude": -121.69753}, "transactions": [], "price": "$", "location": {"address1": "8383 Lone Tree Way", "address2": "", "address3": "", "city": "Brentwood", "zip_code": "94513", "country": "US", "state": "CA", "display_address": ["8383 Lone Tree Way", "Brentwood, CA 94513"]}, "phone": "+19256344629", "display_phone": "(925) 634-4629", "distance": 3464.7127979317024}, {"id": "BmhHz65vAA-bEdx1Jm8f7A", "alias": "kanpai-sushi-antioch", "name": "Kanpai Sushi", "image_url": "https://s3-media1.fl.yelpcdn.com/bphoto/ERzbD3O6-w9G2zYZ56ZJHg/o.jpg", "is_closed": false, "url": "https://www.yelp.com/biz/kanpai-sushi-antioch?adjust_creative=IokN4du3-7NwKcCaUms5LA&utm_campaign=yelp_api_v3&utm_medium=api_v3_business_search&utm_source=IokN4du3-7NwKcCaUms5LA", "review_count": 246, "categories": [{"alias": "sushi", "title": "Sushi Bars"}], "rating": 3.0, "coordinates": {"latitude": 37.96222, "longitude": -121.73428}, "transactions": [], "price": "$$", "location": {"address1": "5865 Lone Tree Way", "address2": "Ste D", "address3": "", "city": "Antioch", "zip_code": "94531", "country": "US", "state": "CA", "display_address": ["5865 Lone Tree Way", "Ste D", "Antioch, CA 94531"]}, "phone": "+19257572828", "display_phone": "(925) 757-2828", "distance": 3830.681842619695}, {"id": "zxvROdEXoJk03CWgdH1wcw", "alias": "llano-grande-restaurant-oakley", "name": "Llano Grande Restaurant", "image_url": "https://s3-media3.fl.yelpcdn.com/bphoto/T4XZp7CHS8J9UxKUPPGzlw/o.jpg", "is_closed": false, "url": "https://www.yelp.com/biz/llano-grande-restaurant-oakley?adjust_creative=IokN4du3-7NwKcCaUms5LA&utm_campaign=yelp_api_v3&utm_medium=api_v3_business_search&utm_source=IokN4du3-7NwKcCaUms5LA", "review_count": 5, "categories": [{"alias": "mexican", "title": "Mexican"}], "rating": 3.5, "coordinates": {"latitude": 37.99808, "longitude": -121.71512}, "transactions": [], "price": "$", "location": {"address1": "3400 Main St", "address2": "", "address3": "", "city": "Oakley", "zip_code": "94561", "country": "US", "state": "CA", "display_address": ["3400 Main St", "Oakley, CA 94561"]}, "phone": "", "display_phone": "", "distance": 925.2689621890257}, {"id": "RZzHRDwYAI48amdl9YkUeA", "alias": "five-guys-brentwood-4", "name": "Five Guys", "image_url": "https://s3-media3.fl.yelpcdn.com/bphoto/YGiYoy2D8pxIwuNwYGbiog/o.jpg", "is_closed": false, "url": "https://www.yelp.com/biz/five-guys-brentwood-4?adjust_creative=IokN4du3-7NwKcCaUms5LA&utm_campaign=yelp_api_v3&utm_medium=api_v3_business_search&utm_source=IokN4du3-7NwKcCaUms5LA", "review_count": 145, "categories": [{"alias": "burgers", "title": "Burgers"}, {"alias": "hotdogs", "title": "Fast Food"}], "rating": 3.5, "coordinates": {"latitude": 37.96199, "longitude": -121.72963}, "transactions": ["pickup"], "price": "$$", "location": {"address1": "6660 Lone Tree Way", "address2": "", "address3": "", "city": "Brentwood", "zip_code": "94513", "country": "US", "state": "CA", "display_address": ["6660 Lone Tree Way", "Brentwood, CA 94513"]}, "phone": "+19252406030", "display_phone": "(925) 240-6030", "distance": 3623.396956007319}, {"id": "cxjRzD7n4ZtVLFIJzWr7Lg", "alias": "little-caesars-oakley", "name": "Little Caesars", "image_url": "https://s3-media2.fl.yelpcdn.com/bphoto/aKWhohSmZ6hafY1WWNjh_Q/o.jpg", "is_closed": false, "url": "https://www.yelp.com/biz/little-caesars-oakley?adjust_creative=IokN4du3-7NwKcCaUms5LA&utm_campaign=yelp_api_v3&utm_medium=api_v3_business_search&utm_source=IokN4du3-7NwKcCaUms5LA", "review_count": 17, "categories": [{"alias": "pizza", "title": "Pizza"}], "rating": 3.0, "coordinates": {"latitude": 38.0029754638672, "longitude": -121.731658935547}, "transactions": [], "price": "$", "location": {"address1": "2170 Main St", "address2": "", "address3": "", "city": "Oakley", "zip_code": "94561", "country": "US", "state": "CA", "display_address": ["2170 Main St", "Oakley, CA 94561"]}, "phone": "+19256255800", "display_phone": "(925) 625-5800", "distance": 2337.1759700419966}, {"id": "B_aYxAyq8lAvpg0YDaBlmQ", "alias": "nations-giant-hamburgers-brentwood-2", "name": "Nation's Giant Hamburgers", "image_url": "https://s3-media1.fl.yelpcdn.com/bphoto/Hi_Dx6jtct8epiPgKwJ3MA/o.jpg", "is_closed": false, "url": "https://www.yelp.com/biz/nations-giant-hamburgers-brentwood-2?adjust_creative=IokN4du3-7NwKcCaUms5LA&utm_campaign=yelp_api_v3&utm_medium=api_v3_business_search&utm_source=IokN4du3-7NwKcCaUms5LA", "review_count": 220, "categories": [{"alias": "burgers", "title": "Burgers"}, {"alias": "hotdogs", "title": "Fast Food"}], "rating": 2.5, "coordinates": {"latitude": 37.96195, "longitude": -121.73213}, "transactions": [], "price": "$", "location": {"address1": "6560 Lone Tree Way", "address2": "Ste A", "address3": "", "city": "Brentwood", "zip_code": "94513", "country": "US", "state": "CA", "display_address": ["6560 Lone Tree Way", "Ste A", "Brentwood, CA 94513"]}, "phone": "+19255131086", "display_phone": "(925) 513-1086", "distance": 3739.392583672517}, {"id": "mPS5XNlJ-yFsYqxzTIKs-g", "alias": "panera-bread-antioch", "name": "Panera Bread", "image_url": "https://s3-media4.fl.yelpcdn.com/bphoto/diYpDpRtlFbaa3MzwUbGiw/o.jpg", "is_closed": false, "url": "https://www.yelp.com/biz/panera-bread-antioch?adjust_creative=IokN4du3-7NwKcCaUms5LA&utm_campaign=yelp_api_v3&utm_medium=api_v3_business_search&utm_source=IokN4du3-7NwKcCaUms5LA", "review_count": 282, "categories": [{"alias": "sandwiches", "title": "Sandwiches"}, {"alias": "salad", "title": "Salad"}, {"alias": "soup", "title": "Soup"}], "rating": 2.5, "coordinates": {"latitude": 37.961944, "longitude": -121.732996}, "transactions": [], "price": "$$", "location": {"address1": "5897 Lone Tree Way", "address2": null, "address3": "", "city": "Antioch", "zip_code": "94531", "country": "US", "state": "CA", "display_address": ["5897 Lone Tree Way", "Antioch, CA 94531"]}, "phone": "+19257555031", "display_phone": "(925) 755-5031", "distance": 3784.6823399748287}, {"id": "pHwT9en9_6BgaFWZxzj4iw", "alias": "dominos-pizza-oakley", "name": "Domino's Pizza", "image_url": "https://s3-media3.fl.yelpcdn.com/bphoto/bI5BKI7I0Rsq_u8YPIJ6fA/o.jpg", "is_closed": false, "url": "https://www.yelp.com/biz/dominos-pizza-oakley?adjust_creative=IokN4du3-7NwKcCaUms5LA&utm_campaign=yelp_api_v3&utm_medium=api_v3_business_search&utm_source=IokN4du3-7NwKcCaUms5LA", "review_count": 48, "categories": [{"alias": "pizza", "title": "Pizza"}, {"alias": "chicken_wings", "title": "Chicken Wings"}, {"alias": "sandwiches", "title": "Sandwiches"}], "rating": 2.5, "coordinates": {"latitude": 37.9897202422273, "longitude": -121.696028443999}, "transactions": [], "price": "$", "location": {"address1": "4530 Main St", "address2": "Ste G", "address3": "", "city": "Oakley", "zip_code": "94561", "country": "US", "state": "CA", "display_address": ["4530 Main St", "Ste G", "Oakley, CA 94561"]}, "phone": "+19256255555", "display_phone": "(925) 625-5555", "distance": 1227.5522011570633}, {"id": "80rWHBO6Bas4-1uy6PNWCQ", "alias": "mimis-bistro-bakery-antioch", "name": "Mimi's Bistro + Bakery", "image_url": "https://s3-media3.fl.yelpcdn.com/bphoto/zayeTdaaf4FFslfURsWv6A/o.jpg", "is_closed": false, "url": "https://www.yelp.com/biz/mimis-bistro-bakery-antioch?adjust_creative=IokN4du3-7NwKcCaUms5LA&utm_campaign=yelp_api_v3&utm_medium=api_v3_business_search&utm_source=IokN4du3-7NwKcCaUms5LA", "review_count": 355, "categories": [{"alias": "breakfast_brunch", "title": "Breakfast & Brunch"}, {"alias": "tradamerican", "title": "American (Traditional)"}, {"alias": "french", "title": "French"}], "rating": 2.5, "coordinates": {"latitude": 37.962084, "longitude": -121.740796766865}, "transactions": ["pickup", "delivery"], "price": "$$", "location": {"address1": "5705 Lonetree Way", "address2": "", "address3": "", "city": "Antioch", "zip_code": "94509", "country": "US", "state": "CA", "display_address": ["5705 Lonetree Way", "Antioch, CA 94509"]}, "phone": "+19257543186", "display_phone": "(925) 754-3186", "distance": 4177.446281527659}, {"id": "clZhEC1LZsDzeI1r9HbfTA", "alias": "el-camino-restaurant-brentwood", "name": "El Camino Restaurant", "image_url": "https://s3-media2.fl.yelpcdn.com/bphoto/20gOEQdDEGSjwOu60rK08g/o.jpg", "is_closed": false, "url": "https://www.yelp.com/biz/el-camino-restaurant-brentwood?adjust_creative=IokN4du3-7NwKcCaUms5LA&utm_campaign=yelp_api_v3&utm_medium=api_v3_business_search&utm_source=IokN4du3-7NwKcCaUms5LA", "review_count": 154, "categories": [{"alias": "mexican", "title": "Mexican"}, {"alias": "bars", "title": "Bars"}, {"alias": "breakfast_brunch", "title": "Breakfast & Brunch"}], "rating": 3.0, "coordinates": {"latitude": 37.960322, "longitude": -121.696268}, "transactions": ["pickup"], "price": "$$", "location": {"address1": "6611 Brentwood Blvd", "address2": "", "address3": "", "city": "Brentwood", "zip_code": "94513", "country": "US", "state": "CA", "display_address": ["6611 Brentwood Blvd", "Brentwood, CA 94513"]}, "phone": "+19256344011", "display_phone": "(925) 634-4011", "distance": 3589.419401090117}, {"id": "4CQlfiJFc2RuSzTCRnCbtg", "alias": "leonardis-pizza-brentwood", "name": "Leonardi's Pizza", "image_url": "https://s3-media4.fl.yelpcdn.com/bphoto/vNstZF50vlE35-GHi6rhqg/o.jpg", "is_closed": false, "url": "https://www.yelp.com/biz/leonardis-pizza-brentwood?adjust_creative=IokN4du3-7NwKcCaUms5LA&utm_campaign=yelp_api_v3&utm_medium=api_v3_business_search&utm_source=IokN4du3-7NwKcCaUms5LA", "review_count": 7, "categories": [{"alias": "pizza", "title": "Pizza"}], "rating": 4.0, "coordinates": {"latitude": 37.96396, "longitude": -121.7292}, "transactions": [], "price": "$", "location": {"address1": "6700 Lone Tree Way", "address2": null, "address3": null, "city": "Brentwood", "zip_code": "94513", "country": "US", "state": "CA", "display_address": ["6700 Lone Tree Way", "Brentwood, CA 94513"]}, "phone": "+19255136071", "display_phone": "(925) 513-6071", "distance": 3345.379731260419}, {"id": "wPiqXL-UfuRZ5OQpFlf03w", "alias": "panda-express-antioch", "name": "Panda Express", "image_url": "https://s3-media2.fl.yelpcdn.com/bphoto/bruErBSuMETlzZM0D7nKmA/o.jpg", "is_closed": false, "url": "https://www.yelp.com/biz/panda-express-antioch?adjust_creative=IokN4du3-7NwKcCaUms5LA&utm_campaign=yelp_api_v3&utm_medium=api_v3_business_search&utm_source=IokN4du3-7NwKcCaUms5LA", "review_count": 99, "categories": [{"alias": "chinese", "title": "Chinese"}, {"alias": "hotdogs", "title": "Fast Food"}], "rating": 2.5, "coordinates": {"latitude": 37.962458, "longitude": -121.737337}, "transactions": [], "price": "$", "location": {"address1": "5789 Lone Tree Way", "address2": "Space B", "address3": "", "city": "Antioch", "zip_code": "94509", "country": "US", "state": "CA", "display_address": ["5789 Lone Tree Way", "Space B", "Antioch, CA 94509"]}, "phone": "+19259781738", "display_phone": "(925) 978-1738", "distance": 3954.9027037604874}, {"id": "QvfyRazPXTAXplwSK50WCw", "alias": "burger-king-oakley-4", "name": "Burger King", "image_url": "https://s3-media4.fl.yelpcdn.com/bphoto/4FYDfJdE9rweA9tVAv08kQ/o.jpg", "is_closed": false, "url": "https://www.yelp.com/biz/burger-king-oakley-4?adjust_creative=IokN4du3-7NwKcCaUms5LA&utm_campaign=yelp_api_v3&utm_medium=api_v3_business_search&utm_source=IokN4du3-7NwKcCaUms5LA", "review_count": 43, "categories": [{"alias": "hotdogs", "title": "Fast Food"}, {"alias": "burgers", "title": "Burgers"}], "rating": 1.5, "coordinates": {"latitude": 37.997643, "longitude": -121.73097}, "transactions": [], "price": "$", "location": {"address1": "2505 Main Street", "address2": "", "address3": null, "city": "Oakley", "zip_code": "94561", "country": "US", "state": "CA", "display_address": ["2505 Main Street", "Oakley, CA 94561"]}, "phone": "+19256798789", "display_phone": "(925) 679-8789", "distance": 1992.2185132062884}, {"id": "eq8P5RlRJL7nJDkmM8ZiwQ", "alias": "subway-restaurants-oakley-2", "name": "Subway Restaurants", "image_url": "https://s3-media1.fl.yelpcdn.com/bphoto/XnaKKHZN6ljId5E7Du_tDA/o.jpg", "is_closed": false, "url": "https://www.yelp.com/biz/subway-restaurants-oakley-2?adjust_creative=IokN4du3-7NwKcCaUms5LA&utm_campaign=yelp_api_v3&utm_medium=api_v3_business_search&utm_source=IokN4du3-7NwKcCaUms5LA", "review_count": 18, "categories": [{"alias": "sandwiches", "title": "Sandwiches"}], "rating": 3.5, "coordinates": {"latitude": 37.9898846622586, "longitude": -121.695985794067}, "transactions": ["pickup", "delivery"], "price": "$", "location": {"address1": "4514 Main Street", "address2": "", "address3": "", "city": "Oakley", "zip_code": "94561", "country": "US", "state": "CA", "display_address": ["4514 Main Street", "Oakley, CA 94561"]}, "phone": "+19256267789", "display_phone": "(925) 626-7789", "distance": 1229.723338082146}, {"id": "wKGnxYjqm6XsdGzra7GmxQ", "alias": "golden-dragon-buffet-brentwood-2", "name": "Golden Dragon Buffet", "image_url": "https://s3-media2.fl.yelpcdn.com/bphoto/_lsBAs_d9GtzQz0mK5Lu3g/o.jpg", "is_closed": false, "url": "https://www.yelp.com/biz/golden-dragon-buffet-brentwood-2?adjust_creative=IokN4du3-7NwKcCaUms5LA&utm_campaign=yelp_api_v3&utm_medium=api_v3_business_search&utm_source=IokN4du3-7NwKcCaUms5LA", "review_count": 3, "categories": [{"alias": "chinese", "title": "Chinese"}, {"alias": "buffets", "title": "Buffets"}], "rating": 1.5, "coordinates": {"latitude": 37.960694, "longitude": -121.73601}, "transactions": [], "location": {"address1": "6281 Lone Tree Way", "address2": "", "address3": null, "city": "Brentwood", "zip_code": "94513", "country": "US", "state": "CA", "display_address": ["6281 Lone Tree Way", "Brentwood, CA 94513"]}, "phone": "+19255169858", "display_phone": "(925) 516-9858", "distance": 4036.273511705404}, {"id": "Gu7iD8dt52h096co_FD1Vg", "alias": "taco-bell-oakley", "name": "Taco Bell", "image_url": "https://s3-media1.fl.yelpcdn.com/bphoto/7Q8fVhD9vAZnvnGhXALPew/o.jpg", "is_closed": false, "url": "https://www.yelp.com/biz/taco-bell-oakley?adjust_creative=IokN4du3-7NwKcCaUms5LA&utm_campaign=yelp_api_v3&utm_medium=api_v3_business_search&utm_source=IokN4du3-7NwKcCaUms5LA", "review_count": 33, "categories": [{"alias": "hotdogs", "title": "Fast Food"}, {"alias": "tacos", "title": "Tacos"}], "rating": 2.0, "coordinates": {"latitude": 38.0043447137837, "longitude": -121.733574257942}, "transactions": ["delivery"], "price": "$", "location": {"address1": "2015 Main St", "address2": "", "address3": "", "city": "Oakley", "zip_code": "94561", "country": "US", "state": "CA", "display_address": ["2015 Main St", "Oakley, CA 94561"]}, "phone": "+19256252330", "display_phone": "(925) 625-2330", "distance": 2562.072780194394}, {"id": "O5CP7kJZWwIyaXuC6AiI5g", "alias": "wendys-brentwood", "name": "Wendy's", "image_url": "https://s3-media2.fl.yelpcdn.com/bphoto/J0eRMujuMvt3QGiUaUQAmA/o.jpg", "is_closed": false, "url": "https://www.yelp.com/biz/wendys-brentwood?adjust_creative=IokN4du3-7NwKcCaUms5LA&utm_campaign=yelp_api_v3&utm_medium=api_v3_business_search&utm_source=IokN4du3-7NwKcCaUms5LA", "review_count": 73, "categories": [{"alias": "burgers", "title": "Burgers"}, {"alias": "hotdogs", "title": "Fast Food"}], "rating": 3.5, "coordinates": {"latitude": 37.96113, "longitude": -121.74104}, "transactions": ["pickup", "delivery"], "price": "$", "location": {"address1": "6021 Lone Tree Way", "address2": "", "address3": "", "city": "Brentwood", "zip_code": "94513", "country": "US", "state": "CA", "display_address": ["6021 Lone Tree Way", "Brentwood, CA 94513"]}, "phone": "+19255137293", "display_phone": "(925) 513-7293", "distance": 4271.123428118326}, {"id": "ZEKml3-JY76ZnzeIfUM1BA", "alias": "subway-restaurants-oakley-3", "name": "Subway Restaurants", "image_url": "https://s3-media4.fl.yelpcdn.com/bphoto/B4OgrT9b8k-BXXlFR0ckXg/o.jpg", "is_closed": false, "url": "https://www.yelp.com/biz/subway-restaurants-oakley-3?adjust_creative=IokN4du3-7NwKcCaUms5LA&utm_campaign=yelp_api_v3&utm_medium=api_v3_business_search&utm_source=IokN4du3-7NwKcCaUms5LA", "review_count": 11, "categories": [{"alias": "sandwiches", "title": "Sandwiches"}], "rating": 3.0, "coordinates": {"latitude": 37.9894965333677, "longitude": -121.701026613769}, "transactions": ["pickup", "delivery"], "price": "$", "location": {"address1": "2005 Main St", "address2": "Suite A", "address3": "", "city": "Oakley", "zip_code": "94561", "country": "US", "state": "CA", "display_address": ["2005 Main St", "Suite A", "Oakley, CA 94561"]}, "phone": "+19256255767", "display_phone": "(925) 625-5767", "distance": 796.3893980767385}, {"id": "yWhzQXFkT8QcYehKDALbTg", "alias": "pizza-guys-brentwood-2", "name": "Pizza Guys", "image_url": "https://s3-media2.fl.yelpcdn.com/bphoto/dyxXvFXEU6nMIdFTGQaFuQ/o.jpg", "is_closed": false, "url": "https://www.yelp.com/biz/pizza-guys-brentwood-2?adjust_creative=IokN4du3-7NwKcCaUms5LA&utm_campaign=yelp_api_v3&utm_medium=api_v3_business_search&utm_source=IokN4du3-7NwKcCaUms5LA", "review_count": 52, "categories": [{"alias": "pizza", "title": "Pizza"}], "rating": 3.5, "coordinates": {"latitude": 37.9603024, "longitude": -121.7363622}, "transactions": ["pickup", "delivery"], "price": "$$", "location": {"address1": "6271 Lone Tree Way", "address2": "Ste F", "address3": "", "city": "Brentwood", "zip_code": "94513", "country": "US", "state": "CA", "display_address": ["6271 Lone Tree Way", "Ste F", "Brentwood, CA 94513"]}, "phone": "+19256263888", "display_phone": "(925) 626-3888", "distance": 4099.259558889695}, {"id": "duUQDFkZK5VEsGdlSl5saQ", "alias": "chuck-e-cheese-brentwood-2", "name": "Chuck E. Cheese", "image_url": "https://s3-media4.fl.yelpcdn.com/bphoto/RTiH_-xEABbPmTxGQw7Thg/o.jpg", "is_closed": false, "url": "https://www.yelp.com/biz/chuck-e-cheese-brentwood-2?adjust_creative=IokN4du3-7NwKcCaUms5LA&utm_campaign=yelp_api_v3&utm_medium=api_v3_business_search&utm_source=IokN4du3-7NwKcCaUms5LA", "review_count": 120, "categories": [{"alias": "pizza", "title": "Pizza"}, {"alias": "arcades", "title": "Arcades"}, {"alias": "kids_activities", "title": "Kids Activities"}], "rating": 3.0, "coordinates": {"latitude": 37.9602472844509, "longitude": -121.741037502769}, "transactions": ["pickup", "delivery"], "price": "$$", "location": {"address1": "6061 Lone Tree Way", "address2": "", "address3": "", "city": "Brentwood", "zip_code": "94513", "country": "US", "state": "CA", "display_address": ["6061 Lone Tree Way", "Brentwood, CA 94513"]}, "phone": "+19252408405", "display_phone": "(925) 240-8405", "distance": 4348.441906176082}, {"id": "nA1E6UIFgwSRh1POrpQrvg", "alias": "charleys-grilled-subs-brentwood", "name": "Charley's Grilled Subs", "image_url": "https://s3-media3.fl.yelpcdn.com/bphoto/mfRc3Y5RTBx-ts3BCom5sQ/o.jpg", "is_closed": false, "url": "https://www.yelp.com/biz/charleys-grilled-subs-brentwood?adjust_creative=IokN4du3-7NwKcCaUms5LA&utm_campaign=yelp_api_v3&utm_medium=api_v3_business_search&utm_source=IokN4du3-7NwKcCaUms5LA", "review_count": 75, "categories": [{"alias": "sandwiches", "title": "Sandwiches"}], "rating": 3.0, "coordinates": {"latitude": 37.9621842479506, "longitude": -121.729886925174}, "transactions": [], "price": "$", "location": {"address1": "6660 Lone Tree Way", "address2": "Ste 1", "address3": "", "city": "Brentwood", "zip_code": "94513", "country": "US", "state": "CA", "display_address": ["6660 Lone Tree Way", "Ste 1", "Brentwood, CA 94513"]}, "phone": "+19252401552", "display_phone": "(925) 240-1552", "distance": 3623.2589486312695}, {"id": "nx0ajPNo8pgxPSPLsyZKKw", "alias": "straw-hat-pizza-brentwood", "name": "Straw Hat Pizza", "image_url": "https://s3-media1.fl.yelpcdn.com/bphoto/YTUpWb_TapczOQMPjsbCog/o.jpg", "is_closed": false, "url": "https://www.yelp.com/biz/straw-hat-pizza-brentwood?adjust_creative=IokN4du3-7NwKcCaUms5LA&utm_campaign=yelp_api_v3&utm_medium=api_v3_business_search&utm_source=IokN4du3-7NwKcCaUms5LA", "review_count": 91, "categories": [{"alias": "pizza", "title": "Pizza"}, {"alias": "italian", "title": "Italian"}, {"alias": "sandwiches", "title": "Sandwiches"}], "rating": 2.0, "coordinates": {"latitude": 37.9628904324166, "longitude": -121.729679796228}, "transactions": ["pickup", "delivery"], "price": "$", "location": {"address1": "6680 Lone Tree Way", "address2": "", "address3": "", "city": "Brentwood", "zip_code": "94513", "country": "US", "state": "CA", "display_address": ["6680 Lone Tree Way", "Brentwood, CA 94513"]}, "phone": "+19256343664", "display_phone": "(925) 634-3664", "distance": 3545.7629624100273}, {"id": "B6SJW38XLvJvPpdPHJw5Vg", "alias": "country-waffles-antioch-2", "name": "Country Waffles", "image_url": "https://s3-media4.fl.yelpcdn.com/bphoto/mT6B32QGRxnsmAdiwA4PrQ/o.jpg", "is_closed": false, "url": "https://www.yelp.com/biz/country-waffles-antioch-2?adjust_creative=IokN4du3-7NwKcCaUms5LA&utm_campaign=yelp_api_v3&utm_medium=api_v3_business_search&utm_source=IokN4du3-7NwKcCaUms5LA", "review_count": 130, "categories": [{"alias": "breakfast_brunch", "title": "Breakfast & Brunch"}, {"alias": "waffles", "title": "Waffles"}], "rating": 3.0, "coordinates": {"latitude": 37.9619481560263, "longitude": -121.734609557463}, "transactions": [], "price": "$", "location": {"address1": "5865 Lone Tree Way", "address2": "Ste A", "address3": "", "city": "Antioch", "zip_code": "94531", "country": "US", "state": "CA", "display_address": ["5865 Lone Tree Way", "Ste A", "Antioch, CA 94531"]}, "phone": "+19257790134", "display_phone": "(925) 779-0134", "distance": 3861.5530001390916}, {"id": "0mqplZPLvq6PG5D7yWqiLA", "alias": "little-caesars-pizza-brentwood-3", "name": "Little Caesars Pizza", "image_url": "https://s3-media2.fl.yelpcdn.com/bphoto/BsEyVMBbQC135fSJ-B_3gQ/o.jpg", "is_closed": false, "url": "https://www.yelp.com/biz/little-caesars-pizza-brentwood-3?adjust_creative=IokN4du3-7NwKcCaUms5LA&utm_campaign=yelp_api_v3&utm_medium=api_v3_business_search&utm_source=IokN4du3-7NwKcCaUms5LA", "review_count": 27, "categories": [{"alias": "pizza", "title": "Pizza"}], "rating": 2.5, "coordinates": {"latitude": 37.9611860817429, "longitude": -121.724650115841}, "transactions": [], "price": "$", "location": {"address1": "6935 Lone Tree Way", "address2": null, "address3": null, "city": "Brentwood", "zip_code": "94513", "country": "US", "state": "CA", "display_address": ["6935 Lone Tree Way", "Brentwood, CA 94513"]}, "phone": "+19255130500", "display_phone": "(925) 513-0500", "distance": 3528.9893549862436}, {"id": "TUDbIBUw-w7K6wgLQY3BlA", "alias": "jack-in-the-box-oakley", "name": "Jack in the Box", "image_url": "https://s3-media2.fl.yelpcdn.com/bphoto/aBNppjyq1pSHv2vky1_pzQ/o.jpg", "is_closed": false, "url": "https://www.yelp.com/biz/jack-in-the-box-oakley?adjust_creative=IokN4du3-7NwKcCaUms5LA&utm_campaign=yelp_api_v3&utm_medium=api_v3_business_search&utm_source=IokN4du3-7NwKcCaUms5LA", "review_count": 43, "categories": [{"alias": "burgers", "title": "Burgers"}, {"alias": "hotdogs", "title": "Fast Food"}, {"alias": "tacos", "title": "Tacos"}], "rating": 2.0, "coordinates": {"latitude": 38.0038604444724, "longitude": -121.733208149672}, "transactions": [], "price": "$", "location": {"address1": "2185 Main St", "address2": "", "address3": "", "city": "Oakley", "zip_code": "94561", "country": "US", "state": "CA", "display_address": ["2185 Main St", "Oakley, CA 94561"]}, "phone": "+19256255931", "display_phone": "(925) 625-5931", "distance": 2504.512448267701}, {"id": "xomxVUXe8Sy5R2nt7qBxxg", "alias": "fired-mobile-pizza-oven-stockton", "name": "FIRED Mobile Pizza Oven", "image_url": "https://s3-media4.fl.yelpcdn.com/bphoto/JV4MGBFFrJGZQbmtdoOLFQ/o.jpg", "is_closed": false, "url": "https://www.yelp.com/biz/fired-mobile-pizza-oven-stockton?adjust_creative=IokN4du3-7NwKcCaUms5LA&utm_campaign=yelp_api_v3&utm_medium=api_v3_business_search&utm_source=IokN4du3-7NwKcCaUms5LA", "review_count": 8, "categories": [{"alias": "pizza", "title": "Pizza"}, {"alias": "catering", "title": "Caterers"}, {"alias": "foodtrucks", "title": "Food Trucks"}], "rating": 5.0, "coordinates": {"latitude": 38.0521138, "longitude": -121.3484448}, "transactions": [], "location": {"address1": null, "address2": null, "address3": "", "city": "Stockton", "zip_code": "95209", "country": "US", "state": "CA", "display_address": ["Stockton, CA 95209"]}, "phone": "+12092424105", "display_phone": "(209) 242-4105", "distance": 32396.03698422136}, {"id": "lY1Iy23dUQMPr_5VNrLfWA", "alias": "charleys-philly-steak-brentwood", "name": "Charley's Philly Steak", "image_url": "https://s3-media1.fl.yelpcdn.com/bphoto/rW7zi54s_qUj5geGYCfqHA/o.jpg", "is_closed": false, "url": "https://www.yelp.com/biz/charleys-philly-steak-brentwood?adjust_creative=IokN4du3-7NwKcCaUms5LA&utm_campaign=yelp_api_v3&utm_medium=api_v3_business_search&utm_source=IokN4du3-7NwKcCaUms5LA", "review_count": 7, "categories": [{"alias": "sandwiches", "title": "Sandwiches"}], "rating": 2.5, "coordinates": {"latitude": 37.96199, "longitude": -121.72963}, "transactions": ["pickup", "delivery"], "location": {"address1": "6660 Lone Tree Way", "address2": "", "address3": null, "city": "Brentwood", "zip_code": "94513", "country": "US", "state": "CA", "display_address": ["6660 Lone Tree Way", "Brentwood, CA 94513"]}, "phone": "", "display_phone": "", "distance": 3623.40110770751}, {"id": "_hBDDsf4oIKysNGUeWgxsw", "alias": "kfc-brentwood-8", "name": "KFC", "image_url": "https://s3-media2.fl.yelpcdn.com/bphoto/NwM_5GMavU_S3yMSaIRRIA/o.jpg", "is_closed": false, "url": "https://www.yelp.com/biz/kfc-brentwood-8?adjust_creative=IokN4du3-7NwKcCaUms5LA&utm_campaign=yelp_api_v3&utm_medium=api_v3_business_search&utm_source=IokN4du3-7NwKcCaUms5LA", "review_count": 126, "categories": [{"alias": "hotdogs", "title": "Fast Food"}, {"alias": "chicken_wings", "title": "Chicken Wings"}, {"alias": "chickenshop", "title": "Chicken Shop"}], "rating": 1.5, "coordinates": {"latitude": 37.9610557704532, "longitude": -121.734128813703}, "transactions": ["pickup", "delivery"], "price": "$", "location": {"address1": "6371 Lone Tree Way", "address2": "", "address3": "", "city": "Brentwood", "zip_code": "94513", "country": "US", "state": "CA", "display_address": ["6371 Lone Tree Way", "Brentwood, CA 94513"]}, "phone": "+19252407900", "display_phone": "(925) 240-7900", "distance": 3921.309792003042}, {"id": "VMu55edEvm1Xlv40bjBGkA", "alias": "carls-jr-brentwood", "name": "Carl's Jr.", "image_url": "https://s3-media2.fl.yelpcdn.com/bphoto/NLaEnV2SShxn-yM4J8w-Ww/o.jpg", "is_closed": false, "url": "https://www.yelp.com/biz/carls-jr-brentwood?adjust_creative=IokN4du3-7NwKcCaUms5LA&utm_campaign=yelp_api_v3&utm_medium=api_v3_business_search&utm_source=IokN4du3-7NwKcCaUms5LA", "review_count": 41, "categories": [{"alias": "burgers", "title": "Burgers"}, {"alias": "hotdogs", "title": "Fast Food"}], "rating": 2.5, "coordinates": {"latitude": 37.96075, "longitude": -121.73622}, "transactions": [], "price": "$", "location": {"address1": "6291 Lone Tree Way", "address2": null, "address3": null, "city": "Brentwood", "zip_code": "94513", "country": "US", "state": "CA", "display_address": ["6291 Lone Tree Way", "Brentwood, CA 94513"]}, "phone": "+19253087010", "display_phone": "(925) 308-7010", "distance": 4002.042517604852}, {"id": "Ks76FtiUJENF_z534cibyA", "alias": "subway-restaurants-antioch-9", "name": "Subway Restaurants", "image_url": "https://s3-media2.fl.yelpcdn.com/bphoto/kze2O3_EUp0axasPyeA0Og/o.jpg", "is_closed": false, "url": "https://www.yelp.com/biz/subway-restaurants-antioch-9?adjust_creative=IokN4du3-7NwKcCaUms5LA&utm_campaign=yelp_api_v3&utm_medium=api_v3_business_search&utm_source=IokN4du3-7NwKcCaUms5LA", "review_count": 22, "categories": [{"alias": "sandwiches", "title": "Sandwiches"}], "rating": 3.0, "coordinates": {"latitude": 37.962597, "longitude": -121.736547}, "transactions": ["pickup", "delivery"], "price": "$", "location": {"address1": "5819 Lone Tree Way", "address2": "Suite D", "address3": "", "city": "Antioch", "zip_code": "94531", "country": "US", "state": "CA", "display_address": ["5819 Lone Tree Way", "Suite D", "Antioch, CA 94531"]}, "phone": "+19257787827", "display_phone": "(925) 778-7827", "distance": 3915.795335500692}, {"id": "nPGIPd70oI2tHwwbQJtSfg", "alias": "lone-tree-drive-in-brentwood", "name": "Lone Tree Drive In", "image_url": "", "is_closed": false, "url": "https://www.yelp.com/biz/lone-tree-drive-in-brentwood?adjust_creative=IokN4du3-7NwKcCaUms5LA&utm_campaign=yelp_api_v3&utm_medium=api_v3_business_search&utm_source=IokN4du3-7NwKcCaUms5LA", "review_count": 3, "categories": [{"alias": "diners", "title": "Diners"}, {"alias": "hotdogs", "title": "Fast Food"}], "rating": 2.5, "coordinates": {"latitude": 37.96108, "longitude": -121.69753}, "transactions": [], "location": {"address1": "8383 Lone Tree Way", "address2": "", "address3": "", "city": "Brentwood", "zip_code": "94513", "country": "US", "state": "CA", "display_address": ["8383 Lone Tree Way", "Brentwood, CA 94513"]}, "phone": "+19256341618", "display_phone": "(925) 634-1618", "distance": 3464.7127979317024}, {"id": "CUwBAy6lrFi4x6Neu9eRVw", "alias": "mini-street-burger-alameda-3", "name": "Mini Street Burger", "image_url": "https://s3-media2.fl.yelpcdn.com/bphoto/Kh-OQKBIclWY1dCeIuu57w/o.jpg", "is_closed": false, "url": "https://www.yelp.com/biz/mini-street-burger-alameda-3?adjust_creative=IokN4du3-7NwKcCaUms5LA&utm_campaign=yelp_api_v3&utm_medium=api_v3_business_search&utm_source=IokN4du3-7NwKcCaUms5LA", "review_count": 28, "categories": [{"alias": "foodtrucks", "title": "Food Trucks"}, {"alias": "burgers", "title": "Burgers"}], "rating": 4.0, "coordinates": {"latitude": 37.82628, "longitude": -122.25101}, "transactions": [], "location": {"address1": null, "address2": null, "address3": null, "city": "Alameda", "zip_code": "94611", "country": "US", "state": "CA", "display_address": ["Alameda, CA 94611"]}, "phone": "+15108278982", "display_phone": "(510) 827-8982", "distance": 46645.274670999606}, {"id": "sbGq9a-HSbypW1-8NtgpSg", "alias": "a-and-w-brentwood-2", "name": "A&W", "image_url": "https://s3-media3.fl.yelpcdn.com/bphoto/Yf6IX6xWpvsa8dEg4TbW0A/o.jpg", "is_closed": false, "url": "https://www.yelp.com/biz/a-and-w-brentwood-2?adjust_creative=IokN4du3-7NwKcCaUms5LA&utm_campaign=yelp_api_v3&utm_medium=api_v3_business_search&utm_source=IokN4du3-7NwKcCaUms5LA", "review_count": 13, "categories": [{"alias": "hotdogs", "title": "Fast Food"}, {"alias": "burgers", "title": "Burgers"}, {"alias": "hotdog", "title": "Hot Dogs"}], "rating": 1.5, "coordinates": {"latitude": 37.961056, "longitude": -121.734306}, "transactions": [], "price": "$", "location": {"address1": "6371 Lone Tree Way", "address2": "", "address3": "", "city": "Brentwood", "zip_code": "94513", "country": "US", "state": "CA", "display_address": ["6371 Lone Tree Way", "Brentwood, CA 94513"]}, "phone": "+19252407900", "display_phone": "(925) 240-7900", "distance": 3921.3625413125665}, {"id": "sR0Wy3LYGdYV9HLszRlMmw", "alias": "tacos-la-palmita-stockton", "name": "Tacos La Palmita", "image_url": "https://s3-media2.fl.yelpcdn.com/bphoto/pzYoRmZjUQqxZ7qOyU7hUQ/o.jpg", "is_closed": false, "url": "https://www.yelp.com/biz/tacos-la-palmita-stockton?adjust_creative=IokN4du3-7NwKcCaUms5LA&utm_campaign=yelp_api_v3&utm_medium=api_v3_business_search&utm_source=IokN4du3-7NwKcCaUms5LA", "review_count": 90, "categories": [{"alias": "tacos", "title": "Tacos"}, {"alias": "foodtrucks", "title": "Food Trucks"}], "rating": 4.5, "coordinates": {"latitude": 38.008129, "longitude": -121.320219}, "transactions": ["pickup", "delivery"], "price": "$", "location": {"address1": "6393 Pacific Ave", "address2": null, "address3": null, "city": "Stockton", "zip_code": "95207", "country": "US", "state": "CA", "display_address": ["6393 Pacific Ave", "Stockton, CA 95207"]}, "phone": "+12093026825", "display_phone": "(209) 302-6825", "distance": 34206.507729083714}, {"id": "7hoR85ZbJVRQ98Q14OlQZQ", "alias": "cosa-nostra-pasta-truck-berkeley", "name": "Cosa Nostra Pasta Truck", "image_url": "https://s3-media1.fl.yelpcdn.com/bphoto/kJNRKi9NzgsPf3KmTr_fAg/o.jpg", "is_closed": false, "url": "https://www.yelp.com/biz/cosa-nostra-pasta-truck-berkeley?adjust_creative=IokN4du3-7NwKcCaUms5LA&utm_campaign=yelp_api_v3&utm_medium=api_v3_business_search&utm_source=IokN4du3-7NwKcCaUms5LA", "review_count": 31, "categories": [{"alias": "foodtrucks", "title": "Food Trucks"}, {"alias": "italian", "title": "Italian"}], "rating": 5.0, "coordinates": {"latitude": 37.8760173212886, "longitude": -122.303487025201}, "transactions": [], "price": "$$", "location": {"address1": "701 Page St", "address2": null, "address3": null, "city": "Berkeley", "zip_code": "94710", "country": "US", "state": "CA", "display_address": ["701 Page St", "Berkeley, CA 94710"]}, "phone": "+15102448782", "display_phone": "(510) 244-8782", "distance": 53592.47447188975}, {"id": "rM6pPB_qmQ3de5yGpfLT1g", "alias": "lomo-libre-san-francisco-2", "name": "Lomo Libre", "image_url": "https://s3-media1.fl.yelpcdn.com/bphoto/vjnO-EUjFHKoLMy2_JQYvg/o.jpg", "is_closed": false, "url": "https://www.yelp.com/biz/lomo-libre-san-francisco-2?adjust_creative=IokN4du3-7NwKcCaUms5LA&utm_campaign=yelp_api_v3&utm_medium=api_v3_business_search&utm_source=IokN4du3-7NwKcCaUms5LA", "review_count": 8, "categories": [{"alias": "foodtrucks", "title": "Food Trucks"}, {"alias": "peruvian", "title": "Peruvian"}], "rating": 5.0, "coordinates": {"latitude": 37.799634, "longitude": -122.436301}, "transactions": [], "location": {"address1": "2101 Lombard St", "address2": "", "address3": null, "city": "San Francisco", "zip_code": "94123", "country": "US", "state": "CA", "display_address": ["2101 Lombard St", "San Francisco, CA 94123"]}, "phone": "+14156198149", "display_phone": "(415) 619-8149", "distance": 67182.73924571043}, {"id": "lgheXsHqe66AEZwoPDIEpw", "alias": "taco-coma-newark", "name": "Taco Coma", "image_url": "https://s3-media3.fl.yelpcdn.com/bphoto/DDz5lZDL5lDiRR_Ph0L4Sg/o.jpg", "is_closed": false, "url": "https://www.yelp.com/biz/taco-coma-newark?adjust_creative=IokN4du3-7NwKcCaUms5LA&utm_campaign=yelp_api_v3&utm_medium=api_v3_business_search&utm_source=IokN4du3-7NwKcCaUms5LA", "review_count": 3, "categories": [{"alias": "foodstands", "title": "Food Stands"}, {"alias": "tacos", "title": "Tacos"}], "rating": 5.0, "coordinates": {"latitude": 37.53453, "longitude": -122.03284}, "transactions": [], "location": {"address1": "", "address2": null, "address3": "", "city": "Newark", "zip_code": "94560", "country": "US", "state": "CA", "display_address": ["Newark, CA 94560"]}, "phone": "+15106971448", "display_phone": "(510) 697-1448", "distance": 58808.933962478426}, {"id": "SbjAjfh2riT7rWxo2OITJA", "alias": "candies-kitchen-sacramento", "name": "Candies Kitchen", "image_url": "https://s3-media1.fl.yelpcdn.com/bphoto/wZehoZn9-gQLuWPX4QIOLA/o.jpg", "is_closed": false, "url": "https://www.yelp.com/biz/candies-kitchen-sacramento?adjust_creative=IokN4du3-7NwKcCaUms5LA&utm_campaign=yelp_api_v3&utm_medium=api_v3_business_search&utm_source=IokN4du3-7NwKcCaUms5LA", "review_count": 2, "categories": [{"alias": "cajun", "title": "Cajun/Creole"}, {"alias": "soulfood", "title": "Soul Food"}, {"alias": "foodtrucks", "title": "Food Trucks"}], "rating": 3.5, "coordinates": {"latitude": 38.59429, "longitude": -121.48536}, "transactions": [], "location": {"address1": "1100 Richards Blvd", "address2": null, "address3": "", "city": "Sacramento", "zip_code": "95811", "country": "US", "state": "CA", "display_address": ["1100 Richards Blvd", "Sacramento, CA 95811"]}, "phone": "+19164399922", "display_phone": "(916) 439-9922", "distance": 69929.86629717555}, {"id": "Mij1ZvLLpqvNmJFWNz9IsQ", "alias": "paquitas-mexican-grill-sacramento-2", "name": "Paquitas Mexican Grill", "image_url": "https://s3-media2.fl.yelpcdn.com/bphoto/Onav96dKMe8cWeFXMNFcyQ/o.jpg", "is_closed": false, "url": "https://www.yelp.com/biz/paquitas-mexican-grill-sacramento-2?adjust_creative=IokN4du3-7NwKcCaUms5LA&utm_campaign=yelp_api_v3&utm_medium=api_v3_business_search&utm_source=IokN4du3-7NwKcCaUms5LA", "review_count": 73, "categories": [{"alias": "foodtrucks", "title": "Food Trucks"}, {"alias": "mexican", "title": "Mexican"}], "rating": 4.0, "coordinates": {"latitude": 38.549732, "longitude": -121.406281}, "transactions": [], "price": "$", "location": {"address1": "49 Bicentennial Cir", "address2": null, "address3": "", "city": "Sacramento", "zip_code": "95826", "country": "US", "state": "CA", "display_address": ["49 Bicentennial Cir", "Sacramento, CA 95826"]}, "phone": "+15308484666", "display_phone": "(530) 848-4666", "distance": 67574.94918218402}, {"id": "4HaUjRfwmHUOoFAeKi84dw", "alias": "mudville-mcs-stockton", "name": "Mudville Mc's", "image_url": "https://s3-media4.fl.yelpcdn.com/bphoto/yOlLV3w6yY7iPmRFJQbA5A/o.jpg", "is_closed": false, "url": "https://www.yelp.com/biz/mudville-mcs-stockton?adjust_creative=IokN4du3-7NwKcCaUms5LA&utm_campaign=yelp_api_v3&utm_medium=api_v3_business_search&utm_source=IokN4du3-7NwKcCaUms5LA", "review_count": 3, "categories": [{"alias": "foodtrucks", "title": "Food Trucks"}, {"alias": "soulfood", "title": "Soul Food"}, {"alias": "spanish", "title": "Spanish"}], "rating": 3.0, "coordinates": {"latitude": 37.9772033691406, "longitude": -121.298080444336}, "transactions": [], "location": {"address1": "", "address2": "", "address3": "", "city": "Stockton", "zip_code": "95204", "country": "US", "state": "CA", "display_address": ["Stockton, CA 95204"]}, "phone": "+16572294627", "display_phone": "(657) 229-4627", "distance": 33750.487678709316}, {"id": "uuouQQIFQ1B9mkmcxaAKFA", "alias": "tacos-el-rey-oakland", "name": "Tacos El Rey", "image_url": "https://s3-media2.fl.yelpcdn.com/bphoto/DblyFrtT9uyPCQAUfPbYbQ/o.jpg", "is_closed": false, "url": "https://www.yelp.com/biz/tacos-el-rey-oakland?adjust_creative=IokN4du3-7NwKcCaUms5LA&utm_campaign=yelp_api_v3&utm_medium=api_v3_business_search&utm_source=IokN4du3-7NwKcCaUms5LA", "review_count": 9, "categories": [{"alias": "foodtrucks", "title": "Food Trucks"}, {"alias": "mexican", "title": "Mexican"}], "rating": 4.0, "coordinates": {"latitude": 37.8294034, "longitude": -122.2875758}, "transactions": [], "price": "$", "location": {"address1": "40th & Horton", "address2": "", "address3": null, "city": "Oakland", "zip_code": "94608", "country": "US", "state": "CA", "display_address": ["40th & Horton", "Oakland, CA 94608"]}, "phone": "+15108130232", "display_phone": "(510) 813-0232", "distance": 53754.62820526229}, {"id": "XTJJ_PUQoJKIh31ZIzsFzw", "alias": "cochinita-food-truck-san-francisco-6", "name": "Cochinita Food Truck", "image_url": "https://s3-media2.fl.yelpcdn.com/bphoto/w77SOd2jVJjOh1lwuYQ42w/o.jpg", "is_closed": false, "url": "https://www.yelp.com/biz/cochinita-food-truck-san-francisco-6?adjust_creative=IokN4du3-7NwKcCaUms5LA&utm_campaign=yelp_api_v3&utm_medium=api_v3_business_search&utm_source=IokN4du3-7NwKcCaUms5LA", "review_count": 49, "categories": [{"alias": "foodtrucks", "title": "Food Trucks"}, {"alias": "mexican", "title": "Mexican"}], "rating": 4.5, "coordinates": {"latitude": 37.770753, "longitude": -122.3916722}, "transactions": [], "price": "$", "location": {"address1": "601 Mission Blvd N", "address2": null, "address3": "", "city": "San Francisco", "zip_code": "94103", "country": "US", "state": "CA", "display_address": ["601 Mission Blvd N", "San Francisco, CA 94103"]}, "phone": "+14159883663", "display_phone": "(415) 988-3663", "distance": 64636.27501567629}]}