{"location": "Petaluma, CA", "term": "restaurant", "radius": 3441, "businesses": [{"id": "RdRNMyNrL-hZ_E3K0T-opw", "alias": "speakeasy-petaluma", "name": "Speakeasy", "image_url": "https://s3-media2.fl.yelpcdn.com/bphoto/w7LZpiU7VX8CA67HvV14Sg/o.jpg", "is_closed": false, "url": "https://www.yelp.com/biz/speakeasy-petaluma?adjust_creative=IokN4du3-7NwKcCaUms5LA&utm_campaign=yelp_api_v3&utm_medium=api_v3_business_search&utm_source=IokN4du3-7NwKcCaUms5LA", "review_count": 525, "categories": [{"alias": "newamerican", "title": "American (New)"}, {"alias": "speakeasies", "title": "Speakeasies"}], "rating": 4.0, "coordinates": {"latitude": 38.23487, "longitude": -122.64098}, "transactions": [], "price": "$$", "location": {"address1": "139 Petaluma Blvd N", "address2": "Ste B", "address3": "", "city": "Petaluma", "zip_code": "94952", "country": "US", "state": "CA", "display_address": ["139 Petaluma Blvd N", "Ste B", "Petaluma, CA 94952"]}, "phone": "+17077764631", "display_phone": "(707) 776-4631", "distance": 1050.3766205162524}, {"id": "BCxrsQG7pKqm0NGvZkITOQ", "alias": "ayawaska-restobar-petaluma", "name": "Ayawaska RestoBar", "image_url": "https://s3-media3.fl.yelpcdn.com/bphoto/KkWaAHM7ybtiPlxaEr4wxA/o.jpg", "is_closed": false, "url": "https://www.yelp.com/biz/ayawaska-restobar-petaluma?adjust_creative=IokN4du3-7NwKcCaUms5LA&utm_campaign=yelp_api_v3&utm_medium=api_v3_business_search&utm_source=IokN4du3-7NwKcCaUms5LA", "review_count": 143, "categories": [{"alias": "peruvian", "title": "Peruvian"}, {"alias": "latin", "title": "Latin American"}, {"alias": "cocktailbars", "title": "Cocktail Bars"}], "rating": 4.5, "coordinates": {"latitude": 38.2337315, "longitude": -122.637704}, "transactions": [], "price": "$$", "location": {"address1": "101 2nd St", "address2": "Ste 190", "address3": "", "city": "Petaluma", "zip_code": "94952", "country": "US", "state": "CA", "display_address": ["101 2nd St", "Ste 190", "Petaluma, CA 94952"]}, "phone": "+17075593519", "display_phone": "(707) 559-3519", "distance": 1038.913649465807}, {"id": "GobSJD7dTF3-zNw4RY-gfA", "alias": "risibisi-restaurant-petaluma", "name": "Risibisi Restaurant", "image_url": "https://s3-media4.fl.yelpcdn.com/bphoto/HTpDW3_DtCuvSqbD8pWGDw/o.jpg", "is_closed": false, "url": "https://www.yelp.com/biz/risibisi-restaurant-petaluma?adjust_creative=IokN4du3-7NwKcCaUms5LA&utm_campaign=yelp_api_v3&utm_medium=api_v3_business_search&utm_source=IokN4du3-7NwKcCaUms5LA", "review_count": 545, "categories": [{"alias": "italian", "title": "Italian"}, {"alias": "wine_bars", "title": "Wine Bars"}, {"alias": "cocktailbars", "title": "Cocktail Bars"}], "rating": 4.0, "coordinates": {"latitude": 38.235264, "longitude": -122.640792}, "transactions": ["restaurant_reservation"], "price": "$$", "location": {"address1": "154 Petaluma Blvd N", "address2": null, "address3": "", "city": "Petaluma", "zip_code": "94952", "country": "US", "state": "CA", "display_address": ["154 Petaluma Blvd N", "Petaluma, CA 94952"]}, "phone": "+17077667600", "display_phone": "(707) 766-7600", "distance": 1005.0793720732755}, {"id": "UmiwKRhUVcr57IWpIfgLsQ", "alias": "cucina-paradiso-petaluma", "name": "Cucina Paradiso", "image_url": "https://s3-media1.fl.yelpcdn.com/bphoto/-oPBio4LkauljvfOgselYw/o.jpg", "is_closed": false, "url": "https://www.yelp.com/biz/cucina-paradiso-petaluma?adjust_creative=IokN4du3-7NwKcCaUms5LA&utm_campaign=yelp_api_v3&utm_medium=api_v3_business_search&utm_source=IokN4du3-7NwKcCaUms5LA", "review_count": 727, "categories": [{"alias": "italian", "title": "Italian"}], "rating": 4.5, "coordinates": {"latitude": 38.23456, "longitude": -122.64019}, "transactions": [], "price": "$$", "location": {"address1": "114 Petaluma Blvd N", "address2": "", "address3": "", "city": "Petaluma", "zip_code": "94952", "country": "US", "state": "CA", "display_address": ["114 Petaluma Blvd N", "Petaluma, CA 94952"]}, "phone": "+17077821130", "display_phone": "(707) 782-1130", "distance": 1050.0305940028454}, {"id": "ytDqNOOgQkKrX9l3MsYEHw", "alias": "trattoria-roma-petaluma", "name": "Trattoria Roma", "image_url": "https://s3-media4.fl.yelpcdn.com/bphoto/DSto99AWsCV8nB8W4zY9cQ/o.jpg", "is_closed": false, "url": "https://www.yelp.com/biz/trattoria-roma-petaluma?adjust_creative=IokN4du3-7NwKcCaUms5LA&utm_campaign=yelp_api_v3&utm_medium=api_v3_business_search&utm_source=IokN4du3-7NwKcCaUms5LA", "review_count": 74, "categories": [{"alias": "italian", "title": "Italian"}], "rating": 4.5, "coordinates": {"latitude": 38.233289, "longitude": -122.637429}, "transactions": [], "location": {"address1": "140 2nd St", "address2": "", "address3": null, "city": "Petaluma", "zip_code": "94952", "country": "US", "state": "CA", "display_address": ["140 2nd St", "Petaluma, CA 94952"]}, "phone": "+17079817807", "display_phone": "(707) 981-7807", "distance": 1104.8494457395323}, {"id": "BKtE9PBeJzDko1UVxNtLgw", "alias": "the-shuckery-petaluma", "name": "The Shuckery", "image_url": "https://s3-media2.fl.yelpcdn.com/bphoto/OcSziHwEdho_5akMRZZzoQ/o.jpg", "is_closed": false, "url": "https://www.yelp.com/biz/the-shuckery-petaluma?adjust_creative=IokN4du3-7NwKcCaUms5LA&utm_campaign=yelp_api_v3&utm_medium=api_v3_business_search&utm_source=IokN4du3-7NwKcCaUms5LA", "review_count": 222, "categories": [{"alias": "seafood", "title": "Seafood"}, {"alias": "bars", "title": "Bars"}], "rating": 4.0, "coordinates": {"latitude": 38.2355600946421, "longitude": -122.642246000469}, "transactions": [], "price": "$$", "location": {"address1": "100 Washington St", "address2": "", "address3": null, "city": "Petaluma", "zip_code": "94952", "country": "US", "state": "CA", "display_address": ["100 Washington St", "Petaluma, CA 94952"]}, "phone": "+17079817891", "display_phone": "(707) 981-7891", "distance": 1049.5465949400184}, {"id": "PV2m0TqN8rw40unYRKnafQ", "alias": "seared-petaluma", "name": "Seared", "image_url": "https://s3-media3.fl.yelpcdn.com/bphoto/2FgQTAjXQ_co1_DaDFwDzA/o.jpg", "is_closed": false, "url": "https://www.yelp.com/biz/seared-petaluma?adjust_creative=IokN4du3-7NwKcCaUms5LA&utm_campaign=yelp_api_v3&utm_medium=api_v3_business_search&utm_source=IokN4du3-7NwKcCaUms5LA", "review_count": 615, "categories": [{"alias": "seafood", "title": "Seafood"}, {"alias": "steak", "title": "Steakhouses"}, {"alias": "sportsbars", "title": "Sports Bars"}], "rating": 4.0, "coordinates": {"latitude": 38.23549, "longitude": -122.64065}, "transactions": ["restaurant_reservation"], "price": "$$$", "location": {"address1": "170 Petaluma Blvd N", "address2": "", "address3": "", "city": "Petaluma", "zip_code": "94952", "country": "US", "state": "CA", "display_address": ["170 Petaluma Blvd N", "Petaluma, CA 94952"]}, "phone": "+17077625997", "display_phone": "(707) 762-5997", "distance": 978.180400537735}, {"id": "mCEMNoqCcBXnMrWiHzDyOA", "alias": "stockhome-petaluma", "name": "Stockhome", "image_url": "https://s3-media1.fl.yelpcdn.com/bphoto/jRCO2llTLt-d5zUUBothPw/o.jpg", "is_closed": false, "url": "https://www.yelp.com/biz/stockhome-petaluma?adjust_creative=IokN4du3-7NwKcCaUms5LA&utm_campaign=yelp_api_v3&utm_medium=api_v3_business_search&utm_source=IokN4du3-7NwKcCaUms5LA", "review_count": 172, "categories": [{"alias": "mediterranean", "title": "Mediterranean"}, {"alias": "scandinavian", "title": "Scandinavian"}], "rating": 4.5, "coordinates": {"latitude": 38.2334818, "longitude": -122.6423829}, "transactions": [], "price": "$$", "location": {"address1": "220 Western Ave", "address2": "", "address3": null, "city": "Petaluma", "zip_code": "94952", "country": "US", "state": "CA", "display_address": ["220 Western Ave", "Petaluma, CA 94952"]}, "phone": "+17079818511", "display_phone": "(707) 981-8511", "distance": 1270.8486054875664}, {"id": "M2ih1HOeNI7nUdoZA0MAwg", "alias": "wild-goat-bistro-petaluma", "name": "Wild Goat Bistro", "image_url": "https://s3-media1.fl.yelpcdn.com/bphoto/ny_3dwWABNjEDStl_ax40g/o.jpg", "is_closed": false, "url": "https://www.yelp.com/biz/wild-goat-bistro-petaluma?adjust_creative=IokN4du3-7NwKcCaUms5LA&utm_campaign=yelp_api_v3&utm_medium=api_v3_business_search&utm_source=IokN4du3-7NwKcCaUms5LA", "review_count": 730, "categories": [{"alias": "pizza", "title": "Pizza"}, {"alias": "newamerican", "title": "American (New)"}, {"alias": "gluten_free", "title": "Gluten-Free"}], "rating": 4.0, "coordinates": {"latitude": 38.234133, "longitude": -122.639032}, "transactions": [], "price": "$$", "location": {"address1": "6 Petaluma Blvd N", "address2": "Ste A5", "address3": "", "city": "Petaluma", "zip_code": "94952", "country": "US", "state": "CA", "display_address": ["6 Petaluma Blvd N", "Ste A5", "Petaluma, CA 94952"]}, "phone": "+17076581156", "display_phone": "(707) 658-1156", "distance": 1052.6617152412584}, {"id": "4oxo_cE74uYgmz2mlRTsyw", "alias": "what-a-chicken-petaluma", "name": "What A Chicken", "image_url": "https://s3-media3.fl.yelpcdn.com/bphoto/GwbKs6me_uje8-Ns9eu3Tg/o.jpg", "is_closed": false, "url": "https://www.yelp.com/biz/what-a-chicken-petaluma?adjust_creative=IokN4du3-7NwKcCaUms5LA&utm_campaign=yelp_api_v3&utm_medium=api_v3_business_search&utm_source=IokN4du3-7NwKcCaUms5LA", "review_count": 335, "categories": [{"alias": "mexican", "title": "Mexican"}], "rating": 4.5, "coordinates": {"latitude": 38.24105, "longitude": -122.63294}, "transactions": [], "price": "$$", "location": {"address1": "706 E Washington St", "address2": "", "address3": null, "city": "Petaluma", "zip_code": "94952", "country": "US", "state": "CA", "display_address": ["706 E Washington St", "Petaluma, CA 94952"]}, "phone": "+17079717549", "display_phone": "(707) 971-7549", "distance": 264.8223333136636}, {"id": "94P3UQLtt0z3MdT9QAg36Q", "alias": "rosens-256-north-petaluma", "name": "Rosen's 256 North", "image_url": "https://s3-media3.fl.yelpcdn.com/bphoto/o4JsKinYWKhEQCRQi0MlTQ/o.jpg", "is_closed": false, "url": "https://www.yelp.com/biz/rosens-256-north-petaluma?adjust_creative=IokN4du3-7NwKcCaUms5LA&utm_campaign=yelp_api_v3&utm_medium=api_v3_business_search&utm_source=IokN4du3-7NwKcCaUms5LA", "review_count": 244, "categories": [{"alias": "tradamerican", "title": "American (Traditional)"}], "rating": 3.5, "coordinates": {"latitude": 38.23729, "longitude": -122.64104}, "transactions": ["restaurant_reservation"], "price": "$$", "location": {"address1": "256 Petaluma Blvd N", "address2": null, "address3": null, "city": "Petaluma", "zip_code": "94952", "country": "US", "state": "CA", "display_address": ["256 Petaluma Blvd N", "Petaluma, CA 94952"]}, "phone": "+17077660799", "display_phone": "(707) 766-0799", "distance": 875.2793039580866}, {"id": "881XibsEOmKAkfgGtzcq9w", "alias": "soban-korean-cuisine-petaluma", "name": "Soban Korean Cuisine", "image_url": "https://s3-media1.fl.yelpcdn.com/bphoto/pTZwj5XnOnQ4LVToqBdvnw/o.jpg", "is_closed": false, "url": "https://www.yelp.com/biz/soban-korean-cuisine-petaluma?adjust_creative=IokN4du3-7NwKcCaUms5LA&utm_campaign=yelp_api_v3&utm_medium=api_v3_business_search&utm_source=IokN4du3-7NwKcCaUms5LA", "review_count": 217, "categories": [{"alias": "korean", "title": "Korean"}], "rating": 4.5, "coordinates": {"latitude": 38.2493072835967, "longitude": -122.630199068012}, "transactions": [], "price": "$$", "location": {"address1": "255 N McDowell Blvd", "address2": "", "address3": "", "city": "Petaluma", "zip_code": "94954", "country": "US", "state": "CA", "display_address": ["255 N McDowell Blvd", "Petaluma, CA 94954"]}, "phone": "+17077693112", "display_phone": "(707) 769-3112", "distance": 809.9392838499385}, {"id": "9AxRS4mSKY6zEdXYPnz78g", "alias": "alfredos-italian-restaurant-petaluma", "name": "Alfredo's Italian Restaurant", "image_url": "https://s3-media2.fl.yelpcdn.com/bphoto/nK2d6pD1LqnwBKKcpL-70Q/o.jpg", "is_closed": false, "url": "https://www.yelp.com/biz/alfredos-italian-restaurant-petaluma?adjust_creative=IokN4du3-7NwKcCaUms5LA&utm_campaign=yelp_api_v3&utm_medium=api_v3_business_search&utm_source=IokN4du3-7NwKcCaUms5LA", "review_count": 236, "categories": [{"alias": "italian", "title": "Italian"}], "rating": 4.5, "coordinates": {"latitude": 38.2499355, "longitude": -122.6250415}, "transactions": ["pickup", "delivery"], "price": "$$", "location": {"address1": "1426 E Washington St", "address2": null, "address3": "", "city": "Petaluma", "zip_code": "94954", "country": "US", "state": "CA", "display_address": ["1426 E Washington St", "Petaluma, CA 94954"]}, "phone": "+17077820500", "display_phone": "(707) 782-0500", "distance": 1155.7633745316466}, {"id": "1cPHC4mUp_8-sGL2UZzDfg", "alias": "pearl-petaluma-2", "name": "Pearl", "image_url": "https://s3-media3.fl.yelpcdn.com/bphoto/pBovvdD8eKF-owepu_tvqg/o.jpg", "is_closed": false, "url": "https://www.yelp.com/biz/pearl-petaluma-2?adjust_creative=IokN4du3-7NwKcCaUms5LA&utm_campaign=yelp_api_v3&utm_medium=api_v3_business_search&utm_source=IokN4du3-7NwKcCaUms5LA", "review_count": 125, "categories": [{"alias": "bars", "title": "Bars"}, {"alias": "mediterranean", "title": "Mediterranean"}, {"alias": "breakfast_brunch", "title": "Breakfast & Brunch"}], "rating": 4.5, "coordinates": {"latitude": 38.23211, "longitude": -122.6321}, "transactions": [], "price": "$$", "location": {"address1": "500 1st St", "address2": "", "address3": null, "city": "Petaluma", "zip_code": "94952", "country": "US", "state": "CA", "display_address": ["500 1st St", "Petaluma, CA 94952"]}, "phone": "+17075595187", "display_phone": "(707) 559-5187", "distance": 1235.5628720893085}, {"id": "3EHeOAm_t2k0zPTvkqMRUw", "alias": "whisper-sisters-petaluma", "name": "Whisper Sisters", "image_url": "https://s3-media1.fl.yelpcdn.com/bphoto/_veYvNf98gVa0-7MMIiLMg/o.jpg", "is_closed": false, "url": "https://www.yelp.com/biz/whisper-sisters-petaluma?adjust_creative=IokN4du3-7NwKcCaUms5LA&utm_campaign=yelp_api_v3&utm_medium=api_v3_business_search&utm_source=IokN4du3-7NwKcCaUms5LA", "review_count": 63, "categories": [{"alias": "cocktailbars", "title": "Cocktail Bars"}, {"alias": "newamerican", "title": "American (New)"}, {"alias": "coffee", "title": "Coffee & Tea"}], "rating": 4.5, "coordinates": {"latitude": 38.235401, "longitude": -122.6418083}, "transactions": [], "location": {"address1": "190 Kentucky St", "address2": null, "address3": "", "city": "Petaluma", "zip_code": "94952", "country": "US", "state": "CA", "display_address": ["190 Kentucky St", "Petaluma, CA 94952"]}, "phone": "+17077746689", "display_phone": "(707) 774-6689", "distance": 1040.936681333623}, {"id": "eX7cJfUBRE2pvGgevjm2TA", "alias": "central-market-petaluma", "name": "Central Market", "image_url": "https://s3-media3.fl.yelpcdn.com/bphoto/U5YjcAnqFurUGlAMEDVq9w/o.jpg", "is_closed": false, "url": "https://www.yelp.com/biz/central-market-petaluma?adjust_creative=IokN4du3-7NwKcCaUms5LA&utm_campaign=yelp_api_v3&utm_medium=api_v3_business_search&utm_source=IokN4du3-7NwKcCaUms5LA", "review_count": 643, "categories": [{"alias": "newamerican", "title": "American (New)"}, {"alias": "wine_bars", "title": "Wine Bars"}], "rating": 4.0, "coordinates": {"latitude": 38.2336734, "longitude": -122.6396226}, "transactions": [], "price": "$$$", "location": {"address1": "42 Petaluma Blvd N", "address2": "", "address3": "", "city": "Petaluma", "zip_code": "94952", "country": "US", "state": "CA", "display_address": ["42 Petaluma Blvd N", "Petaluma, CA 94952"]}, "phone": "+17077789900", "display_phone": "(707) 778-9900", "distance": 1094.186882415904}, {"id": "t37MsI40xC-n_64XVnXloA", "alias": "wishbone-petaluma", "name": "Wishbone", "image_url": "https://s3-media1.fl.yelpcdn.com/bphoto/j43LfuuZu0UXL8Dl_PRUVQ/o.jpg", "is_closed": false, "url": "https://www.yelp.com/biz/wishbone-petaluma?adjust_creative=IokN4du3-7NwKcCaUms5LA&utm_campaign=yelp_api_v3&utm_medium=api_v3_business_search&utm_source=IokN4du3-7NwKcCaUms5LA", "review_count": 625, "categories": [{"alias": "newamerican", "title": "American (New)"}, {"alias": "breakfast_brunch", "title": "Breakfast & Brunch"}, {"alias": "bars", "title": "Bars"}], "rating": 4.0, "coordinates": {"latitude": 38.2447399, "longitude": -122.6450372}, "transactions": [], "price": "$$", "location": {"address1": "841 Petaluma Blvd N", "address2": "", "address3": "", "city": "Petaluma", "zip_code": "94952", "country": "US", "state": "CA", "display_address": ["841 Petaluma Blvd N", "Petaluma, CA 94952"]}, "phone": "+17077632663", "display_phone": "(707) 763-2663", "distance": 906.6973996110804}, {"id": "HgtmAiRt2HufM2sySNS6OA", "alias": "saxs-joint-petaluma", "name": "Sax's Joint", "image_url": "https://s3-media4.fl.yelpcdn.com/bphoto/mvj3gsm0Du5qxIxxyh3kIw/o.jpg", "is_closed": false, "url": "https://www.yelp.com/biz/saxs-joint-petaluma?adjust_creative=IokN4du3-7NwKcCaUms5LA&utm_campaign=yelp_api_v3&utm_medium=api_v3_business_search&utm_source=IokN4du3-7NwKcCaUms5LA", "review_count": 956, "categories": [{"alias": "breakfast_brunch", "title": "Breakfast & Brunch"}, {"alias": "diners", "title": "Diners"}, {"alias": "burgers", "title": "Burgers"}], "rating": 4.5, "coordinates": {"latitude": 38.2318385960112, "longitude": -122.63489574194}, "transactions": ["pickup"], "price": "$$", "location": {"address1": "317 Petaluma Blvd S", "address2": "", "address3": "", "city": "Petaluma", "zip_code": "94952", "country": "US", "state": "CA", "display_address": ["317 Petaluma Blvd S", "Petaluma, CA 94952"]}, "phone": "+17075593021", "display_phone": "(707) 559-3021", "distance": 1243.6038237066407}, {"id": "chcy5OiTcxXXi9U_nYCR4A", "alias": "pho-sonoma-vietnamese-cuisine-petaluma", "name": "Pho Sonoma Vietnamese Cuisine", "image_url": "https://s3-media3.fl.yelpcdn.com/bphoto/boCwI_2OUwmoBdP1SqR8Qg/o.jpg", "is_closed": false, "url": "https://www.yelp.com/biz/pho-sonoma-vietnamese-cuisine-petaluma?adjust_creative=IokN4du3-7NwKcCaUms5LA&utm_campaign=yelp_api_v3&utm_medium=api_v3_business_search&utm_source=IokN4du3-7NwKcCaUms5LA", "review_count": 166, "categories": [{"alias": "vietnamese", "title": "Vietnamese"}], "rating": 4.5, "coordinates": {"latitude": 38.23328, "longitude": -122.63763}, "transactions": [], "price": "$$", "location": {"address1": "140 Second St", "address2": "Ste 120", "address3": "Petaluma theatre square", "city": "Petaluma", "zip_code": "94952", "country": "US", "state": "CA", "display_address": ["140 Second St", "Ste 120", "Petaluma theatre square", "Petaluma, CA 94952"]}, "phone": "+17077626888", "display_phone": "(707) 762-6888", "distance": 1109.4865369557933}, {"id": "sxQAhtrrGIC9zjSRoumvig", "alias": "water-street-bistro-petaluma", "name": "Water Street Bistro", "image_url": "https://s3-media3.fl.yelpcdn.com/bphoto/cte7lm3gHkdyflbxTa8Btg/o.jpg", "is_closed": false, "url": "https://www.yelp.com/biz/water-street-bistro-petaluma?adjust_creative=IokN4du3-7NwKcCaUms5LA&utm_campaign=yelp_api_v3&utm_medium=api_v3_business_search&utm_source=IokN4du3-7NwKcCaUms5LA", "review_count": 225, "categories": [{"alias": "french", "title": "French"}, {"alias": "breakfast_brunch", "title": "Breakfast & Brunch"}], "rating": 4.5, "coordinates": {"latitude": 38.2342801153826, "longitude": -122.639940440894}, "transactions": [], "price": "$$", "location": {"address1": "100 Petaluma Blvd N", "address2": "Ste 106", "address3": "", "city": "Petaluma", "zip_code": "94952", "country": "US", "state": "CA", "display_address": ["100 Petaluma Blvd N", "Ste 106", "Petaluma, CA 94952"]}, "phone": "+17077639563", "display_phone": "(707) 763-9563", "distance": 1067.5923592783201}, {"id": "ZkEZePZ86Umt-D5QE4hVoQ", "alias": "lombardis-gourmet-deli-and-bbq-petaluma", "name": "Lombardi's Gourmet Deli & BBQ", "image_url": "https://s3-media1.fl.yelpcdn.com/bphoto/Gw3ITjc2S7BAmvMouzwyUg/o.jpg", "is_closed": false, "url": "https://www.yelp.com/biz/lombardis-gourmet-deli-and-bbq-petaluma?adjust_creative=IokN4du3-7NwKcCaUms5LA&utm_campaign=yelp_api_v3&utm_medium=api_v3_business_search&utm_source=IokN4du3-7NwKcCaUms5LA", "review_count": 576, "categories": [{"alias": "bbq", "title": "Barbeque"}, {"alias": "delis", "title": "Delis"}], "rating": 4.0, "coordinates": {"latitude": 38.25973, "longitude": -122.66156}, "transactions": [], "price": "$$", "location": {"address1": "3413 Petaluma Blvd N", "address2": "", "address3": "", "city": "Petaluma", "zip_code": "94952", "country": "US", "state": "CA", "display_address": ["3413 Petaluma Blvd N", "Petaluma, CA 94952"]}, "phone": "+17077731271", "display_phone": "(707) 773-1271", "distance": 2969.2838876569513}, {"id": "HA-qshlhowWDx4O4ND_NSQ", "alias": "sake107-petaluma", "name": "Sake107", "image_url": "https://s3-media3.fl.yelpcdn.com/bphoto/LyxrcjyZTerq_rBp6x3v3g/o.jpg", "is_closed": false, "url": "https://www.yelp.com/biz/sake107-petaluma?adjust_creative=IokN4du3-7NwKcCaUms5LA&utm_campaign=yelp_api_v3&utm_medium=api_v3_business_search&utm_source=IokN4du3-7NwKcCaUms5LA", "review_count": 158, "categories": [{"alias": "japanese", "title": "Japanese"}, {"alias": "sushi", "title": "Sushi Bars"}], "rating": 5.0, "coordinates": {"latitude": 38.23426, "longitude": -122.64066}, "transactions": [], "price": "$$$", "location": {"address1": "107 Petaluma Blvd N", "address2": null, "address3": "", "city": "Petaluma", "zip_code": "94952", "country": "US", "state": "CA", "display_address": ["107 Petaluma Blvd N", "Petaluma, CA 94952"]}, "phone": "+17072417580", "display_phone": "(707) 241-7580", "distance": 1097.4955627909383}, {"id": "r9l3Ldxfql2eoLiLV2oaiw", "alias": "real-doner-petaluma-4", "name": "Real Doner", "image_url": "https://s3-media3.fl.yelpcdn.com/bphoto/P_bCuo-Forv8k_EqmgjmWw/o.jpg", "is_closed": false, "url": "https://www.yelp.com/biz/real-doner-petaluma-4?adjust_creative=IokN4du3-7NwKcCaUms5LA&utm_campaign=yelp_api_v3&utm_medium=api_v3_business_search&utm_source=IokN4du3-7NwKcCaUms5LA", "review_count": 409, "categories": [{"alias": "turkish", "title": "Turkish"}, {"alias": "mediterranean", "title": "Mediterranean"}], "rating": 4.0, "coordinates": {"latitude": 38.23128, "longitude": -122.63444}, "transactions": [], "price": "$$", "location": {"address1": "307 F St", "address2": "", "address3": "", "city": "Petaluma", "zip_code": "94952", "country": "US", "state": "CA", "display_address": ["307 F St", "Petaluma, CA 94952"]}, "phone": "+17077659555", "display_phone": "(707) 765-9555", "distance": 1312.7608917204743}, {"id": "YjSX09i1YRIcgn3X5dbF5Q", "alias": "sugo-trattoria-petaluma", "name": "Sugo Trattoria", "image_url": "https://s3-media1.fl.yelpcdn.com/bphoto/KZmSUWbN8Nnra5_UbGUqmw/o.jpg", "is_closed": false, "url": "https://www.yelp.com/biz/sugo-trattoria-petaluma?adjust_creative=IokN4du3-7NwKcCaUms5LA&utm_campaign=yelp_api_v3&utm_medium=api_v3_business_search&utm_source=IokN4du3-7NwKcCaUms5LA", "review_count": 413, "categories": [{"alias": "italian", "title": "Italian"}], "rating": 4.0, "coordinates": {"latitude": 38.233402, "longitude": -122.6389361}, "transactions": [], "price": "$$", "location": {"address1": "5 Petaluma Blvd S", "address2": "Unit B", "address3": "", "city": "Petaluma", "zip_code": "94952", "country": "US", "state": "CA", "display_address": ["5 Petaluma Blvd S", "Unit B", "Petaluma, CA 94952"]}, "phone": "+17077829298", "display_phone": "(707) 782-9298", "distance": 1114.778011422535}, {"id": "vH7hGVxlG-4lcIZvi5lqSA", "alias": "brewsters-beer-garden-petaluma", "name": "Brewsters Beer Garden", "image_url": "https://s3-media2.fl.yelpcdn.com/bphoto/enduNc7rXMpWesNY62-oNw/o.jpg", "is_closed": false, "url": "https://www.yelp.com/biz/brewsters-beer-garden-petaluma?adjust_creative=IokN4du3-7NwKcCaUms5LA&utm_campaign=yelp_api_v3&utm_medium=api_v3_business_search&utm_source=IokN4du3-7NwKcCaUms5LA", "review_count": 623, "categories": [{"alias": "bbq", "title": "Barbeque"}, {"alias": "beergardens", "title": "Beer Gardens"}], "rating": 3.5, "coordinates": {"latitude": 38.2362728092132, "longitude": -122.640722511555}, "transactions": [], "price": "$$", "location": {"address1": "229 Water St N", "address2": "", "address3": null, "city": "Petaluma", "zip_code": "94952", "country": "US", "state": "CA", "display_address": ["229 Water St N", "Petaluma, CA 94952"]}, "phone": "+17079818330", "display_phone": "(707) 981-8330", "distance": 884.9395331418829}, {"id": "4mQJeBmqcMsacMkitgrylw", "alias": "cafe-zazzle-petaluma", "name": "Cafe Zazzle", "image_url": "https://s3-media4.fl.yelpcdn.com/bphoto/-S6CUS6LLWh1ViSEreq3mQ/o.jpg", "is_closed": false, "url": "https://www.yelp.com/biz/cafe-zazzle-petaluma?adjust_creative=IokN4du3-7NwKcCaUms5LA&utm_campaign=yelp_api_v3&utm_medium=api_v3_business_search&utm_source=IokN4du3-7NwKcCaUms5LA", "review_count": 449, "categories": [{"alias": "newamerican", "title": "American (New)"}, {"alias": "noodles", "title": "Noodles"}, {"alias": "wraps", "title": "Wraps"}], "rating": 4.0, "coordinates": {"latitude": 38.2341097, "longitude": -122.641515}, "transactions": [], "price": "$$", "location": {"address1": "121 Kentucky St", "address2": "", "address3": "", "city": "Petaluma", "zip_code": "94952", "country": "US", "state": "CA", "display_address": ["121 Kentucky St", "Petaluma, CA 94952"]}, "phone": "+17077621700", "display_phone": "(707) 762-1700", "distance": 1143.5817185172814}, {"id": "7mfUPWdDP-GMznxKPr34Aw", "alias": "simmer-vietnamese-kitchen-petaluma", "name": "Simmer Vietnamese Kitchen", "image_url": "https://s3-media2.fl.yelpcdn.com/bphoto/2gG3ZaFGmQ9flXwWw9niuA/o.jpg", "is_closed": false, "url": "https://www.yelp.com/biz/simmer-vietnamese-kitchen-petaluma?adjust_creative=IokN4du3-7NwKcCaUms5LA&utm_campaign=yelp_api_v3&utm_medium=api_v3_business_search&utm_source=IokN4du3-7NwKcCaUms5LA", "review_count": 371, "categories": [{"alias": "vietnamese", "title": "Vietnamese"}], "rating": 4.0, "coordinates": {"latitude": 38.2518594, "longitude": -122.6306112}, "transactions": [], "price": "$$", "location": {"address1": "299 N McDowell Blvd", "address2": "", "address3": "", "city": "Petaluma", "zip_code": "94954", "country": "US", "state": "CA", "display_address": ["299 N McDowell Blvd", "Petaluma, CA 94954"]}, "phone": "+17077624288", "display_phone": "(707) 762-4288", "distance": 1051.1798677953561}, {"id": "9uot_li_lVqQH5xMdvWt5A", "alias": "el-roys-mexican-grill-petaluma-2", "name": "El Roy's Mexican Grill", "image_url": "https://s3-media1.fl.yelpcdn.com/bphoto/yK83BQ5vSi7w5GgqZvvBEQ/o.jpg", "is_closed": false, "url": "https://www.yelp.com/biz/el-roys-mexican-grill-petaluma-2?adjust_creative=IokN4du3-7NwKcCaUms5LA&utm_campaign=yelp_api_v3&utm_medium=api_v3_business_search&utm_source=IokN4du3-7NwKcCaUms5LA", "review_count": 285, "categories": [{"alias": "mexican", "title": "Mexican"}], "rating": 4.5, "coordinates": {"latitude": 38.23972, "longitude": -122.633994}, "transactions": [], "price": "$", "location": {"address1": "210 Edith St", "address2": "", "address3": "", "city": "Petaluma", "zip_code": "94952", "country": "US", "state": "CA", "display_address": ["210 Edith St", "Petaluma, CA 94952"]}, "phone": "+17077743738", "display_phone": "(707) 774-3738", "distance": 375.4349654219656}, {"id": "CjwyLWT0Tp-_a6PyXrXvCA", "alias": "oyama-sushi-petaluma", "name": "Oyama Sushi", "image_url": "https://s3-media3.fl.yelpcdn.com/bphoto/YfU6BSfHqEBxdq8K5Mv6tQ/o.jpg", "is_closed": false, "url": "https://www.yelp.com/biz/oyama-sushi-petaluma?adjust_creative=IokN4du3-7NwKcCaUms5LA&utm_campaign=yelp_api_v3&utm_medium=api_v3_business_search&utm_source=IokN4du3-7NwKcCaUms5LA", "review_count": 31, "categories": [{"alias": "sushi", "title": "Sushi Bars"}], "rating": 4.5, "coordinates": {"latitude": 38.24970383, "longitude": -122.62857067}, "transactions": [], "location": {"address1": "175 N McDowell Blvd", "address2": "", "address3": null, "city": "Petaluma", "zip_code": "94954", "country": "US", "state": "CA", "display_address": ["175 N McDowell Blvd", "Petaluma, CA 94954"]}, "phone": "+17077746687", "display_phone": "(707) 774-6687", "distance": 936.2148455425048}, {"id": "qtL_Pje93IDhqHxWHdtruQ", "alias": "fantasy-restaurant-petaluma-4", "name": "Fantasy Restaurant", "image_url": "https://s3-media4.fl.yelpcdn.com/bphoto/IFvJFABdN3Gi8rcpLA-_tw/o.jpg", "is_closed": false, "url": "https://www.yelp.com/biz/fantasy-restaurant-petaluma-4?adjust_creative=IokN4du3-7NwKcCaUms5LA&utm_campaign=yelp_api_v3&utm_medium=api_v3_business_search&utm_source=IokN4du3-7NwKcCaUms5LA", "review_count": 137, "categories": [{"alias": "cantonese", "title": "Cantonese"}, {"alias": "bbq", "title": "Barbeque"}, {"alias": "hotpot", "title": "Hot Pot"}], "rating": 4.0, "coordinates": {"latitude": 38.2510171153516, "longitude": -122.62394092977}, "transactions": [], "price": "$$", "location": {"address1": "1520 E Washington St", "address2": "", "address3": "", "city": "Petaluma", "zip_code": "94954", "country": "US", "state": "CA", "display_address": ["1520 E Washington St", "Petaluma, CA 94954"]}, "phone": "+17076581866", "display_phone": "(707) 658-1866", "distance": 1305.3965694814951}, {"id": "_pJssUwH8md_WGRwA_oEYA", "alias": "fourth-and-sea-fish-and-chips-petaluma", "name": "Fourth and Sea Fish & Chips", "image_url": "https://s3-media3.fl.yelpcdn.com/bphoto/-wwILbHgj850JElUP2AoVg/o.jpg", "is_closed": false, "url": "https://www.yelp.com/biz/fourth-and-sea-fish-and-chips-petaluma?adjust_creative=IokN4du3-7NwKcCaUms5LA&utm_campaign=yelp_api_v3&utm_medium=api_v3_business_search&utm_source=IokN4du3-7NwKcCaUms5LA", "review_count": 347, "categories": [{"alias": "hotdog", "title": "Hot Dogs"}, {"alias": "burgers", "title": "Burgers"}, {"alias": "seafood", "title": "Seafood"}], "rating": 4.5, "coordinates": {"latitude": 38.2323499, "longitude": -122.63807}, "transactions": [], "price": "$$", "location": {"address1": "101 4th St", "address2": "", "address3": "", "city": "Petaluma", "zip_code": "94952", "country": "US", "state": "CA", "display_address": ["101 4th St", "Petaluma, CA 94952"]}, "phone": "+17077626424", "display_phone": "(707) 762-6424", "distance": 1224.0975074112557}, {"id": "qvpOeVU6qL8zfxTRl3nDjg", "alias": "old-chicago-pizza-petaluma", "name": "Old Chicago Pizza", "image_url": "https://s3-media2.fl.yelpcdn.com/bphoto/iUn9q7x9FNnbdVsaOHRtbw/o.jpg", "is_closed": false, "url": "https://www.yelp.com/biz/old-chicago-pizza-petaluma?adjust_creative=IokN4du3-7NwKcCaUms5LA&utm_campaign=yelp_api_v3&utm_medium=api_v3_business_search&utm_source=IokN4du3-7NwKcCaUms5LA", "review_count": 709, "categories": [{"alias": "pizza", "title": "Pizza"}, {"alias": "wine_bars", "title": "Wine Bars"}, {"alias": "beerbar", "title": "Beer Bar"}], "rating": 4.0, "coordinates": {"latitude": 38.2336231671247, "longitude": -122.640311676761}, "transactions": [], "price": "$$", "location": {"address1": "41 Petaluma Blvd N", "address2": "", "address3": "", "city": "Petaluma", "zip_code": "94952", "country": "US", "state": "CA", "display_address": ["41 Petaluma Blvd N", "Petaluma, CA 94952"]}, "phone": "+17077633897", "display_phone": "(707) 763-3897", "distance": 1147.5119018814542}, {"id": "8TWVySq5-RUbWL2uVSRigg", "alias": "quinua-restaurant-cocina-peruana-petaluma", "name": "Quinua Restaurant Cocina Peruana", "image_url": "https://s3-media3.fl.yelpcdn.com/bphoto/hxYpDAMNPMv36I0LulL-eg/o.jpg", "is_closed": false, "url": "https://www.yelp.com/biz/quinua-restaurant-cocina-peruana-petaluma?adjust_creative=IokN4du3-7NwKcCaUms5LA&utm_campaign=yelp_api_v3&utm_medium=api_v3_business_search&utm_source=IokN4du3-7NwKcCaUms5LA", "review_count": 197, "categories": [{"alias": "peruvian", "title": "Peruvian"}, {"alias": "diners", "title": "Diners"}, {"alias": "wine_bars", "title": "Wine Bars"}], "rating": 4.0, "coordinates": {"latitude": 38.2307944, "longitude": -122.6329231}, "transactions": [], "price": "$$", "location": {"address1": "500 Petaluma Blvd S", "address2": "", "address3": "", "city": "Petaluma", "zip_code": "94952", "country": "US", "state": "CA", "display_address": ["500 Petaluma Blvd S", "Petaluma, CA 94952"]}, "phone": "+17079817359", "display_phone": "(707) 981-7359", "distance": 1373.4292413864944}, {"id": "Xz6tJQq0ai7oq2CtJO690A", "alias": "hanks-petaluma-petaluma", "name": "Hank's Petaluma", "image_url": "https://s3-media2.fl.yelpcdn.com/bphoto/IbaWt26Mm6gxrxAf-Iw89g/o.jpg", "is_closed": false, "url": "https://www.yelp.com/biz/hanks-petaluma-petaluma?adjust_creative=IokN4du3-7NwKcCaUms5LA&utm_campaign=yelp_api_v3&utm_medium=api_v3_business_search&utm_source=IokN4du3-7NwKcCaUms5LA", "review_count": 13, "categories": [{"alias": "pizza", "title": "Pizza"}, {"alias": "italian", "title": "Italian"}, {"alias": "wine_bars", "title": "Wine Bars"}], "rating": 3.5, "coordinates": {"latitude": 38.23294, "longitude": -122.63717}, "transactions": [], "price": "$$", "location": {"address1": "151 Petaluma Blvd S", "address2": "Ste 123", "address3": null, "city": "Petaluma", "zip_code": "94952", "country": "US", "state": "CA", "display_address": ["151 Petaluma Blvd S", "Ste 123", "Petaluma, CA 94952"]}, "phone": "", "display_phone": "", "distance": 1123.6441223356521}, {"id": "TND2gH2BO0KoRMUWdpxX3w", "alias": "lemongrass-thai-cuisine-petaluma", "name": "Lemongrass Thai Cuisine", "image_url": "https://s3-media3.fl.yelpcdn.com/bphoto/velSc68zx8_U2CrLhot22g/o.jpg", "is_closed": false, "url": "https://www.yelp.com/biz/lemongrass-thai-cuisine-petaluma?adjust_creative=IokN4du3-7NwKcCaUms5LA&utm_campaign=yelp_api_v3&utm_medium=api_v3_business_search&utm_source=IokN4du3-7NwKcCaUms5LA", "review_count": 337, "categories": [{"alias": "thai", "title": "Thai"}], "rating": 4.0, "coordinates": {"latitude": 38.2487024033913, "longitude": -122.626956469619}, "transactions": ["pickup", "delivery"], "price": "$$", "location": {"address1": "109 N McDowell Blvd", "address2": "", "address3": "", "city": "Petaluma", "zip_code": "94954", "country": "US", "state": "CA", "display_address": ["109 N McDowell Blvd", "Petaluma, CA 94954"]}, "phone": "+17077899777", "display_phone": "(707) 789-9777", "distance": 937.3337151778178}, {"id": "Cw_bHLTra1GQeA8SKtuKpQ", "alias": "everest-indian-restaurant-petaluma", "name": "Everest Indian Restaurant", "image_url": "https://s3-media4.fl.yelpcdn.com/bphoto/X7YQaNhJJ2Vlxfhr2gQ94A/o.jpg", "is_closed": false, "url": "https://www.yelp.com/biz/everest-indian-restaurant-petaluma?adjust_creative=IokN4du3-7NwKcCaUms5LA&utm_campaign=yelp_api_v3&utm_medium=api_v3_business_search&utm_source=IokN4du3-7NwKcCaUms5LA", "review_count": 251, "categories": [{"alias": "indpak", "title": "Indian"}, {"alias": "himalayan", "title": "Himalayan/Nepalese"}], "rating": 4.0, "coordinates": {"latitude": 38.2351254639427, "longitude": -122.638739782199}, "transactions": ["pickup"], "price": "$$", "location": {"address1": "56 E Washington St", "address2": "", "address3": "", "city": "Petaluma", "zip_code": "94952", "country": "US", "state": "CA", "display_address": ["56 E Washington St", "Petaluma, CA 94952"]}, "phone": "+17077819131", "display_phone": "(707) 781-9131", "distance": 940.3614095469311}, {"id": "M3Hnzun4bvzVbp2paBFXUw", "alias": "chili-joes-petaluma", "name": "Chili Joe's", "image_url": "https://s3-media2.fl.yelpcdn.com/bphoto/t_1fHpcqQuVQ4QhH1ZZLoA/o.jpg", "is_closed": false, "url": "https://www.yelp.com/biz/chili-joes-petaluma?adjust_creative=IokN4du3-7NwKcCaUms5LA&utm_campaign=yelp_api_v3&utm_medium=api_v3_business_search&utm_source=IokN4du3-7NwKcCaUms5LA", "review_count": 58, "categories": [{"alias": "burgers", "title": "Burgers"}, {"alias": "hotdog", "title": "Hot Dogs"}, {"alias": "tradamerican", "title": "American (Traditional)"}], "rating": 4.5, "coordinates": {"latitude": 38.23157, "longitude": -122.63518}, "transactions": [], "price": "$", "location": {"address1": "312 Petaluma Blvd S", "address2": "", "address3": null, "city": "Petaluma", "zip_code": "94952", "country": "US", "state": "CA", "display_address": ["312 Petaluma Blvd S", "Petaluma, CA 94952"]}, "phone": "+17079717537", "display_phone": "(707) 971-7537", "distance": 1268.6404057417162}, {"id": "WxoKPeoydZDUktFRNsZ_7w", "alias": "wine-or-lose-board-game-cafe-petaluma", "name": "Wine or Lose Board Game Cafe", "image_url": "https://s3-media3.fl.yelpcdn.com/bphoto/KRJvB5HGT1MUnABN3fEQNA/o.jpg", "is_closed": false, "url": "https://www.yelp.com/biz/wine-or-lose-board-game-cafe-petaluma?adjust_creative=IokN4du3-7NwKcCaUms5LA&utm_campaign=yelp_api_v3&utm_medium=api_v3_business_search&utm_source=IokN4du3-7NwKcCaUms5LA", "review_count": 23, "categories": [{"alias": "tapasmallplates", "title": "Tapas/Small Plates"}, {"alias": "newamerican", "title": "American (New)"}, {"alias": "comfortfood", "title": "Comfort Food"}], "rating": 4.5, "coordinates": {"latitude": 38.23445, "longitude": -122.64191}, "transactions": [], "location": {"address1": "131 Kentucky Street Petaluma Ca", "address2": null, "address3": "", "city": "Petaluma", "zip_code": "94952", "country": "US", "state": "CA", "display_address": ["131 Kentucky Street Petaluma Ca", "Petaluma, CA 94952"]}, "phone": "+17077734743", "display_phone": "(707) 773-4743", "distance": 1131.0429442103773}, {"id": "2nhlOTQV1Ct-E-JIopZ5Qw", "alias": "river-front-cafe-petaluma", "name": "River Front Cafe", "image_url": "https://s3-media2.fl.yelpcdn.com/bphoto/rrbAlnS6Viy6Sp5MGjAohQ/o.jpg", "is_closed": false, "url": "https://www.yelp.com/biz/river-front-cafe-petaluma?adjust_creative=IokN4du3-7NwKcCaUms5LA&utm_campaign=yelp_api_v3&utm_medium=api_v3_business_search&utm_source=IokN4du3-7NwKcCaUms5LA", "review_count": 90, "categories": [{"alias": "cafes", "title": "Cafes"}, {"alias": "mediterranean", "title": "Mediterranean"}, {"alias": "tradamerican", "title": "American (Traditional)"}], "rating": 4.0, "coordinates": {"latitude": 38.2338603, "longitude": -122.6390712}, "transactions": [], "price": "$$", "location": {"address1": "224 B St", "address2": "", "address3": null, "city": "Petaluma", "zip_code": "94952", "country": "US", "state": "CA", "display_address": ["224 B St", "Petaluma, CA 94952"]}, "phone": "+17073475147", "display_phone": "(707) 347-5147", "distance": 1059.6573767447394}, {"id": "heL78N_zgaqGCyGFLld1fA", "alias": "mi-pueblo-petaluma-petaluma-2", "name": "Mi Pueblo-Petaluma", "image_url": "https://s3-media4.fl.yelpcdn.com/bphoto/NujYJS5WDq34Yx0EDYBwdQ/o.jpg", "is_closed": false, "url": "https://www.yelp.com/biz/mi-pueblo-petaluma-petaluma-2?adjust_creative=IokN4du3-7NwKcCaUms5LA&utm_campaign=yelp_api_v3&utm_medium=api_v3_business_search&utm_source=IokN4du3-7NwKcCaUms5LA", "review_count": 438, "categories": [{"alias": "mexican", "title": "Mexican"}, {"alias": "bars", "title": "Bars"}], "rating": 4.0, "coordinates": {"latitude": 38.242977142334, "longitude": -122.643707275391}, "transactions": [], "price": "$$", "location": {"address1": "800 Petaluma Blvd N", "address2": "", "address3": "", "city": "Petaluma", "zip_code": "94952", "country": "US", "state": "CA", "display_address": ["800 Petaluma Blvd N", "Petaluma, CA 94952"]}, "phone": "+17077628192", "display_phone": "(707) 762-8192", "distance": 793.5685742550886}, {"id": "yz_P722kmeRAHIiLzMkfsA", "alias": "brixx-pizzeria-petaluma-petaluma", "name": "Brixx Pizzeria Petaluma", "image_url": "https://s3-media4.fl.yelpcdn.com/bphoto/5ci22tr26z256k_9ZpYNtA/o.jpg", "is_closed": false, "url": "https://www.yelp.com/biz/brixx-pizzeria-petaluma-petaluma?adjust_creative=IokN4du3-7NwKcCaUms5LA&utm_campaign=yelp_api_v3&utm_medium=api_v3_business_search&utm_source=IokN4du3-7NwKcCaUms5LA", "review_count": 175, "categories": [{"alias": "bars", "title": "Bars"}, {"alias": "pizza", "title": "Pizza"}], "rating": 4.0, "coordinates": {"latitude": 38.2332944, "longitude": -122.6406548}, "transactions": [], "price": "$$", "location": {"address1": "16 Kentucky St", "address2": "", "address3": "", "city": "Petaluma", "zip_code": "94952", "country": "US", "state": "CA", "display_address": ["16 Kentucky St", "Petaluma, CA 94952"]}, "phone": "+17077668162", "display_phone": "(707) 766-8162", "distance": 1173.5708114255856}, {"id": "XqlkcD_zTirBYcAfuFD5JA", "alias": "buckhorn-petaluma", "name": "Buckhorn", "image_url": "https://s3-media2.fl.yelpcdn.com/bphoto/NJeulAC5Fuwz5DVtvFMHrw/o.jpg", "is_closed": false, "url": "https://www.yelp.com/biz/buckhorn-petaluma?adjust_creative=IokN4du3-7NwKcCaUms5LA&utm_campaign=yelp_api_v3&utm_medium=api_v3_business_search&utm_source=IokN4du3-7NwKcCaUms5LA", "review_count": 33, "categories": [{"alias": "bars", "title": "Bars"}, {"alias": "tradamerican", "title": "American (Traditional)"}], "rating": 4.5, "coordinates": {"latitude": 38.23058, "longitude": -122.63088}, "transactions": [], "price": "$", "location": {"address1": "615 Petaluma Blvd S", "address2": "", "address3": "", "city": "Petaluma", "zip_code": "94952", "country": "US", "state": "CA", "display_address": ["615 Petaluma Blvd S", "Petaluma, CA 94952"]}, "phone": "+17077630365", "display_phone": "(707) 763-0365", "distance": 1435.6529260653829}, {"id": "EvLHj5d1ooJW8Ek8uHR1Tg", "alias": "della-fattoria-downtown-caf\u00e9-petaluma-4", "name": "Della Fattoria Downtown Caf\u00e9", "image_url": "https://s3-media1.fl.yelpcdn.com/bphoto/fYQzXXDh-EwGHNB7M7cg1g/o.jpg", "is_closed": false, "url": "https://www.yelp.com/biz/della-fattoria-downtown-caf%C3%A9-petaluma-4?adjust_creative=IokN4du3-7NwKcCaUms5LA&utm_campaign=yelp_api_v3&utm_medium=api_v3_business_search&utm_source=IokN4du3-7NwKcCaUms5LA", "review_count": 851, "categories": [{"alias": "bakeries", "title": "Bakeries"}, {"alias": "breakfast_brunch", "title": "Breakfast & Brunch"}, {"alias": "coffee", "title": "Coffee & Tea"}], "rating": 4.0, "coordinates": {"latitude": 38.23492, "longitude": -122.64102}, "transactions": [], "price": "$$", "location": {"address1": "141 Petaluma Blvd N", "address2": null, "address3": "", "city": "Petaluma", "zip_code": "94952", "country": "US", "state": "CA", "display_address": ["141 Petaluma Blvd N", "Petaluma, CA 94952"]}, "phone": "+17077630161", "display_phone": "(707) 763-0161", "distance": 1056.784573393901}, {"id": "fHj9VL8MmJoM7bbJhVXFHw", "alias": "dempseys-restaurant-and-brewery-petaluma", "name": "Dempsey's Restaurant & Brewery", "image_url": "https://s3-media4.fl.yelpcdn.com/bphoto/JJrscrZDYRR_mnPDKN24zQ/o.jpg", "is_closed": false, "url": "https://www.yelp.com/biz/dempseys-restaurant-and-brewery-petaluma?adjust_creative=IokN4du3-7NwKcCaUms5LA&utm_campaign=yelp_api_v3&utm_medium=api_v3_business_search&utm_source=IokN4du3-7NwKcCaUms5LA", "review_count": 351, "categories": [{"alias": "tradamerican", "title": "American (Traditional)"}, {"alias": "breweries", "title": "Breweries"}], "rating": 3.5, "coordinates": {"latitude": 38.2348496423583, "longitude": -122.639250639953}, "transactions": [], "price": "$$", "location": {"address1": "50 E Washington St", "address2": "", "address3": "", "city": "Petaluma", "zip_code": "94952", "country": "US", "state": "CA", "display_address": ["50 E Washington St", "Petaluma, CA 94952"]}, "phone": "+17077659694", "display_phone": "(707) 765-9694", "distance": 985.4418030351637}, {"id": "REEHmJ7lJXcbyaDeeU1ptA", "alias": "petaluma-pie-company-petaluma", "name": "Petaluma Pie Company", "image_url": "https://s3-media1.fl.yelpcdn.com/bphoto/6ktWOisrIZ8mJmkcuZL88w/o.jpg", "is_closed": false, "url": "https://www.yelp.com/biz/petaluma-pie-company-petaluma?adjust_creative=IokN4du3-7NwKcCaUms5LA&utm_campaign=yelp_api_v3&utm_medium=api_v3_business_search&utm_source=IokN4du3-7NwKcCaUms5LA", "review_count": 456, "categories": [{"alias": "tradamerican", "title": "American (Traditional)"}, {"alias": "bakeries", "title": "Bakeries"}], "rating": 4.0, "coordinates": {"latitude": 38.2346554806575, "longitude": -122.640948817134}, "transactions": [], "price": "$", "location": {"address1": "125 Petaluma Blvd N", "address2": "Ste D", "address3": "Helen Putnam Plz", "city": "Petaluma", "zip_code": "94954", "country": "US", "state": "CA", "display_address": ["125 Petaluma Blvd N", "Ste D", "Helen Putnam Plz", "Petaluma, CA 94954"]}, "phone": "+17077666743", "display_phone": "(707) 766-6743", "distance": 1070.433409970386}, {"id": "Pl7iQcuXSoLsmE8LREntgA", "alias": "volpis-ristorante-and-bar-petaluma-2", "name": "Volpi's Ristorante & Bar", "image_url": "https://s3-media4.fl.yelpcdn.com/bphoto/Yr3cb5HiHeFr0-6feOAW5A/o.jpg", "is_closed": false, "url": "https://www.yelp.com/biz/volpis-ristorante-and-bar-petaluma-2?adjust_creative=IokN4du3-7NwKcCaUms5LA&utm_campaign=yelp_api_v3&utm_medium=api_v3_business_search&utm_source=IokN4du3-7NwKcCaUms5LA", "review_count": 237, "categories": [{"alias": "italian", "title": "Italian"}, {"alias": "bars", "title": "Bars"}], "rating": 3.5, "coordinates": {"latitude": 38.23544, "longitude": -122.6429}, "transactions": [], "price": "$$", "location": {"address1": "124 Washington St", "address2": "", "address3": "", "city": "Petaluma", "zip_code": "94952", "country": "US", "state": "CA", "display_address": ["124 Washington St", "Petaluma, CA 94952"]}, "phone": "+17077622371", "display_phone": "(707) 762-2371", "distance": 1096.6801549440258}, {"id": "ozRZ7W2e5c7IAyyUJY482A", "alias": "the-canton-petaluma", "name": "The Canton", "image_url": "https://s3-media4.fl.yelpcdn.com/bphoto/S9mIW_xVfES2yTrpjKTZ6A/o.jpg", "is_closed": false, "url": "https://www.yelp.com/biz/the-canton-petaluma?adjust_creative=IokN4du3-7NwKcCaUms5LA&utm_campaign=yelp_api_v3&utm_medium=api_v3_business_search&utm_source=IokN4du3-7NwKcCaUms5LA", "review_count": 88, "categories": [{"alias": "dimsum", "title": "Dim Sum"}], "rating": 4.0, "coordinates": {"latitude": 38.23603, "longitude": -122.62261}, "transactions": [], "price": "$$", "location": {"address1": "951 Lakeville St", "address2": "", "address3": "", "city": "Petaluma", "zip_code": "94952", "country": "US", "state": "CA", "display_address": ["951 Lakeville St", "Petaluma, CA 94952"]}, "phone": "+17077788000", "display_phone": "(707) 778-8000", "distance": 1302.7166986544821}, {"id": "KtyP-zkZvM8b79sI7R38fQ", "alias": "taps-beer-co-and-kitchen-petaluma-5", "name": "Taps Beer Co & Kitchen", "image_url": "https://s3-media4.fl.yelpcdn.com/bphoto/noyR1oiXyOCNYG93fRXwDA/o.jpg", "is_closed": false, "url": "https://www.yelp.com/biz/taps-beer-co-and-kitchen-petaluma-5?adjust_creative=IokN4du3-7NwKcCaUms5LA&utm_campaign=yelp_api_v3&utm_medium=api_v3_business_search&utm_source=IokN4du3-7NwKcCaUms5LA", "review_count": 302, "categories": [{"alias": "newamerican", "title": "American (New)"}, {"alias": "gastropubs", "title": "Gastropubs"}, {"alias": "beergardens", "title": "Beer Gardens"}], "rating": 3.5, "coordinates": {"latitude": 38.234951, "longitude": -122.638497}, "transactions": [], "price": "$$", "location": {"address1": "54 E Washington St", "address2": "", "address3": "", "city": "Petaluma", "zip_code": "94952", "country": "US", "state": "CA", "display_address": ["54 E Washington St", "Petaluma, CA 94952"]}, "phone": "+17077636700", "display_phone": "(707) 763-6700", "distance": 951.2670252833303}, {"id": "1eqREpeV6zvE0LVd7TeIDA", "alias": "paradise-sushi-and-grill-petaluma", "name": "Paradise Sushi & Grill", "image_url": "https://s3-media3.fl.yelpcdn.com/bphoto/dApT7AWc9f73YzLMQ9GIRA/o.jpg", "is_closed": false, "url": "https://www.yelp.com/biz/paradise-sushi-and-grill-petaluma?adjust_creative=IokN4du3-7NwKcCaUms5LA&utm_campaign=yelp_api_v3&utm_medium=api_v3_business_search&utm_source=IokN4du3-7NwKcCaUms5LA", "review_count": 336, "categories": [{"alias": "japanese", "title": "Japanese"}, {"alias": "sushi", "title": "Sushi Bars"}], "rating": 4.0, "coordinates": {"latitude": 38.2353649685574, "longitude": -122.639339956873}, "transactions": [], "price": "$$", "location": {"address1": "20 E Washington St", "address2": "", "address3": "", "city": "Petaluma", "zip_code": "94952", "country": "US", "state": "CA", "display_address": ["20 E Washington St", "Petaluma, CA 94952"]}, "phone": "+17077819695", "display_phone": "(707) 781-9695", "distance": 936.0732995050023}, {"id": "P6XVf4YVVW8aPRt4MBBqJg", "alias": "lunchette-petaluma", "name": "Lunchette", "image_url": "https://s3-media2.fl.yelpcdn.com/bphoto/rv9k34oyjffReepYyerGsQ/o.jpg", "is_closed": false, "url": "https://www.yelp.com/biz/lunchette-petaluma?adjust_creative=IokN4du3-7NwKcCaUms5LA&utm_campaign=yelp_api_v3&utm_medium=api_v3_business_search&utm_source=IokN4du3-7NwKcCaUms5LA", "review_count": 46, "categories": [{"alias": "pizza", "title": "Pizza"}, {"alias": "salad", "title": "Salad"}], "rating": 5.0, "coordinates": {"latitude": 38.2328030842586, "longitude": -122.639882516915}, "transactions": [], "price": "$$", "location": {"address1": "25 4th St", "address2": "", "address3": null, "city": "Petaluma", "zip_code": "94952", "country": "US", "state": "CA", "display_address": ["25 4th St", "Petaluma, CA 94952"]}, "phone": "+17072417443", "display_phone": "(707) 241-7443", "distance": 1217.2142121864642}, {"id": "fT9NKLlKMuKwvZPeXTdj5w", "alias": "city-chopsticks-petaluma", "name": "City Chopsticks", "image_url": "https://s3-media4.fl.yelpcdn.com/bphoto/kUtE1QUCg3LSBlBlLAEDmw/o.jpg", "is_closed": false, "url": "https://www.yelp.com/biz/city-chopsticks-petaluma?adjust_creative=IokN4du3-7NwKcCaUms5LA&utm_campaign=yelp_api_v3&utm_medium=api_v3_business_search&utm_source=IokN4du3-7NwKcCaUms5LA", "review_count": 206, "categories": [{"alias": "chinese", "title": "Chinese"}, {"alias": "desserts", "title": "Desserts"}, {"alias": "soup", "title": "Soup"}], "rating": 4.0, "coordinates": {"latitude": 38.2484517497031, "longitude": -122.6273283432}, "transactions": ["delivery", "pickup"], "price": "$$", "location": {"address1": "127 N McDowell Blvd", "address2": "", "address3": "", "city": "Petaluma", "zip_code": "94954", "country": "US", "state": "CA", "display_address": ["127 N McDowell Blvd", "Petaluma, CA 94954"]}, "phone": "+17077633083", "display_phone": "(707) 763-3083", "distance": 894.5594747100681}, {"id": "0Qma8dhIXI8FNspyhmxWrg", "alias": "rays-deli-and-tavern-petaluma", "name": "Ray's Deli and Tavern", "image_url": "https://s3-media2.fl.yelpcdn.com/bphoto/wQgzHbI6zkD1mv51tqi2JA/o.jpg", "is_closed": false, "url": "https://www.yelp.com/biz/rays-deli-and-tavern-petaluma?adjust_creative=IokN4du3-7NwKcCaUms5LA&utm_campaign=yelp_api_v3&utm_medium=api_v3_business_search&utm_source=IokN4du3-7NwKcCaUms5LA", "review_count": 246, "categories": [{"alias": "delis", "title": "Delis"}, {"alias": "pubs", "title": "Pubs"}, {"alias": "sandwiches", "title": "Sandwiches"}], "rating": 4.5, "coordinates": {"latitude": 38.23028, "longitude": -122.65291}, "transactions": [], "price": "$$", "location": {"address1": "900 Western Ave", "address2": "", "address3": "", "city": "Petaluma", "zip_code": "94952", "country": "US", "state": "CA", "display_address": ["900 Western Ave", "Petaluma, CA 94952"]}, "phone": "+17077629492", "display_phone": "(707) 762-9492", "distance": 2125.3350422330323}, {"id": "KKaZvvmu-ib3DjnKYep7mw", "alias": "flamez-grill-petaluma", "name": "Flamez Grill", "image_url": "https://s3-media3.fl.yelpcdn.com/bphoto/mATSaDkWnSJlA_OQCrz_dw/o.jpg", "is_closed": false, "url": "https://www.yelp.com/biz/flamez-grill-petaluma?adjust_creative=IokN4du3-7NwKcCaUms5LA&utm_campaign=yelp_api_v3&utm_medium=api_v3_business_search&utm_source=IokN4du3-7NwKcCaUms5LA", "review_count": 161, "categories": [{"alias": "tradamerican", "title": "American (Traditional)"}, {"alias": "sportsbars", "title": "Sports Bars"}], "rating": 4.0, "coordinates": {"latitude": 38.26921, "longitude": -122.6391}, "transactions": [], "price": "$$", "location": {"address1": "701 Sonoma Mountain Pkwy", "address2": "Ste D-1", "address3": null, "city": "Petaluma", "zip_code": "94954", "country": "US", "state": "CA", "display_address": ["701 Sonoma Mountain Pkwy", "Ste D-1", "Petaluma, CA 94954"]}, "phone": "+17079818267", "display_phone": "(707) 981-8267", "distance": 2920.6372349762214}, {"id": "Sa8aZ3XQ43mV0E4BwYqIzA", "alias": "traxx-bar-and-grill-petaluma", "name": "Traxx Bar & Grill", "image_url": "https://s3-media4.fl.yelpcdn.com/bphoto/nA1mYrZDtza9m2wuHcV6Rg/o.jpg", "is_closed": false, "url": "https://www.yelp.com/biz/traxx-bar-and-grill-petaluma?adjust_creative=IokN4du3-7NwKcCaUms5LA&utm_campaign=yelp_api_v3&utm_medium=api_v3_business_search&utm_source=IokN4du3-7NwKcCaUms5LA", "review_count": 104, "categories": [{"alias": "bars", "title": "Bars"}, {"alias": "tradamerican", "title": "American (Traditional)"}, {"alias": "burgers", "title": "Burgers"}], "rating": 4.0, "coordinates": {"latitude": 38.23787, "longitude": -122.63483}, "transactions": [], "price": "$$", "location": {"address1": "219 Lakeville St", "address2": "", "address3": "", "city": "Petaluma", "zip_code": "94952", "country": "US", "state": "CA", "display_address": ["219 Lakeville St", "Petaluma, CA 94952"]}, "phone": "+17077813121", "display_phone": "(707) 781-3121", "distance": 577.8427326974775}, {"id": "Fis4KMJ56tUuIw7NILt1RQ", "alias": "mcnears-saloon-and-dining-house-petaluma", "name": "McNear's Saloon & Dining House", "image_url": "https://s3-media1.fl.yelpcdn.com/bphoto/04KeGjCmJA-PZAD9zN1PVA/o.jpg", "is_closed": false, "url": "https://www.yelp.com/biz/mcnears-saloon-and-dining-house-petaluma?adjust_creative=IokN4du3-7NwKcCaUms5LA&utm_campaign=yelp_api_v3&utm_medium=api_v3_business_search&utm_source=IokN4du3-7NwKcCaUms5LA", "review_count": 317, "categories": [{"alias": "tradamerican", "title": "American (Traditional)"}, {"alias": "bars", "title": "Bars"}, {"alias": "venues", "title": "Venues & Event Spaces"}], "rating": 3.5, "coordinates": {"latitude": 38.2333078, "longitude": -122.64004}, "transactions": [], "price": "$$", "location": {"address1": "23 Petaluma Blvd N", "address2": "", "address3": "", "city": "Petaluma", "zip_code": "94952", "country": "US", "state": "CA", "display_address": ["23 Petaluma Blvd N", "Petaluma, CA 94952"]}, "phone": "+17077652121", "display_phone": "(707) 765-2121", "distance": 1164.7692124288744}, {"id": "qnNilkaM5AYrZUamiJLxXw", "alias": "el-roys-mexican-grill-food-truck-petaluma", "name": "El Roy's Mexican Grill Food Truck", "image_url": "https://s3-media1.fl.yelpcdn.com/bphoto/L9jAgQYDlrkr7bizfCMylw/o.jpg", "is_closed": false, "url": "https://www.yelp.com/biz/el-roys-mexican-grill-food-truck-petaluma?adjust_creative=IokN4du3-7NwKcCaUms5LA&utm_campaign=yelp_api_v3&utm_medium=api_v3_business_search&utm_source=IokN4du3-7NwKcCaUms5LA", "review_count": 279, "categories": [{"alias": "mexican", "title": "Mexican"}, {"alias": "foodtrucks", "title": "Food Trucks"}], "rating": 4.5, "coordinates": {"latitude": 38.2397441466801, "longitude": -122.633983174041}, "transactions": [], "price": "$", "location": {"address1": "401 E Washington St", "address2": "", "address3": "", "city": "Petaluma", "zip_code": "94952", "country": "US", "state": "CA", "display_address": ["401 E Washington St", "Petaluma, CA 94952"]}, "phone": "+17072416534", "display_phone": "(707) 241-6534", "distance": 373.00814149968113}, {"id": "gt7TgqhJ5JEOPxXiwY7qlw", "alias": "la-dolce-vita-wine-lounge-petaluma", "name": "La Dolce Vita Wine Lounge", "image_url": "https://s3-media1.fl.yelpcdn.com/bphoto/-_k9FarxUm4qc9_Lhlwgew/o.jpg", "is_closed": false, "url": "https://www.yelp.com/biz/la-dolce-vita-wine-lounge-petaluma?adjust_creative=IokN4du3-7NwKcCaUms5LA&utm_campaign=yelp_api_v3&utm_medium=api_v3_business_search&utm_source=IokN4du3-7NwKcCaUms5LA", "review_count": 144, "categories": [{"alias": "wine_bars", "title": "Wine Bars"}, {"alias": "lounges", "title": "Lounges"}, {"alias": "pizza", "title": "Pizza"}], "rating": 4.5, "coordinates": {"latitude": 38.2331352233887, "longitude": -122.636894226074}, "transactions": [], "price": "$$", "location": {"address1": "151 Petaluma Blvd S", "address2": "Ste 117", "address3": "", "city": "Petaluma", "zip_code": "94952", "country": "US", "state": "CA", "display_address": ["151 Petaluma Blvd S", "Ste 117", "Petaluma, CA 94952"]}, "phone": "+17077636363", "display_phone": "(707) 763-6363", "distance": 1123.773075943338}, {"id": "fdNAnYw7NWXSJQ2M5rwm3A", "alias": "thai-river-petaluma", "name": "Thai River", "image_url": "https://s3-media2.fl.yelpcdn.com/bphoto/BkI0oRZQb_ncpzT3Pp0jnw/o.jpg", "is_closed": false, "url": "https://www.yelp.com/biz/thai-river-petaluma?adjust_creative=IokN4du3-7NwKcCaUms5LA&utm_campaign=yelp_api_v3&utm_medium=api_v3_business_search&utm_source=IokN4du3-7NwKcCaUms5LA", "review_count": 118, "categories": [{"alias": "thai", "title": "Thai"}], "rating": 4.0, "coordinates": {"latitude": 38.23642, "longitude": -122.6397468}, "transactions": ["pickup"], "price": "$$", "location": {"address1": "35 E Washington St", "address2": "Ste A", "address3": "", "city": "Petaluma", "zip_code": "94952", "country": "US", "state": "CA", "display_address": ["35 E Washington St", "Ste A", "Petaluma, CA 94952"]}, "phone": "+17075595361", "display_phone": "(707) 559-5361", "distance": 848.0007704126768}, {"id": "MsRh2vl8t1IHO-M5wopUIg", "alias": "rafys-pizzeria-petaluma-3", "name": "Rafy's Pizzeria", "image_url": "https://s3-media2.fl.yelpcdn.com/bphoto/kldGvSwV5f05cJo0SSW-Xg/o.jpg", "is_closed": false, "url": "https://www.yelp.com/biz/rafys-pizzeria-petaluma-3?adjust_creative=IokN4du3-7NwKcCaUms5LA&utm_campaign=yelp_api_v3&utm_medium=api_v3_business_search&utm_source=IokN4du3-7NwKcCaUms5LA", "review_count": 198, "categories": [{"alias": "pizza", "title": "Pizza"}, {"alias": "salad", "title": "Salad"}, {"alias": "sandwiches", "title": "Sandwiches"}], "rating": 4.0, "coordinates": {"latitude": 38.2407275112086, "longitude": -122.634562793098}, "transactions": ["delivery", "pickup"], "price": "$$", "location": {"address1": "615 E Washington St", "address2": "", "address3": "", "city": "Petaluma", "zip_code": "94952", "country": "US", "state": "CA", "display_address": ["615 E Washington St", "Petaluma, CA 94952"]}, "phone": "+17075595735", "display_phone": "(707) 559-5735", "distance": 256.7750198494363}, {"id": "aDPgQuvtG9EhMH_x6tAm4w", "alias": "thai-cuisine-petaluma", "name": "Thai Cuisine", "image_url": "https://s3-media1.fl.yelpcdn.com/bphoto/RXXzzt756Dv29yYhnFdgLw/o.jpg", "is_closed": false, "url": "https://www.yelp.com/biz/thai-cuisine-petaluma?adjust_creative=IokN4du3-7NwKcCaUms5LA&utm_campaign=yelp_api_v3&utm_medium=api_v3_business_search&utm_source=IokN4du3-7NwKcCaUms5LA", "review_count": 113, "categories": [{"alias": "thai", "title": "Thai"}], "rating": 4.0, "coordinates": {"latitude": 38.2412054587274, "longitude": -122.643290620301}, "transactions": ["delivery", "pickup"], "price": "$$", "location": {"address1": "610 Petaluma Blvd N", "address2": "", "address3": "", "city": "Petaluma", "zip_code": "94952", "country": "US", "state": "CA", "display_address": ["610 Petaluma Blvd N", "Petaluma, CA 94952"]}, "phone": "+17077698802", "display_phone": "(707) 769-8802", "distance": 761.1585346341917}, {"id": "TWTQtyF601novpe4OE3ylw", "alias": "pongos-kitchen-and-tap-petaluma", "name": "Pongo's Kitchen & Tap", "image_url": "https://s3-media2.fl.yelpcdn.com/bphoto/v0LVG4LYuuJldh8m89ol8g/o.jpg", "is_closed": false, "url": "https://www.yelp.com/biz/pongos-kitchen-and-tap-petaluma?adjust_creative=IokN4du3-7NwKcCaUms5LA&utm_campaign=yelp_api_v3&utm_medium=api_v3_business_search&utm_source=IokN4du3-7NwKcCaUms5LA", "review_count": 188, "categories": [{"alias": "thai", "title": "Thai"}, {"alias": "vegetarian", "title": "Vegetarian"}, {"alias": "newamerican", "title": "American (New)"}], "rating": 4.0, "coordinates": {"latitude": 38.26921, "longitude": -122.6391}, "transactions": [], "price": "$$", "location": {"address1": "701 Sonoma Mt Pkwy", "address2": "Ste C8", "address3": "", "city": "Petaluma", "zip_code": "94954", "country": "US", "state": "CA", "display_address": ["701 Sonoma Mt Pkwy", "Ste C8", "Petaluma, CA 94954"]}, "phone": "+17077659800", "display_phone": "(707) 765-9800", "distance": 2920.6372349762214}, {"id": "uBSz1MI5vdSGMNw9D8aKcg", "alias": "lemongrass-thai-noodle-petaluma", "name": "Lemongrass Thai Noodle", "image_url": "https://s3-media1.fl.yelpcdn.com/bphoto/H1FN3k4kreouPn5aHH0ePA/o.jpg", "is_closed": false, "url": "https://www.yelp.com/biz/lemongrass-thai-noodle-petaluma?adjust_creative=IokN4du3-7NwKcCaUms5LA&utm_campaign=yelp_api_v3&utm_medium=api_v3_business_search&utm_source=IokN4du3-7NwKcCaUms5LA", "review_count": 54, "categories": [{"alias": "thai", "title": "Thai"}], "rating": 4.0, "coordinates": {"latitude": 38.23608, "longitude": -122.641}, "transactions": [], "price": "$$", "location": {"address1": "208 Petaluma Blvd N", "address2": null, "address3": "", "city": "Petaluma", "zip_code": "94952", "country": "US", "state": "CA", "display_address": ["208 Petaluma Blvd N", "Petaluma, CA 94952"]}, "phone": "+17077625966", "display_phone": "(707) 762-5966", "distance": 941.2026925776465}, {"id": "sHEKag3XC5kZ8Xk3IGwgXQ", "alias": "chinatown-restaurant-petaluma", "name": "Chinatown Restaurant", "image_url": "https://s3-media2.fl.yelpcdn.com/bphoto/ZAhvCEL5DUJRh6Vnf6sg0Q/o.jpg", "is_closed": false, "url": "https://www.yelp.com/biz/chinatown-restaurant-petaluma?adjust_creative=IokN4du3-7NwKcCaUms5LA&utm_campaign=yelp_api_v3&utm_medium=api_v3_business_search&utm_source=IokN4du3-7NwKcCaUms5LA", "review_count": 107, "categories": [{"alias": "chinese", "title": "Chinese"}], "rating": 4.0, "coordinates": {"latitude": 38.2351112, "longitude": -122.6420288}, "transactions": [], "price": "$$", "location": {"address1": "157 Kentucky St", "address2": "", "address3": "", "city": "Petaluma", "zip_code": "94952", "country": "US", "state": "CA", "display_address": ["157 Kentucky St", "Petaluma, CA 94952"]}, "phone": "+17077637057", "display_phone": "(707) 763-7057", "distance": 1084.7206358241212}, {"id": "NoUXh-q64ksYnC30R5YIvQ", "alias": "plaza-tequila-taqueira-bar-and-grill-petaluma", "name": "Plaza Tequila Taqueira Bar & Grill", "image_url": "https://s3-media3.fl.yelpcdn.com/bphoto/sUxSTtVEqxk6MsHcoms8PA/o.jpg", "is_closed": false, "url": "https://www.yelp.com/biz/plaza-tequila-taqueira-bar-and-grill-petaluma?adjust_creative=IokN4du3-7NwKcCaUms5LA&utm_campaign=yelp_api_v3&utm_medium=api_v3_business_search&utm_source=IokN4du3-7NwKcCaUms5LA", "review_count": 151, "categories": [{"alias": "mexican", "title": "Mexican"}, {"alias": "bars", "title": "Bars"}], "rating": 4.0, "coordinates": {"latitude": 38.239809620448, "longitude": -122.633146603819}, "transactions": [], "price": "$$", "location": {"address1": "600 E Washington", "address2": "", "address3": "", "city": "Petaluma", "zip_code": "94952", "country": "US", "state": "CA", "display_address": ["600 E Washington", "Petaluma, CA 94952"]}, "phone": "+17077764949", "display_phone": "(707) 776-4949", "distance": 388.2791504032311}, {"id": "mRsmFaVOlvCaJgoAO42eng", "alias": "lalas-creamery-petaluma", "name": "Lala's Creamery", "image_url": "https://s3-media4.fl.yelpcdn.com/bphoto/kbeF-vxxdeo3wKjtdxll3A/o.jpg", "is_closed": false, "url": "https://www.yelp.com/biz/lalas-creamery-petaluma?adjust_creative=IokN4du3-7NwKcCaUms5LA&utm_campaign=yelp_api_v3&utm_medium=api_v3_business_search&utm_source=IokN4du3-7NwKcCaUms5LA", "review_count": 380, "categories": [{"alias": "icecream", "title": "Ice Cream & Frozen Yogurt"}, {"alias": "desserts", "title": "Desserts"}, {"alias": "vegan", "title": "Vegan"}], "rating": 4.0, "coordinates": {"latitude": 38.235060984232, "longitude": -122.64059645148}, "transactions": [], "price": "$", "location": {"address1": "134 Petaluma Blvd N", "address2": "", "address3": "", "city": "Petaluma", "zip_code": "94952", "country": "US", "state": "CA", "display_address": ["134 Petaluma Blvd N", "Petaluma, CA 94952"]}, "phone": "+17077746567", "display_phone": "(707) 774-6567", "distance": 1016.0332685125027}, {"id": "j3YNiMsTIXnHqixYsKd2XQ", "alias": "roys-chicago-dogs-at-the-yard-petaluma", "name": "Roy's Chicago Dogs at the Yard", "image_url": "https://s3-media1.fl.yelpcdn.com/bphoto/XdPN1gcMluUi-EBUBOUblQ/o.jpg", "is_closed": false, "url": "https://www.yelp.com/biz/roys-chicago-dogs-at-the-yard-petaluma?adjust_creative=IokN4du3-7NwKcCaUms5LA&utm_campaign=yelp_api_v3&utm_medium=api_v3_business_search&utm_source=IokN4du3-7NwKcCaUms5LA", "review_count": 275, "categories": [{"alias": "hotdog", "title": "Hot Dogs"}, {"alias": "sandwiches", "title": "Sandwiches"}, {"alias": "newamerican", "title": "American (New)"}], "rating": 4.5, "coordinates": {"latitude": 38.26171, "longitude": -122.65833}, "transactions": [], "price": "$", "location": {"address1": "84 Corona Rd", "address2": "", "address3": "", "city": "Petaluma", "zip_code": "94952", "country": "US", "state": "CA", "display_address": ["84 Corona Rd", "Petaluma, CA 94952"]}, "phone": "+17077741574", "display_phone": "(707) 774-1574", "distance": 3025.267788424111}, {"id": "metPp5YT9drBjWdUbBokWA", "alias": "chunkys-taqueria-and-grill-petaluma", "name": "Chunky's Taqueria and Grill", "image_url": "https://s3-media2.fl.yelpcdn.com/bphoto/v0UTDqcZzqPA8wofMNjubw/o.jpg", "is_closed": false, "url": "https://www.yelp.com/biz/chunkys-taqueria-and-grill-petaluma?adjust_creative=IokN4du3-7NwKcCaUms5LA&utm_campaign=yelp_api_v3&utm_medium=api_v3_business_search&utm_source=IokN4du3-7NwKcCaUms5LA", "review_count": 198, "categories": [{"alias": "mexican", "title": "Mexican"}], "rating": 4.0, "coordinates": {"latitude": 38.268081, "longitude": -122.639362}, "transactions": [], "price": "$", "location": {"address1": "701 Sonoma Mountain Pkwy", "address2": "", "address3": "", "city": "Petaluma", "zip_code": "94954", "country": "US", "state": "CA", "display_address": ["701 Sonoma Mountain Pkwy", "Petaluma, CA 94954"]}, "phone": "+17077753325", "display_phone": "(707) 775-3325", "distance": 2813.6190352982385}, {"id": "dM0e_FQb2e11jbGkA0xDIw", "alias": "tolay-restaurant-petaluma-2", "name": "Tolay Restaurant", "image_url": "https://s3-media1.fl.yelpcdn.com/bphoto/pT5pf-pxKNRhqw4TCXKsUg/o.jpg", "is_closed": false, "url": "https://www.yelp.com/biz/tolay-restaurant-petaluma-2?adjust_creative=IokN4du3-7NwKcCaUms5LA&utm_campaign=yelp_api_v3&utm_medium=api_v3_business_search&utm_source=IokN4du3-7NwKcCaUms5LA", "review_count": 110, "categories": [{"alias": "newamerican", "title": "American (New)"}], "rating": 3.5, "coordinates": {"latitude": 38.23057, "longitude": -122.61285}, "transactions": [], "price": "$$", "location": {"address1": "745 Baywood Dr", "address2": "", "address3": "", "city": "Petaluma", "zip_code": "94954", "country": "US", "state": "CA", "display_address": ["745 Baywood Dr", "Petaluma, CA 94954"]}, "phone": "+17072832888", "display_phone": "(707) 283-2888", "distance": 2361.5749684673333}, {"id": "QYm35LqRVFV3qsPqjFWdrA", "alias": "mi-pueblo-el-centro-petaluma", "name": "Mi Pueblo el Centro", "image_url": "https://s3-media1.fl.yelpcdn.com/bphoto/mcnc8RbgBqfyq7gbsuoNgw/o.jpg", "is_closed": false, "url": "https://www.yelp.com/biz/mi-pueblo-el-centro-petaluma?adjust_creative=IokN4du3-7NwKcCaUms5LA&utm_campaign=yelp_api_v3&utm_medium=api_v3_business_search&utm_source=IokN4du3-7NwKcCaUms5LA", "review_count": 211, "categories": [{"alias": "mexican", "title": "Mexican"}, {"alias": "bars", "title": "Bars"}], "rating": 4.0, "coordinates": {"latitude": 38.2341, "longitude": -122.64101}, "transactions": [], "price": "$$", "location": {"address1": "108 Kentucky St", "address2": "", "address3": "", "city": "Petaluma", "zip_code": "94952", "country": "US", "state": "CA", "display_address": ["108 Kentucky St", "Petaluma, CA 94952"]}, "phone": "+17077699066", "display_phone": "(707) 769-9066", "distance": 1127.306703483588}, {"id": "a2MSoVf1Sl0jhG-kChElvg", "alias": "vine-and-barrel-petaluma", "name": "Vine & Barrel", "image_url": "https://s3-media3.fl.yelpcdn.com/bphoto/dmG0B6pwBLdoVEdvKzQzAQ/o.jpg", "is_closed": false, "url": "https://www.yelp.com/biz/vine-and-barrel-petaluma?adjust_creative=IokN4du3-7NwKcCaUms5LA&utm_campaign=yelp_api_v3&utm_medium=api_v3_business_search&utm_source=IokN4du3-7NwKcCaUms5LA", "review_count": 39, "categories": [{"alias": "beer_and_wine", "title": "Beer, Wine & Spirits"}, {"alias": "wine_bars", "title": "Wine Bars"}, {"alias": "tapas", "title": "Tapas Bars"}], "rating": 4.5, "coordinates": {"latitude": 38.2345593576068, "longitude": -122.640814527804}, "transactions": [], "price": "$$", "location": {"address1": "113 Petaluma Blvd", "address2": "", "address3": "", "city": "Petaluma", "zip_code": "94952", "country": "US", "state": "CA", "display_address": ["113 Petaluma Blvd", "Petaluma, CA 94952"]}, "phone": "+17077651112", "display_phone": "(707) 765-1112", "distance": 1074.0350853543816}, {"id": "5G2J4uzNsaQj6wafKwGNbg", "alias": "raleys-petaluma", "name": "Raley's", "image_url": "https://s3-media1.fl.yelpcdn.com/bphoto/RUAV-sTh2dLKG_50rV9sQw/o.jpg", "is_closed": false, "url": "https://www.yelp.com/biz/raleys-petaluma?adjust_creative=IokN4du3-7NwKcCaUms5LA&utm_campaign=yelp_api_v3&utm_medium=api_v3_business_search&utm_source=IokN4du3-7NwKcCaUms5LA", "review_count": 69, "categories": [{"alias": "grocery", "title": "Grocery"}, {"alias": "beer_and_wine", "title": "Beer, Wine & Spirits"}, {"alias": "delis", "title": "Delis"}], "rating": 3.5, "coordinates": {"latitude": 38.2483081039976, "longitude": -122.628631024597}, "transactions": [], "price": "$$", "location": {"address1": "157 N Mcdowell Blvd", "address2": "", "address3": "", "city": "Petaluma", "zip_code": "94954", "country": "US", "state": "CA", "display_address": ["157 N Mcdowell Blvd", "Petaluma, CA 94954"]}, "phone": "+17077666700", "display_phone": "(707) 766-6700", "distance": 802.4657583625525}, {"id": "Q8QF4K6vJymSZn6AnaqD0Q", "alias": "barber-cellars-petaluma-6", "name": "Barber Cellars", "image_url": "https://s3-media4.fl.yelpcdn.com/bphoto/7XuAAEzUTR2qF-5ojyPvXA/o.jpg", "is_closed": false, "url": "https://www.yelp.com/biz/barber-cellars-petaluma-6?adjust_creative=IokN4du3-7NwKcCaUms5LA&utm_campaign=yelp_api_v3&utm_medium=api_v3_business_search&utm_source=IokN4du3-7NwKcCaUms5LA", "review_count": 55, "categories": [{"alias": "winetastingroom", "title": "Wine Tasting Room"}, {"alias": "cheese", "title": "Cheese Shops"}, {"alias": "sandwiches", "title": "Sandwiches"}], "rating": 4.5, "coordinates": {"latitude": 38.235501, "longitude": -122.6423909}, "transactions": [], "price": "$$", "location": {"address1": "112 Washington St", "address2": null, "address3": "", "city": "Petaluma", "zip_code": "94952", "country": "US", "state": "CA", "display_address": ["112 Washington St", "Petaluma, CA 94952"]}, "phone": "+17079717410", "display_phone": "(707) 971-7410", "distance": 1074.881577239014}, {"id": "M-ZpVQoj8TOfTdy9JQP3jg", "alias": "fuji-japanese-restaurant-petaluma", "name": "Fuji Japanese Restaurant", "image_url": "https://s3-media1.fl.yelpcdn.com/bphoto/iTg5U1NPMU9JyHFIODGpNA/o.jpg", "is_closed": false, "url": "https://www.yelp.com/biz/fuji-japanese-restaurant-petaluma?adjust_creative=IokN4du3-7NwKcCaUms5LA&utm_campaign=yelp_api_v3&utm_medium=api_v3_business_search&utm_source=IokN4du3-7NwKcCaUms5LA", "review_count": 95, "categories": [{"alias": "japanese", "title": "Japanese"}], "rating": 4.0, "coordinates": {"latitude": 38.2494717295303, "longitude": -122.63036679895}, "transactions": [], "price": "$$", "location": {"address1": "253 N McDowell Blvd", "address2": "", "address3": "", "city": "Petaluma", "zip_code": "94954", "country": "US", "state": "CA", "display_address": ["253 N McDowell Blvd", "Petaluma, CA 94954"]}, "phone": "+17077788600", "display_phone": "(707) 778-8600", "distance": 818.603757964922}, {"id": "bZ2EYxzELhSDfDHYtVd-Cw", "alias": "street-social-petaluma", "name": "Street Social", "image_url": "https://s3-media1.fl.yelpcdn.com/bphoto/fF7y1pNz3Bzy7W2RHemPxw/o.jpg", "is_closed": false, "url": "https://www.yelp.com/biz/street-social-petaluma?adjust_creative=IokN4du3-7NwKcCaUms5LA&utm_campaign=yelp_api_v3&utm_medium=api_v3_business_search&utm_source=IokN4du3-7NwKcCaUms5LA", "review_count": 3, "categories": [{"alias": "french", "title": "French"}, {"alias": "newamerican", "title": "American (New)"}, {"alias": "wine_bars", "title": "Wine Bars"}], "rating": 5.0, "coordinates": {"latitude": 38.23370767, "longitude": -122.64037033}, "transactions": [], "location": {"address1": "29 Petaluma Blvd N", "address2": "Ste F", "address3": null, "city": "Petaluma", "zip_code": "94952", "country": "US", "state": "CA", "display_address": ["29 Petaluma Blvd N", "Ste F", "Petaluma, CA 94952"]}, "phone": "+17077746185", "display_phone": "(707) 774-6185", "distance": 1149.1954430663295}, {"id": "0UpfuQBr4_Uae1DT2DJ_8Q", "alias": "hunan-village-restaurant-petaluma", "name": "Hunan Village Restaurant", "image_url": "https://s3-media3.fl.yelpcdn.com/bphoto/xC1tSauBYDGhwDo5nLWN9w/o.jpg", "is_closed": false, "url": "https://www.yelp.com/biz/hunan-village-restaurant-petaluma?adjust_creative=IokN4du3-7NwKcCaUms5LA&utm_campaign=yelp_api_v3&utm_medium=api_v3_business_search&utm_source=IokN4du3-7NwKcCaUms5LA", "review_count": 125, "categories": [{"alias": "chinese", "title": "Chinese"}], "rating": 3.5, "coordinates": {"latitude": 38.2520347, "longitude": -122.6312671}, "transactions": [], "price": "$$", "location": {"address1": "295 N McDowell Blvd", "address2": "", "address3": "", "city": "Petaluma", "zip_code": "94954", "country": "US", "state": "CA", "display_address": ["295 N McDowell Blvd", "Petaluma, CA 94954"]}, "phone": "+17077637156", "display_phone": "(707) 763-7156", "distance": 978.0742289593405}, {"id": "8OSQPU-lkhHMGI27_tdn5A", "alias": "ohana-hawaiian-bbq-petaluma", "name": "Ohana Hawaiian BBQ", "image_url": "https://s3-media3.fl.yelpcdn.com/bphoto/pOLhU8SfK6i6aifxFWYEbg/o.jpg", "is_closed": false, "url": "https://www.yelp.com/biz/ohana-hawaiian-bbq-petaluma?adjust_creative=IokN4du3-7NwKcCaUms5LA&utm_campaign=yelp_api_v3&utm_medium=api_v3_business_search&utm_source=IokN4du3-7NwKcCaUms5LA", "review_count": 83, "categories": [{"alias": "hawaiian", "title": "Hawaiian"}, {"alias": "bbq", "title": "Barbeque"}], "rating": 3.5, "coordinates": {"latitude": 38.249179931878, "longitude": -122.624749044178}, "transactions": [], "price": "$$", "location": {"address1": "205 S McDowell Blvd", "address2": "", "address3": "", "city": "Petaluma", "zip_code": "94954", "country": "US", "state": "CA", "display_address": ["205 S McDowell Blvd", "Petaluma, CA 94954"]}, "phone": "+17077668282", "display_phone": "(707) 766-8282", "distance": 1119.2285376149775}, {"id": "aNP4-uy8wAvIhvESopKLdg", "alias": "original-buffalo-wings-restaurant-petaluma", "name": "Original Buffalo Wings Restaurant", "image_url": "https://s3-media1.fl.yelpcdn.com/bphoto/ubklRyfDrJRWSA8Nzo4Cag/o.jpg", "is_closed": false, "url": "https://www.yelp.com/biz/original-buffalo-wings-restaurant-petaluma?adjust_creative=IokN4du3-7NwKcCaUms5LA&utm_campaign=yelp_api_v3&utm_medium=api_v3_business_search&utm_source=IokN4du3-7NwKcCaUms5LA", "review_count": 114, "categories": [{"alias": "chicken_wings", "title": "Chicken Wings"}, {"alias": "burgers", "title": "Burgers"}, {"alias": "tradamerican", "title": "American (Traditional)"}], "rating": 4.0, "coordinates": {"latitude": 38.2414703369141, "longitude": -122.633354187012}, "transactions": [], "price": "$", "location": {"address1": "707 E Washington St", "address2": "", "address3": "", "city": "Petaluma", "zip_code": "94952", "country": "US", "state": "CA", "display_address": ["707 E Washington St", "Petaluma, CA 94952"]}, "phone": "+17077626855", "display_phone": "(707) 762-6855", "distance": 217.01973738274552}, {"id": "_rN5pF3RXZ4rLlXIEa1IAg", "alias": "hallies-diner-petaluma", "name": "Hallie's Diner", "image_url": "https://s3-media1.fl.yelpcdn.com/bphoto/Au9T4k0CqqGUjIPW13gsrw/o.jpg", "is_closed": false, "url": "https://www.yelp.com/biz/hallies-diner-petaluma?adjust_creative=IokN4du3-7NwKcCaUms5LA&utm_campaign=yelp_api_v3&utm_medium=api_v3_business_search&utm_source=IokN4du3-7NwKcCaUms5LA", "review_count": 337, "categories": [{"alias": "tradamerican", "title": "American (Traditional)"}, {"alias": "breakfast_brunch", "title": "Breakfast & Brunch"}], "rating": 4.0, "coordinates": {"latitude": 38.23424, "longitude": -122.64282}, "transactions": [], "price": "$$", "location": {"address1": "125 Keller St", "address2": null, "address3": "", "city": "Petaluma", "zip_code": "94952", "country": "US", "state": "CA", "display_address": ["125 Keller St", "Petaluma, CA 94952"]}, "phone": "+17077731143", "display_phone": "(707) 773-1143", "distance": 1196.8655416692536}, {"id": "b0A02pw1yS445Rbmnzqg_g", "alias": "the-bagel-mill-petaluma", "name": "The Bagel Mill", "image_url": "https://s3-media1.fl.yelpcdn.com/bphoto/YwSabzU2ahK41BjIiiy6rg/o.jpg", "is_closed": false, "url": "https://www.yelp.com/biz/the-bagel-mill-petaluma?adjust_creative=IokN4du3-7NwKcCaUms5LA&utm_campaign=yelp_api_v3&utm_medium=api_v3_business_search&utm_source=IokN4du3-7NwKcCaUms5LA", "review_count": 62, "categories": [{"alias": "bagels", "title": "Bagels"}, {"alias": "bakeries", "title": "Bakeries"}, {"alias": "breakfast_brunch", "title": "Breakfast & Brunch"}], "rating": 4.5, "coordinates": {"latitude": 38.23342, "longitude": -122.642647}, "transactions": [], "price": "$", "location": {"address1": "212 Western Ave", "address2": null, "address3": "", "city": "Petaluma", "zip_code": "94952", "country": "US", "state": "CA", "display_address": ["212 Western Ave", "Petaluma, CA 94952"]}, "phone": "+17079818010", "display_phone": "(707) 981-8010", "distance": 1257.3469970526153}, {"id": "HDqWCj7zD-8n2uPiUhdPlg", "alias": "don-panchos-petaluma", "name": "Don Pancho's", "image_url": "https://s3-media3.fl.yelpcdn.com/bphoto/BM0ZuHsxWD8WuRX4_dWHig/o.jpg", "is_closed": false, "url": "https://www.yelp.com/biz/don-panchos-petaluma?adjust_creative=IokN4du3-7NwKcCaUms5LA&utm_campaign=yelp_api_v3&utm_medium=api_v3_business_search&utm_source=IokN4du3-7NwKcCaUms5LA", "review_count": 106, "categories": [{"alias": "mexican", "title": "Mexican"}], "rating": 3.5, "coordinates": {"latitude": 38.25194, "longitude": -122.6310962}, "transactions": [], "price": "$$", "location": {"address1": "285 N Mcdowell Blvd", "address2": "", "address3": "", "city": "Petaluma", "zip_code": "94954", "country": "US", "state": "CA", "display_address": ["285 N Mcdowell Blvd", "Petaluma, CA 94954"]}, "phone": "+17077752474", "display_phone": "(707) 775-2474", "distance": 904.7830471988561}, {"id": "TgrFcDdz7lXKxB5xznx09g", "alias": "lucchesis-delicatessen-petaluma", "name": "Lucchesi's Delicatessen", "image_url": "https://s3-media2.fl.yelpcdn.com/bphoto/eacL9A6sFaD3NGJAePgiZQ/o.jpg", "is_closed": false, "url": "https://www.yelp.com/biz/lucchesis-delicatessen-petaluma?adjust_creative=IokN4du3-7NwKcCaUms5LA&utm_campaign=yelp_api_v3&utm_medium=api_v3_business_search&utm_source=IokN4du3-7NwKcCaUms5LA", "review_count": 201, "categories": [{"alias": "delis", "title": "Delis"}, {"alias": "sandwiches", "title": "Sandwiches"}], "rating": 4.0, "coordinates": {"latitude": 38.2484893798828, "longitude": -122.623748779297}, "transactions": [], "price": "$", "location": {"address1": "301 S McDowell Blvd", "address2": "", "address3": "", "city": "Petaluma", "zip_code": "94954", "country": "US", "state": "CA", "display_address": ["301 S McDowell Blvd", "Petaluma, CA 94954"]}, "phone": "+17077780116", "display_phone": "(707) 778-0116", "distance": 1149.7118908788277}, {"id": "JjJMz7vKTD1ScwlOVZt6lA", "alias": "mystic-theatre-petaluma-2", "name": "Mystic Theatre", "image_url": "https://s3-media2.fl.yelpcdn.com/bphoto/T4A3kDZByrB2w1UysimfFQ/o.jpg", "is_closed": false, "url": "https://www.yelp.com/biz/mystic-theatre-petaluma-2?adjust_creative=IokN4du3-7NwKcCaUms5LA&utm_campaign=yelp_api_v3&utm_medium=api_v3_business_search&utm_source=IokN4du3-7NwKcCaUms5LA", "review_count": 128, "categories": [{"alias": "musicvenues", "title": "Music Venues"}, {"alias": "newamerican", "title": "American (New)"}], "rating": 4.0, "coordinates": {"latitude": 38.2333078, "longitude": -122.64004}, "transactions": [], "price": "$$", "location": {"address1": "23 Petaluma Blvd N", "address2": "", "address3": "", "city": "Petaluma", "zip_code": "94952", "country": "US", "state": "CA", "display_address": ["23 Petaluma Blvd N", "Petaluma, CA 94952"]}, "phone": "+17077756048", "display_phone": "(707) 775-6048", "distance": 1164.7692124288744}, {"id": "ti6nrD301QzK-jLhZ0wC9Q", "alias": "taqueria-los-potrillos-petaluma", "name": "Taqueria Los Potrillos", "image_url": "https://s3-media3.fl.yelpcdn.com/bphoto/sBGD0QSgdZS_Z496pHWhAg/o.jpg", "is_closed": false, "url": "https://www.yelp.com/biz/taqueria-los-potrillos-petaluma?adjust_creative=IokN4du3-7NwKcCaUms5LA&utm_campaign=yelp_api_v3&utm_medium=api_v3_business_search&utm_source=IokN4du3-7NwKcCaUms5LA", "review_count": 81, "categories": [{"alias": "mexican", "title": "Mexican"}], "rating": 4.0, "coordinates": {"latitude": 38.2379843214266, "longitude": -122.637398643972}, "transactions": [], "price": "$", "location": {"address1": "355 E Washington St", "address2": "", "address3": "", "city": "Petaluma", "zip_code": "94952", "country": "US", "state": "CA", "display_address": ["355 E Washington St", "Petaluma, CA 94952"]}, "phone": "+17077634220", "display_phone": "(707) 763-4220", "distance": 601.6210696051148}, {"id": "M53yjwy9puHKyzHrglDMvA", "alias": "sunrise-donuts-petaluma", "name": "Sunrise Donuts", "image_url": "https://s3-media3.fl.yelpcdn.com/bphoto/MkjVVda6MA3-5kXvyxZwdw/o.jpg", "is_closed": false, "url": "https://www.yelp.com/biz/sunrise-donuts-petaluma?adjust_creative=IokN4du3-7NwKcCaUms5LA&utm_campaign=yelp_api_v3&utm_medium=api_v3_business_search&utm_source=IokN4du3-7NwKcCaUms5LA", "review_count": 61, "categories": [{"alias": "delis", "title": "Delis"}, {"alias": "donuts", "title": "Donuts"}], "rating": 4.5, "coordinates": {"latitude": 38.235916687994, "longitude": -122.638258306117}, "transactions": [], "price": "$", "location": {"address1": "68 E Washington St", "address2": "", "address3": "", "city": "Petaluma", "zip_code": "94952", "country": "US", "state": "CA", "display_address": ["68 E Washington St", "Petaluma, CA 94952"]}, "phone": "+17077626601", "display_phone": "(707) 762-6601", "distance": 843.1959690294773}, {"id": "9mmvC-QicMyd1aYZa4OFYA", "alias": "palms-grill-petaluma", "name": "Palms Grill", "image_url": "https://s3-media1.fl.yelpcdn.com/bphoto/kmp1yMdPeK_zOjwHSIA-YA/o.jpg", "is_closed": false, "url": "https://www.yelp.com/biz/palms-grill-petaluma?adjust_creative=IokN4du3-7NwKcCaUms5LA&utm_campaign=yelp_api_v3&utm_medium=api_v3_business_search&utm_source=IokN4du3-7NwKcCaUms5LA", "review_count": 184, "categories": [{"alias": "newamerican", "title": "American (New)"}, {"alias": "breakfast_brunch", "title": "Breakfast & Brunch"}, {"alias": "burgers", "title": "Burgers"}], "rating": 4.0, "coordinates": {"latitude": 38.248742, "longitude": -122.625675}, "transactions": [], "price": "$$", "location": {"address1": "100 S McDowell Blvd", "address2": "", "address3": "", "city": "Petaluma", "zip_code": "94954", "country": "US", "state": "CA", "display_address": ["100 S McDowell Blvd", "Petaluma, CA 94954"]}, "phone": "+17077633333", "display_phone": "(707) 763-3333", "distance": 1025.533132120915}, {"id": "zKweFDPQsI89l_Saef0NBA", "alias": "north-bay-cafe-petaluma-3", "name": "North Bay Cafe", "image_url": "https://s3-media1.fl.yelpcdn.com/bphoto/r_JCsO00_Rc8TCRylbpVZQ/o.jpg", "is_closed": false, "url": "https://www.yelp.com/biz/north-bay-cafe-petaluma-3?adjust_creative=IokN4du3-7NwKcCaUms5LA&utm_campaign=yelp_api_v3&utm_medium=api_v3_business_search&utm_source=IokN4du3-7NwKcCaUms5LA", "review_count": 119, "categories": [{"alias": "tradamerican", "title": "American (Traditional)"}, {"alias": "breakfast_brunch", "title": "Breakfast & Brunch"}, {"alias": "burgers", "title": "Burgers"}], "rating": 4.0, "coordinates": {"latitude": 38.2333453, "longitude": -122.6387902}, "transactions": ["pickup"], "price": "$", "location": {"address1": "25 Petaluma Blvd S", "address2": "", "address3": null, "city": "Petaluma", "zip_code": "94952", "country": "US", "state": "CA", "display_address": ["25 Petaluma Blvd S", "Petaluma, CA 94952"]}, "phone": "+17077746822", "display_phone": "(707) 774-6822", "distance": 1104.5672175640816}, {"id": "YPMGLsbOvBNxn6nxiSZumw", "alias": "tea-room-cafe-petaluma-4", "name": "Tea Room Cafe", "image_url": "https://s3-media2.fl.yelpcdn.com/bphoto/0iVmJTbiHV4_KYPENaXYFA/o.jpg", "is_closed": false, "url": "https://www.yelp.com/biz/tea-room-cafe-petaluma-4?adjust_creative=IokN4du3-7NwKcCaUms5LA&utm_campaign=yelp_api_v3&utm_medium=api_v3_business_search&utm_source=IokN4du3-7NwKcCaUms5LA", "review_count": 486, "categories": [{"alias": "breakfast_brunch", "title": "Breakfast & Brunch"}, {"alias": "cafes", "title": "Cafes"}, {"alias": "bakeries", "title": "Bakeries"}], "rating": 4.0, "coordinates": {"latitude": 38.23323, "longitude": -122.643639}, "transactions": [], "price": "$$", "location": {"address1": "316 Western Ave", "address2": "", "address3": "", "city": "Petaluma", "zip_code": "94952", "country": "US", "state": "CA", "display_address": ["316 Western Ave", "Petaluma, CA 94952"]}, "phone": "+17077650199", "display_phone": "(707) 765-0199", "distance": 1330.3585636167809}, {"id": "t-FZuYo9hrQ3x_WpN8lXvQ", "alias": "in-n-out-burger-petaluma-2", "name": "In-N-Out Burger", "image_url": "https://s3-media3.fl.yelpcdn.com/bphoto/QyQi_pQPXvQc-JZPCYScUw/o.jpg", "is_closed": false, "url": "https://www.yelp.com/biz/in-n-out-burger-petaluma-2?adjust_creative=IokN4du3-7NwKcCaUms5LA&utm_campaign=yelp_api_v3&utm_medium=api_v3_business_search&utm_source=IokN4du3-7NwKcCaUms5LA", "review_count": 169, "categories": [{"alias": "hotdogs", "title": "Fast Food"}, {"alias": "burgers", "title": "Burgers"}], "rating": 4.0, "coordinates": {"latitude": 38.2346541, "longitude": -122.6208636}, "transactions": [], "price": "$", "location": {"address1": "1010 Lakeville Hwy", "address2": "", "address3": "", "city": "Petaluma", "zip_code": "94952", "country": "US", "state": "CA", "display_address": ["1010 Lakeville Hwy", "Petaluma, CA 94952"]}, "phone": "+18007861000", "display_phone": "(800) 786-1000", "distance": 1538.203204983057}, {"id": "t3DLx9fd-yH8bU1fvzNsoA", "alias": "kabuki-japanese-restaurant-petaluma", "name": "Kabuki Japanese Restaurant", "image_url": "https://s3-media1.fl.yelpcdn.com/bphoto/UUMW9kRVHMGZsCtUXR_9wg/o.jpg", "is_closed": false, "url": "https://www.yelp.com/biz/kabuki-japanese-restaurant-petaluma?adjust_creative=IokN4du3-7NwKcCaUms5LA&utm_campaign=yelp_api_v3&utm_medium=api_v3_business_search&utm_source=IokN4du3-7NwKcCaUms5LA", "review_count": 172, "categories": [{"alias": "japanese", "title": "Japanese"}, {"alias": "sushi", "title": "Sushi Bars"}], "rating": 3.5, "coordinates": {"latitude": 38.2333344966173, "longitude": -122.639875262976}, "transactions": ["pickup"], "price": "$$", "location": {"address1": "17 Petaluma Blvd N", "address2": "", "address3": "", "city": "Petaluma", "zip_code": "94952", "country": "US", "state": "CA", "display_address": ["17 Petaluma Blvd N", "Petaluma, CA 94952"]}, "phone": "+17077733232", "display_phone": "(707) 773-3232", "distance": 1167.543198051879}, {"id": "gZvuKdQ9U-5UOshXRC4PhA", "alias": "aqus-cafe-petaluma", "name": "Aqus Cafe", "image_url": "https://s3-media2.fl.yelpcdn.com/bphoto/C63zfft7MothjexN-Gwn-Q/o.jpg", "is_closed": false, "url": "https://www.yelp.com/biz/aqus-cafe-petaluma?adjust_creative=IokN4du3-7NwKcCaUms5LA&utm_campaign=yelp_api_v3&utm_medium=api_v3_business_search&utm_source=IokN4du3-7NwKcCaUms5LA", "review_count": 224, "categories": [{"alias": "coffee", "title": "Coffee & Tea"}, {"alias": "cafes", "title": "Cafes"}, {"alias": "musicvenues", "title": "Music Venues"}], "rating": 4.0, "coordinates": {"latitude": 38.2312989, "longitude": -122.6312489}, "transactions": [], "price": "$$", "location": {"address1": "189 H St", "address2": "", "address3": "", "city": "Petaluma", "zip_code": "94952", "country": "US", "state": "CA", "display_address": ["189 H St", "Petaluma, CA 94952"]}, "phone": "+17077786060", "display_phone": "(707) 778-6060", "distance": 1335.74685617931}, {"id": "svIbfU0D8Bc8cayLda0Wpg", "alias": "the-new-yorker-pizza-and-restaurant-petaluma", "name": "The New Yorker Pizza & Restaurant", "image_url": "https://s3-media4.fl.yelpcdn.com/bphoto/JPSMqjTHhJMr865smAbFig/o.jpg", "is_closed": false, "url": "https://www.yelp.com/biz/the-new-yorker-pizza-and-restaurant-petaluma?adjust_creative=IokN4du3-7NwKcCaUms5LA&utm_campaign=yelp_api_v3&utm_medium=api_v3_business_search&utm_source=IokN4du3-7NwKcCaUms5LA", "review_count": 240, "categories": [{"alias": "pizza", "title": "Pizza"}, {"alias": "italian", "title": "Italian"}, {"alias": "bars", "title": "Bars"}], "rating": 3.5, "coordinates": {"latitude": 38.2331494, "longitude": -122.6396261}, "transactions": [], "price": "$$", "location": {"address1": "3 Petaluma Blvd N", "address2": "", "address3": "", "city": "Petaluma", "zip_code": "94952", "country": "US", "state": "CA", "display_address": ["3 Petaluma Blvd N", "Petaluma, CA 94952"]}, "phone": "+17077627595", "display_phone": "(707) 762-7595", "distance": 1173.2588336511499}, {"id": "z3oTDZBdqdNiY3C4Yb908A", "alias": "mr-moms-cafe-petaluma", "name": "Mr. Mom's Cafe", "image_url": "https://s3-media3.fl.yelpcdn.com/bphoto/6L6n3SWlcpIuXqjUJHtQkA/o.jpg", "is_closed": false, "url": "https://www.yelp.com/biz/mr-moms-cafe-petaluma?adjust_creative=IokN4du3-7NwKcCaUms5LA&utm_campaign=yelp_api_v3&utm_medium=api_v3_business_search&utm_source=IokN4du3-7NwKcCaUms5LA", "review_count": 136, "categories": [{"alias": "breakfast_brunch", "title": "Breakfast & Brunch"}], "rating": 4.0, "coordinates": {"latitude": 38.228307, "longitude": -122.6258533}, "transactions": [], "price": "$$", "location": {"address1": "931 Petaluma Blvd S", "address2": "", "address3": "", "city": "Petaluma", "zip_code": "94952", "country": "US", "state": "CA", "display_address": ["931 Petaluma Blvd S", "Petaluma, CA 94952"]}, "phone": "+17077638538", "display_phone": "(707) 763-8538", "distance": 1801.6152087297248}, {"id": "gk_NOgW3d_GSY7mbpJ_wHQ", "alias": "buffalo-wild-wings-petaluma", "name": "Buffalo Wild Wings", "image_url": "https://s3-media2.fl.yelpcdn.com/bphoto/TIFkuSU9yo_M5gJm84CaBQ/o.jpg", "is_closed": false, "url": "https://www.yelp.com/biz/buffalo-wild-wings-petaluma?adjust_creative=IokN4du3-7NwKcCaUms5LA&utm_campaign=yelp_api_v3&utm_medium=api_v3_business_search&utm_source=IokN4du3-7NwKcCaUms5LA", "review_count": 289, "categories": [{"alias": "sportsbars", "title": "Sports Bars"}, {"alias": "chicken_wings", "title": "Chicken Wings"}, {"alias": "tradamerican", "title": "American (Traditional)"}], "rating": 2.5, "coordinates": {"latitude": 38.2433645892808, "longitude": -122.626119554043}, "transactions": [], "price": "$$", "location": {"address1": "401 Kenilworth Dr", "address2": "Ste 810", "address3": "", "city": "Petaluma", "zip_code": "94952", "country": "US", "state": "CA", "display_address": ["401 Kenilworth Dr", "Ste 810", "Petaluma, CA 94952"]}, "phone": "+17077659464", "display_phone": "(707) 765-9464", "distance": 766.6771581768256}, {"id": "gEVHxL3wuABZCMqPAEMLIg", "alias": "marys-pizza-shack-petaluma-2", "name": "Mary's Pizza Shack", "image_url": "https://s3-media1.fl.yelpcdn.com/bphoto/aZfH5fUmySBnd3lWT0vYyQ/o.jpg", "is_closed": false, "url": "https://www.yelp.com/biz/marys-pizza-shack-petaluma-2?adjust_creative=IokN4du3-7NwKcCaUms5LA&utm_campaign=yelp_api_v3&utm_medium=api_v3_business_search&utm_source=IokN4du3-7NwKcCaUms5LA", "review_count": 151, "categories": [{"alias": "pizza", "title": "Pizza"}, {"alias": "italian", "title": "Italian"}], "rating": 2.5, "coordinates": {"latitude": 38.253645, "longitude": -122.63572}, "transactions": [], "price": "$$", "location": {"address1": "423 North McDowell Blvd", "address2": "", "address3": "", "city": "Petaluma", "zip_code": "94954", "country": "US", "state": "CA", "display_address": ["423 North McDowell Blvd", "Petaluma, CA 94954"]}, "phone": "+17077651959", "display_phone": "(707) 765-1959", "distance": 1183.3892435657526}, {"id": "fGydATQRowgyhxFCpPg1iQ", "alias": "stefanos-pizza-petaluma-2", "name": "Stefano's Pizza", "image_url": "https://s3-media3.fl.yelpcdn.com/bphoto/FUhIwmxB2fGCrC3VxRPm_w/o.jpg", "is_closed": false, "url": "https://www.yelp.com/biz/stefanos-pizza-petaluma-2?adjust_creative=IokN4du3-7NwKcCaUms5LA&utm_campaign=yelp_api_v3&utm_medium=api_v3_business_search&utm_source=IokN4du3-7NwKcCaUms5LA", "review_count": 20, "categories": [{"alias": "chicken_wings", "title": "Chicken Wings"}, {"alias": "salad", "title": "Salad"}, {"alias": "pizza", "title": "Pizza"}], "rating": 3.5, "coordinates": {"latitude": 38.233472, "longitude": -122.638595}, "transactions": ["delivery", "pickup"], "location": {"address1": "5 Petaluma Blvd S", "address2": "Ste D", "address3": "", "city": "Petaluma", "zip_code": "94952", "country": "US", "state": "CA", "display_address": ["5 Petaluma Blvd S", "Ste D", "Petaluma, CA 94952"]}, "phone": "+17079717236", "display_phone": "(707) 971-7236", "distance": 1110.2403865086242}, {"id": "XL6Fyo7wKF3m4lKVKi5I6w", "alias": "charleys-wine-country-deli-petaluma", "name": "Charley's Wine Country Deli", "image_url": "https://s3-media3.fl.yelpcdn.com/bphoto/xf-Jfnreu_mZ2wHKHADpWw/o.jpg", "is_closed": false, "url": "https://www.yelp.com/biz/charleys-wine-country-deli-petaluma?adjust_creative=IokN4du3-7NwKcCaUms5LA&utm_campaign=yelp_api_v3&utm_medium=api_v3_business_search&utm_source=IokN4du3-7NwKcCaUms5LA", "review_count": 28, "categories": [{"alias": "delis", "title": "Delis"}, {"alias": "bars", "title": "Bars"}, {"alias": "sandwiches", "title": "Sandwiches"}], "rating": 4.5, "coordinates": {"latitude": 38.23068, "longitude": -122.6315}, "transactions": ["pickup"], "price": "$$", "location": {"address1": "601 Petaluma Blvd S", "address2": "", "address3": "", "city": "Petaluma", "zip_code": "94952", "country": "US", "state": "CA", "display_address": ["601 Petaluma Blvd S", "Petaluma, CA 94952"]}, "phone": "+17077631714", "display_phone": "(707) 763-1714", "distance": 1398.4644937829996}, {"id": "vV3vcM8iB0J-N64OzX3DWw", "alias": "pinkys-pizza-parlor-petaluma", "name": "Pinky's Pizza Parlor", "image_url": "https://s3-media4.fl.yelpcdn.com/bphoto/hGjicZgZmSepy98xJR1jPQ/o.jpg", "is_closed": false, "url": "https://www.yelp.com/biz/pinkys-pizza-parlor-petaluma?adjust_creative=IokN4du3-7NwKcCaUms5LA&utm_campaign=yelp_api_v3&utm_medium=api_v3_business_search&utm_source=IokN4du3-7NwKcCaUms5LA", "review_count": 112, "categories": [{"alias": "pizza", "title": "Pizza"}, {"alias": "beerbar", "title": "Beer Bar"}, {"alias": "arcades", "title": "Arcades"}], "rating": 3.5, "coordinates": {"latitude": 38.23199, "longitude": -122.63451}, "transactions": [], "price": "$$", "location": {"address1": "321 Petaluma Blvd S", "address2": "", "address3": "", "city": "Petaluma", "zip_code": "94952", "country": "US", "state": "CA", "display_address": ["321 Petaluma Blvd S", "Petaluma, CA 94952"]}, "phone": "+17077632510", "display_phone": "(707) 763-2510", "distance": 1229.8137382085274}, {"id": "lQQDzPSvwiUFSszW4rrXSA", "alias": "boulevard-cafe-and-grill-petaluma", "name": "Boulevard Cafe & Grill", "image_url": "https://s3-media1.fl.yelpcdn.com/bphoto/lv01pLRNZhalimGo6NlBbQ/o.jpg", "is_closed": false, "url": "https://www.yelp.com/biz/boulevard-cafe-and-grill-petaluma?adjust_creative=IokN4du3-7NwKcCaUms5LA&utm_campaign=yelp_api_v3&utm_medium=api_v3_business_search&utm_source=IokN4du3-7NwKcCaUms5LA", "review_count": 110, "categories": [{"alias": "breakfast_brunch", "title": "Breakfast & Brunch"}, {"alias": "tradamerican", "title": "American (Traditional)"}, {"alias": "cafes", "title": "Cafes"}], "rating": 4.0, "coordinates": {"latitude": 38.2463493347168, "longitude": -122.644607543945}, "transactions": [], "price": "$", "location": {"address1": "1096 Petaluma Blvd N", "address2": "", "address3": "", "city": "Petaluma", "zip_code": "94952", "country": "US", "state": "CA", "display_address": ["1096 Petaluma Blvd N", "Petaluma, CA 94952"]}, "phone": "+17077730925", "display_phone": "(707) 773-0925", "distance": 944.6485442612543}, {"id": "cBhFLf4RuFBBM6B6hOK6Tg", "alias": "juiced-petaluma-5", "name": "Juiced", "image_url": "https://s3-media3.fl.yelpcdn.com/bphoto/xg1ooSi1Mi4HE1hGzGtBdw/o.jpg", "is_closed": false, "url": "https://www.yelp.com/biz/juiced-petaluma-5?adjust_creative=IokN4du3-7NwKcCaUms5LA&utm_campaign=yelp_api_v3&utm_medium=api_v3_business_search&utm_source=IokN4du3-7NwKcCaUms5LA", "review_count": 7, "categories": [{"alias": "juicebars", "title": "Juice Bars & Smoothies"}, {"alias": "sandwiches", "title": "Sandwiches"}, {"alias": "salad", "title": "Salad"}], "rating": 4.5, "coordinates": {"latitude": 38.2555246, "longitude": -122.6375515}, "transactions": [], "location": {"address1": "477 N McDowell Blvd", "address2": null, "address3": "", "city": "Petaluma", "zip_code": "94954", "country": "US", "state": "CA", "display_address": ["477 N McDowell Blvd", "Petaluma, CA 94954"]}, "phone": "+17073180878", "display_phone": "(707) 318-0878", "distance": 1419.7088733761493}, {"id": "_wReYqXtETxeGbMJZFswcQ", "alias": "kwei-bin-chinese-restaurant-petaluma", "name": "Kwei Bin Chinese Restaurant", "image_url": "https://s3-media1.fl.yelpcdn.com/bphoto/GbIcL-fc8o7VKiBJfwfdpw/o.jpg", "is_closed": false, "url": "https://www.yelp.com/biz/kwei-bin-chinese-restaurant-petaluma?adjust_creative=IokN4du3-7NwKcCaUms5LA&utm_campaign=yelp_api_v3&utm_medium=api_v3_business_search&utm_source=IokN4du3-7NwKcCaUms5LA", "review_count": 52, "categories": [{"alias": "chinese", "title": "Chinese"}], "rating": 3.0, "coordinates": {"latitude": 38.2405891418457, "longitude": -122.63444519043}, "transactions": [], "price": "$", "location": {"address1": "613 E Washington St", "address2": "", "address3": "", "city": "Petaluma", "zip_code": "94952", "country": "US", "state": "CA", "display_address": ["613 E Washington St", "Petaluma, CA 94952"]}, "phone": "+17077786939", "display_phone": "(707) 778-6939", "distance": 281.7740988374084}, {"id": "ZEX5fSsvnNJIk76pTqD_TA", "alias": "the-aquarium-petaluma", "name": "The Aquarium", "image_url": "https://s3-media1.fl.yelpcdn.com/bphoto/Xbvhl1aQ9OnjbAy9jbSHNQ/o.jpg", "is_closed": false, "url": "https://www.yelp.com/biz/the-aquarium-petaluma?adjust_creative=IokN4du3-7NwKcCaUms5LA&utm_campaign=yelp_api_v3&utm_medium=api_v3_business_search&utm_source=IokN4du3-7NwKcCaUms5LA", "review_count": 9, "categories": [{"alias": "tradamerican", "title": "American (Traditional)"}, {"alias": "bars", "title": "Bars"}], "rating": 3.5, "coordinates": {"latitude": 38.245871, "longitude": -122.643241}, "transactions": [], "price": "$", "location": {"address1": "1030 Petaluma Blvd N", "address2": "", "address3": "", "city": "Petaluma", "zip_code": "94952", "country": "US", "state": "CA", "display_address": ["1030 Petaluma Blvd N", "Petaluma, CA 94952"]}, "phone": "+17077788825", "display_phone": "(707) 778-8825", "distance": 795.2832569219985}, {"id": "90X81OChHJrsBbHUyTPUvA", "alias": "two-niner-diner-petaluma-2", "name": "Two Niner Diner", "image_url": "https://s3-media2.fl.yelpcdn.com/bphoto/FLhN4Dsj1UGPvzrjV6Wntg/o.jpg", "is_closed": false, "url": "https://www.yelp.com/biz/two-niner-diner-petaluma-2?adjust_creative=IokN4du3-7NwKcCaUms5LA&utm_campaign=yelp_api_v3&utm_medium=api_v3_business_search&utm_source=IokN4du3-7NwKcCaUms5LA", "review_count": 149, "categories": [{"alias": "diners", "title": "Diners"}, {"alias": "breakfast_brunch", "title": "Breakfast & Brunch"}, {"alias": "newamerican", "title": "American (New)"}], "rating": 3.5, "coordinates": {"latitude": 38.25901, "longitude": -122.61247}, "transactions": [], "price": "$$", "location": {"address1": "561 Skyranch Rd", "address2": "Ste A", "address3": "", "city": "Petaluma", "zip_code": "94952", "country": "US", "state": "CA", "display_address": ["561 Skyranch Rd", "Ste A", "Petaluma, CA 94952"]}, "phone": "+17077652900", "display_phone": "(707) 765-2900", "distance": 2562.666881902709}, {"id": "eooPV6Z911ziz7jRtTRZpw", "alias": "lolitas-market-petaluma", "name": "Lolita's Market", "image_url": "https://s3-media4.fl.yelpcdn.com/bphoto/DhS1VhNBTgI3e_VBmx_KUw/o.jpg", "is_closed": false, "url": "https://www.yelp.com/biz/lolitas-market-petaluma?adjust_creative=IokN4du3-7NwKcCaUms5LA&utm_campaign=yelp_api_v3&utm_medium=api_v3_business_search&utm_source=IokN4du3-7NwKcCaUms5LA", "review_count": 52, "categories": [{"alias": "grocery", "title": "Grocery"}, {"alias": "mexican", "title": "Mexican"}], "rating": 4.0, "coordinates": {"latitude": 38.2358245849609, "longitude": -122.630012512207}, "transactions": [], "price": "$", "location": {"address1": "451 Lakeville St", "address2": "", "address3": "", "city": "Petaluma", "zip_code": "94952", "country": "US", "state": "CA", "display_address": ["451 Lakeville St", "Petaluma, CA 94952"]}, "phone": "+17077668929", "display_phone": "(707) 766-8929", "distance": 894.8956259338211}, {"id": "MJwP3Qmfe1omcZ5MnP0OYw", "alias": "maguires-pub-petaluma-2", "name": "Maguire's Pub", "image_url": "https://s3-media3.fl.yelpcdn.com/bphoto/GR2OXNjGQ4AZHZAILQy9qg/o.jpg", "is_closed": false, "url": "https://www.yelp.com/biz/maguires-pub-petaluma-2?adjust_creative=IokN4du3-7NwKcCaUms5LA&utm_campaign=yelp_api_v3&utm_medium=api_v3_business_search&utm_source=IokN4du3-7NwKcCaUms5LA", "review_count": 149, "categories": [{"alias": "tradamerican", "title": "American (Traditional)"}, {"alias": "irish_pubs", "title": "Irish Pub"}], "rating": 3.0, "coordinates": {"latitude": 38.2348969, "longitude": -122.642097}, "transactions": [], "price": "$$", "location": {"address1": "145 Kentucky St", "address2": "", "address3": "", "city": "Petaluma", "zip_code": "94952", "country": "US", "state": "CA", "display_address": ["145 Kentucky St", "Petaluma, CA 94952"]}, "phone": "+17077629800", "display_phone": "(707) 762-9800", "distance": 1101.2799875328922}, {"id": "yvVgq8Nfjprw5utCdAEx5g", "alias": "rubios-coastal-grill-petaluma", "name": "Rubio's Coastal Grill", "image_url": "https://s3-media3.fl.yelpcdn.com/bphoto/Zr5_cG7YKNPpZGcz58veYw/o.jpg", "is_closed": false, "url": "https://www.yelp.com/biz/rubios-coastal-grill-petaluma?adjust_creative=IokN4du3-7NwKcCaUms5LA&utm_campaign=yelp_api_v3&utm_medium=api_v3_business_search&utm_source=IokN4du3-7NwKcCaUms5LA", "review_count": 93, "categories": [{"alias": "mexican", "title": "Mexican"}, {"alias": "seafood", "title": "Seafood"}, {"alias": "salad", "title": "Salad"}], "rating": 3.0, "coordinates": {"latitude": 38.2546246, "longitude": -122.6359395}, "transactions": [], "price": "$", "location": {"address1": "441 N McDowell Blvd", "address2": null, "address3": null, "city": "Petaluma", "zip_code": "94954", "country": "US", "state": "CA", "display_address": ["441 N McDowell Blvd", "Petaluma, CA 94954"]}, "phone": "+17076587040", "display_phone": "(707) 658-7040", "distance": 1257.7757083353808}, {"id": "F8RnWZJf6HzE2T1WJYBukw", "alias": "lumberjacks-restaurant-petaluma", "name": "Lumberjacks Restaurant", "image_url": "https://s3-media2.fl.yelpcdn.com/bphoto/oqZdZ6qCDaA-zgvd7GdITA/o.jpg", "is_closed": false, "url": "https://www.yelp.com/biz/lumberjacks-restaurant-petaluma?adjust_creative=IokN4du3-7NwKcCaUms5LA&utm_campaign=yelp_api_v3&utm_medium=api_v3_business_search&utm_source=IokN4du3-7NwKcCaUms5LA", "review_count": 206, "categories": [{"alias": "tradamerican", "title": "American (Traditional)"}, {"alias": "breakfast_brunch", "title": "Breakfast & Brunch"}], "rating": 3.0, "coordinates": {"latitude": 38.2414703, "longitude": -122.6322403}, "transactions": [], "price": "$$", "location": {"address1": "732 E Washington S", "address2": "", "address3": "", "city": "Petaluma", "zip_code": "94952", "country": "US", "state": "CA", "display_address": ["732 E Washington S", "Petaluma, CA 94952"]}, "phone": "+17077624095", "display_phone": "(707) 762-4095", "distance": 263.4844567396731}, {"id": "pxXM515Iyq0WeKysv9tWGw", "alias": "la-hacienda-petaluma-petaluma-2", "name": "La Hacienda Petaluma", "image_url": "https://s3-media4.fl.yelpcdn.com/bphoto/J9p3Rn8CPNOxzt_9w9BkPg/o.jpg", "is_closed": false, "url": "https://www.yelp.com/biz/la-hacienda-petaluma-petaluma-2?adjust_creative=IokN4du3-7NwKcCaUms5LA&utm_campaign=yelp_api_v3&utm_medium=api_v3_business_search&utm_source=IokN4du3-7NwKcCaUms5LA", "review_count": 88, "categories": [{"alias": "mexican", "title": "Mexican"}], "rating": 3.5, "coordinates": {"latitude": 38.2355277, "longitude": -122.6236609}, "transactions": ["pickup"], "price": "$", "location": {"address1": "953 Lakeville St", "address2": "", "address3": "", "city": "Petaluma", "zip_code": "94952", "country": "US", "state": "CA", "display_address": ["953 Lakeville St", "Petaluma, CA 94952"]}, "phone": "+17077787921", "display_phone": "(707) 778-7921", "distance": 1312.755334500075}, {"id": "GGkagkElxOwHl8WYoAMClg", "alias": "red-boy-pizza-petaluma-petaluma", "name": "Red Boy Pizza Petaluma", "image_url": "https://s3-media2.fl.yelpcdn.com/bphoto/Z0XNdElaWhDDYU9tpu89Yg/o.jpg", "is_closed": false, "url": "https://www.yelp.com/biz/red-boy-pizza-petaluma-petaluma?adjust_creative=IokN4du3-7NwKcCaUms5LA&utm_campaign=yelp_api_v3&utm_medium=api_v3_business_search&utm_source=IokN4du3-7NwKcCaUms5LA", "review_count": 98, "categories": [{"alias": "pizza", "title": "Pizza"}, {"alias": "italian", "title": "Italian"}, {"alias": "sandwiches", "title": "Sandwiches"}], "rating": 3.5, "coordinates": {"latitude": 38.2454399, "longitude": -122.6273382}, "transactions": ["pickup", "delivery"], "price": "$$", "location": {"address1": "401 Kenilworth Dr", "address2": "Ste 910", "address3": "", "city": "Petaluma", "zip_code": "94952", "country": "US", "state": "CA", "display_address": ["401 Kenilworth Dr", "Ste 910", "Petaluma, CA 94952"]}, "phone": "+17077651300", "display_phone": "(707) 765-1300", "distance": 711.9848681429404}, {"id": "1G2g0Z4fBX3gPYaPr5gztQ", "alias": "acre-coffee-petaluma-8", "name": "Acre Coffee", "image_url": "https://s3-media3.fl.yelpcdn.com/bphoto/MMf5k6ZJpak8GE60DBJpYA/o.jpg", "is_closed": false, "url": "https://www.yelp.com/biz/acre-coffee-petaluma-8?adjust_creative=IokN4du3-7NwKcCaUms5LA&utm_campaign=yelp_api_v3&utm_medium=api_v3_business_search&utm_source=IokN4du3-7NwKcCaUms5LA", "review_count": 60, "categories": [{"alias": "donuts", "title": "Donuts"}, {"alias": "coffeeroasteries", "title": "Coffee Roasteries"}, {"alias": "breakfast_brunch", "title": "Breakfast & Brunch"}], "rating": 4.0, "coordinates": {"latitude": 38.2496342803532, "longitude": -122.628742083907}, "transactions": [], "price": "$$", "location": {"address1": "173 N McDowell Blvd", "address2": "Ste B", "address3": null, "city": "Petaluma", "zip_code": "94954", "country": "US", "state": "CA", "display_address": ["173 N McDowell Blvd", "Ste B", "Petaluma, CA 94954"]}, "phone": "+17077746909", "display_phone": "(707) 774-6909", "distance": 910.2320325356958}, {"id": "dX1FLj1oCRLEMAOzGYwY7g", "alias": "the-habit-burger-grill-petaluma", "name": "The Habit Burger Grill", "image_url": "https://s3-media3.fl.yelpcdn.com/bphoto/MK9nLBTuP52tJQ7odbJOcw/o.jpg", "is_closed": false, "url": "https://www.yelp.com/biz/the-habit-burger-grill-petaluma?adjust_creative=IokN4du3-7NwKcCaUms5LA&utm_campaign=yelp_api_v3&utm_medium=api_v3_business_search&utm_source=IokN4du3-7NwKcCaUms5LA", "review_count": 137, "categories": [{"alias": "burgers", "title": "Burgers"}, {"alias": "salad", "title": "Salad"}, {"alias": "sandwiches", "title": "Sandwiches"}], "rating": 3.0, "coordinates": {"latitude": 38.2540816914295, "longitude": -122.636260154196}, "transactions": [], "price": "$", "location": {"address1": "447 N McDowell Blvd", "address2": "", "address3": "", "city": "Petaluma", "zip_code": "94954", "country": "US", "state": "CA", "display_address": ["447 N McDowell Blvd", "Petaluma, CA 94954"]}, "phone": "+17077788301", "display_phone": "(707) 778-8301", "distance": 1235.5395717937154}, {"id": "T7ub5HM74Bw31Hde-zzbhA", "alias": "marys-pizza-shack-petaluma", "name": "Mary's Pizza Shack", "image_url": "https://s3-media1.fl.yelpcdn.com/bphoto/zJqZPz22525IC8nYLuXEEw/o.jpg", "is_closed": false, "url": "https://www.yelp.com/biz/marys-pizza-shack-petaluma?adjust_creative=IokN4du3-7NwKcCaUms5LA&utm_campaign=yelp_api_v3&utm_medium=api_v3_business_search&utm_source=IokN4du3-7NwKcCaUms5LA", "review_count": 161, "categories": [{"alias": "pizza", "title": "Pizza"}, {"alias": "italian", "title": "Italian"}], "rating": 3.0, "coordinates": {"latitude": 38.2376117, "longitude": -122.6366429}, "transactions": [], "price": "$$", "location": {"address1": "359 E Washington St", "address2": "", "address3": "", "city": "Petaluma", "zip_code": "94952", "country": "US", "state": "CA", "display_address": ["359 E Washington St", "Petaluma, CA 94952"]}, "phone": "+17077787200", "display_phone": "(707) 778-7200", "distance": 611.7342182960738}, {"id": "1bBmCWFQUFL455qGGZgS6g", "alias": "the-marina-bean-petaluma", "name": "The Marina Bean", "image_url": "https://s3-media3.fl.yelpcdn.com/bphoto/Fn8rSH84NyMwUkG8pJqQhQ/o.jpg", "is_closed": false, "url": "https://www.yelp.com/biz/the-marina-bean-petaluma?adjust_creative=IokN4du3-7NwKcCaUms5LA&utm_campaign=yelp_api_v3&utm_medium=api_v3_business_search&utm_source=IokN4du3-7NwKcCaUms5LA", "review_count": 19, "categories": [{"alias": "coffee", "title": "Coffee & Tea"}, {"alias": "newamerican", "title": "American (New)"}], "rating": 4.0, "coordinates": {"latitude": 38.23157, "longitude": -122.6139}, "transactions": [], "price": "$", "location": {"address1": "765 Baywood Dr", "address2": "Ste 145", "address3": "", "city": "Petaluma", "zip_code": "94954", "country": "US", "state": "CA", "display_address": ["765 Baywood Dr", "Ste 145", "Petaluma, CA 94954"]}, "phone": "+17077787543", "display_phone": "(707) 778-7543", "distance": 2272.778908106232}, {"id": "n_y2Zzl9HwouLcv333NaIw", "alias": "pizza-guys-petaluma-3", "name": "Pizza Guys", "image_url": "https://s3-media3.fl.yelpcdn.com/bphoto/LRr6z174ezKss9VOAQ55rQ/o.jpg", "is_closed": false, "url": "https://www.yelp.com/biz/pizza-guys-petaluma-3?adjust_creative=IokN4du3-7NwKcCaUms5LA&utm_campaign=yelp_api_v3&utm_medium=api_v3_business_search&utm_source=IokN4du3-7NwKcCaUms5LA", "review_count": 103, "categories": [{"alias": "pizza", "title": "Pizza"}], "rating": 4.0, "coordinates": {"latitude": 38.26921, "longitude": -122.6391}, "transactions": ["pickup", "delivery"], "price": "$$", "location": {"address1": "701 Sonoma Mountain Pkwy", "address2": "", "address3": null, "city": "Petaluma", "zip_code": "94954", "country": "US", "state": "CA", "display_address": ["701 Sonoma Mountain Pkwy", "Petaluma, CA 94954"]}, "phone": "+17077782222", "display_phone": "(707) 778-2222", "distance": 2920.6372349762214}, {"id": "--MOnu9kmxNuubdMLt73mg", "alias": "five-guys-petaluma", "name": "Five Guys", "image_url": "https://s3-media1.fl.yelpcdn.com/bphoto/MVbk0358t_GDOkDFJqMMNA/o.jpg", "is_closed": false, "url": "https://www.yelp.com/biz/five-guys-petaluma?adjust_creative=IokN4du3-7NwKcCaUms5LA&utm_campaign=yelp_api_v3&utm_medium=api_v3_business_search&utm_source=IokN4du3-7NwKcCaUms5LA", "review_count": 119, "categories": [{"alias": "burgers", "title": "Burgers"}, {"alias": "hotdogs", "title": "Fast Food"}], "rating": 3.0, "coordinates": {"latitude": 38.243779, "longitude": -122.62623}, "transactions": [], "price": "$$", "location": {"address1": "401 Kenilworth Dr", "address2": "Ste 650", "address3": "", "city": "Petaluma", "zip_code": "94952", "country": "US", "state": "CA", "display_address": ["401 Kenilworth Dr", "Ste 650", "Petaluma, CA 94952"]}, "phone": "+17077652255", "display_phone": "(707) 765-2255", "distance": 760.7496431907157}, {"id": "f3cI5cLOmn9g4Qy3o5Jbew", "alias": "the-cheese-steak-shop-petaluma", "name": "The Cheese Steak Shop", "image_url": "https://s3-media2.fl.yelpcdn.com/bphoto/-0ONOJwsDuXfNbhyP6P1VQ/o.jpg", "is_closed": false, "url": "https://www.yelp.com/biz/the-cheese-steak-shop-petaluma?adjust_creative=IokN4du3-7NwKcCaUms5LA&utm_campaign=yelp_api_v3&utm_medium=api_v3_business_search&utm_source=IokN4du3-7NwKcCaUms5LA", "review_count": 78, "categories": [{"alias": "steak", "title": "Steakhouses"}, {"alias": "cheesesteaks", "title": "Cheesesteaks"}, {"alias": "sandwiches", "title": "Sandwiches"}], "rating": 3.5, "coordinates": {"latitude": 38.2437525, "longitude": -122.63088}, "transactions": ["pickup", "delivery"], "price": "$", "location": {"address1": "401 Kenilworth Dr", "address2": "Ste 930", "address3": "", "city": "Petaluma", "zip_code": "94952", "country": "US", "state": "CA", "display_address": ["401 Kenilworth Dr", "Ste 930", "Petaluma, CA 94952"]}, "phone": "+17077634900", "display_phone": "(707) 763-4900", "distance": 359.2834050338394}, {"id": "bwIdCzjyBgp4Quw_uPEISQ", "alias": "fregenes-pizza-petaluma-2", "name": "Fregene's Pizza", "image_url": "https://s3-media4.fl.yelpcdn.com/bphoto/lpdQKp4Yaqm4gtwK1D-6KQ/o.jpg", "is_closed": false, "url": "https://www.yelp.com/biz/fregenes-pizza-petaluma-2?adjust_creative=IokN4du3-7NwKcCaUms5LA&utm_campaign=yelp_api_v3&utm_medium=api_v3_business_search&utm_source=IokN4du3-7NwKcCaUms5LA", "review_count": 27, "categories": [{"alias": "pizza", "title": "Pizza"}, {"alias": "juicebars", "title": "Juice Bars & Smoothies"}, {"alias": "italian", "title": "Italian"}], "rating": 4.0, "coordinates": {"latitude": 38.2386827, "longitude": -122.642712}, "transactions": [], "price": "$", "location": {"address1": "356 Petaluma Blvd N", "address2": "", "address3": "", "city": "Petaluma", "zip_code": "94952", "country": "US", "state": "CA", "display_address": ["356 Petaluma Blvd N", "Petaluma, CA 94952"]}, "phone": "+17077627000", "display_phone": "(707) 762-7000", "distance": 836.5506531986939}, {"id": "l7GsjVl7_idcnU_M2rTWxQ", "alias": "mexican-street-food-truck-petaluma", "name": "Mexican Street Food Truck", "image_url": "https://s3-media4.fl.yelpcdn.com/bphoto/xxjF1EtaUwFikomf_gi4XA/o.jpg", "is_closed": false, "url": "https://www.yelp.com/biz/mexican-street-food-truck-petaluma?adjust_creative=IokN4du3-7NwKcCaUms5LA&utm_campaign=yelp_api_v3&utm_medium=api_v3_business_search&utm_source=IokN4du3-7NwKcCaUms5LA", "review_count": 4, "categories": [{"alias": "foodtrucks", "title": "Food Trucks"}, {"alias": "mexican", "title": "Mexican"}], "rating": 5.0, "coordinates": {"latitude": 38.2349361770072, "longitude": -122.635521703593}, "transactions": [], "price": "$", "location": {"address1": "Weller And E D St", "address2": "", "address3": "", "city": "Petaluma", "zip_code": "94952", "country": "US", "state": "CA", "display_address": ["Weller And E D St", "Petaluma, CA 94952"]}, "phone": "", "display_phone": "", "distance": 902.1465210462576}, {"id": "HP9jsjCStkjtIeurP-sgDg", "alias": "the-chicago-pizzeria-petaluma-2", "name": "The Chicago Pizzeria", "image_url": "https://s3-media3.fl.yelpcdn.com/bphoto/bw_pRiscvaA1JfCYyMTT4Q/o.jpg", "is_closed": false, "url": "https://www.yelp.com/biz/the-chicago-pizzeria-petaluma-2?adjust_creative=IokN4du3-7NwKcCaUms5LA&utm_campaign=yelp_api_v3&utm_medium=api_v3_business_search&utm_source=IokN4du3-7NwKcCaUms5LA", "review_count": 113, "categories": [{"alias": "pizza", "title": "Pizza"}], "rating": 3.0, "coordinates": {"latitude": 38.2511337, "longitude": -122.6296621}, "transactions": ["pickup", "delivery"], "price": "$$", "location": {"address1": "203 N Mcdowell Blvd", "address2": "", "address3": "", "city": "Petaluma", "zip_code": "94954", "country": "US", "state": "CA", "display_address": ["203 N Mcdowell Blvd", "Petaluma, CA 94954"]}, "phone": "+17077668600", "display_phone": "(707) 766-8600", "distance": 974.0996399254326}, {"id": "7L-Z-W6gpPh05Klul88few", "alias": "deep-smoke-napa-napa-2", "name": "Deep Smoke Napa", "image_url": "https://s3-media2.fl.yelpcdn.com/bphoto/r0Y93GK6EZrXzwbIAYehtw/o.jpg", "is_closed": false, "url": "https://www.yelp.com/biz/deep-smoke-napa-napa-2?adjust_creative=IokN4du3-7NwKcCaUms5LA&utm_campaign=yelp_api_v3&utm_medium=api_v3_business_search&utm_source=IokN4du3-7NwKcCaUms5LA", "review_count": 8, "categories": [{"alias": "foodtrucks", "title": "Food Trucks"}, {"alias": "catering", "title": "Caterers"}, {"alias": "bbq", "title": "Barbeque"}], "rating": 5.0, "coordinates": {"latitude": 38.2971305847168, "longitude": -122.286437988281}, "transactions": [], "location": {"address1": "", "address2": null, "address3": "", "city": "Napa", "zip_code": "94581", "country": "US", "state": "CA", "display_address": ["Napa, CA 94581"]}, "phone": "+17073660227", "display_phone": "(707) 366-0227", "distance": 31621.900998524776}, {"id": "nKjFCE_wTF4DCyheiTc_Mg", "alias": "noahs-bagels-petaluma", "name": "Noah's Bagels", "image_url": "https://s3-media1.fl.yelpcdn.com/bphoto/dDDf4RyCVNpOLmsGgEsAtw/o.jpg", "is_closed": false, "url": "https://www.yelp.com/biz/noahs-bagels-petaluma?adjust_creative=IokN4du3-7NwKcCaUms5LA&utm_campaign=yelp_api_v3&utm_medium=api_v3_business_search&utm_source=IokN4du3-7NwKcCaUms5LA", "review_count": 98, "categories": [{"alias": "bagels", "title": "Bagels"}, {"alias": "desserts", "title": "Desserts"}, {"alias": "sandwiches", "title": "Sandwiches"}], "rating": 3.0, "coordinates": {"latitude": 38.249663, "longitude": -122.622585}, "transactions": [], "price": "$", "location": {"address1": "375-A S Mcdowell Blvd", "address2": "", "address3": "", "city": "Petaluma", "zip_code": "94954", "country": "US", "state": "CA", "display_address": ["375-A S Mcdowell Blvd", "Petaluma, CA 94954"]}, "phone": "+17077669651", "display_phone": "(707) 766-9651", "distance": 1303.633365295671}, {"id": "CobkqH6m23extnLFuV06RA", "alias": "bodega-tackle-petaluma", "name": "Bodega Tackle", "image_url": "https://s3-media2.fl.yelpcdn.com/bphoto/NhNjYDyQWjXUjKgyRzj7bQ/o.jpg", "is_closed": false, "url": "https://www.yelp.com/biz/bodega-tackle-petaluma?adjust_creative=IokN4du3-7NwKcCaUms5LA&utm_campaign=yelp_api_v3&utm_medium=api_v3_business_search&utm_source=IokN4du3-7NwKcCaUms5LA", "review_count": 2, "categories": [{"alias": "huntingfishingsupplies", "title": "Hunting & Fishing Supplies"}, {"alias": "sandwiches", "title": "Sandwiches"}], "rating": 5.0, "coordinates": {"latitude": 38.234985, "longitude": -122.658442}, "transactions": [], "location": {"address1": "884 Bodega Ave", "address2": null, "address3": "", "city": "Petaluma", "zip_code": "94952", "country": "US", "state": "CA", "display_address": ["884 Bodega Ave", "Petaluma, CA 94952"]}, "phone": "+17075593239", "display_phone": "(707) 559-3239", "distance": 2241.7458863237625}, {"id": "QSpqz-hctBHjy7zPkb-gDA", "alias": "round-table-pizza-petaluma-3", "name": "Round Table Pizza", "image_url": "https://s3-media3.fl.yelpcdn.com/bphoto/qM8CS9RCzfXVke6hNxLPmQ/o.jpg", "is_closed": false, "url": "https://www.yelp.com/biz/round-table-pizza-petaluma-3?adjust_creative=IokN4du3-7NwKcCaUms5LA&utm_campaign=yelp_api_v3&utm_medium=api_v3_business_search&utm_source=IokN4du3-7NwKcCaUms5LA", "review_count": 73, "categories": [{"alias": "pizza", "title": "Pizza"}], "rating": 3.0, "coordinates": {"latitude": 38.2488662, "longitude": -122.6249507}, "transactions": ["pickup", "delivery"], "price": "$$", "location": {"address1": "227 S McDowell Blvd", "address2": "", "address3": "", "city": "Petaluma", "zip_code": "94954", "country": "US", "state": "CA", "display_address": ["227 S McDowell Blvd", "Petaluma, CA 94954"]}, "phone": "+17077733330", "display_phone": "(707) 773-3330", "distance": 1187.0478214661948}, {"id": "X-nJCPNsRQMIUulzIaNK2Q", "alias": "chipotle-mexican-grill-petaluma", "name": "Chipotle Mexican Grill", "image_url": "https://s3-media4.fl.yelpcdn.com/bphoto/yX2bEqzWLuSS1HW-ruH3Jw/o.jpg", "is_closed": false, "url": "https://www.yelp.com/biz/chipotle-mexican-grill-petaluma?adjust_creative=IokN4du3-7NwKcCaUms5LA&utm_campaign=yelp_api_v3&utm_medium=api_v3_business_search&utm_source=IokN4du3-7NwKcCaUms5LA", "review_count": 76, "categories": [{"alias": "mexican", "title": "Mexican"}, {"alias": "hotdogs", "title": "Fast Food"}], "rating": 3.0, "coordinates": {"latitude": 38.2436059829228, "longitude": -122.626389343848}, "transactions": [], "price": "$", "location": {"address1": "401 Kenilworth Dr", "address2": "Ste 710", "address3": "", "city": "Petaluma", "zip_code": "94952", "country": "US", "state": "CA", "display_address": ["401 Kenilworth Dr", "Ste 710", "Petaluma, CA 94952"]}, "phone": "+17077725225", "display_phone": "(707) 772-5225", "distance": 745.0006713538668}, {"id": "pAyqc4xjzrp701CxYiLrRA", "alias": "taco-bell-petaluma", "name": "Taco Bell", "image_url": "https://s3-media4.fl.yelpcdn.com/bphoto/MVWe1BQBju-tFxxhr9h0GA/o.jpg", "is_closed": false, "url": "https://www.yelp.com/biz/taco-bell-petaluma?adjust_creative=IokN4du3-7NwKcCaUms5LA&utm_campaign=yelp_api_v3&utm_medium=api_v3_business_search&utm_source=IokN4du3-7NwKcCaUms5LA", "review_count": 109, "categories": [{"alias": "hotdogs", "title": "Fast Food"}, {"alias": "tacos", "title": "Tacos"}], "rating": 2.0, "coordinates": {"latitude": 38.23811, "longitude": -122.635559}, "transactions": [], "price": "$", "location": {"address1": "406 East Washington Street", "address2": "", "address3": "", "city": "Petaluma", "zip_code": "94952", "country": "US", "state": "CA", "display_address": ["406 East Washington Street", "Petaluma, CA 94952"]}, "phone": "+17077636200", "display_phone": "(707) 763-6200", "distance": 549.3932717512232}, {"id": "0FG-D_-S5FimYnMrHtZ3SA", "alias": "panda-express-petaluma", "name": "Panda Express", "image_url": "https://s3-media3.fl.yelpcdn.com/bphoto/hPI9yCFSMNQI5xkryGEgog/o.jpg", "is_closed": false, "url": "https://www.yelp.com/biz/panda-express-petaluma?adjust_creative=IokN4du3-7NwKcCaUms5LA&utm_campaign=yelp_api_v3&utm_medium=api_v3_business_search&utm_source=IokN4du3-7NwKcCaUms5LA", "review_count": 78, "categories": [{"alias": "chinese", "title": "Chinese"}, {"alias": "hotdogs", "title": "Fast Food"}], "rating": 2.0, "coordinates": {"latitude": 38.248578, "longitude": -122.623909}, "transactions": [], "price": "$", "location": {"address1": "301 S Mcdowell Blvd", "address2": "Space A", "address3": "", "city": "Petaluma", "zip_code": "94952", "country": "US", "state": "CA", "display_address": ["301 S Mcdowell Blvd", "Space A", "Petaluma, CA 94952"]}, "phone": "+17077666330", "display_phone": "(707) 766-6330", "distance": 1140.5230647052374}, {"id": "SpNblabfXXhxipTGt9Gmkw", "alias": "lolas-restaurant-and-market-petaluma", "name": "Lolas Restaurant & Market", "image_url": "https://s3-media4.fl.yelpcdn.com/bphoto/eNCwTidoac7AKNGoOn59pw/o.jpg", "is_closed": false, "url": "https://www.yelp.com/biz/lolas-restaurant-and-market-petaluma?adjust_creative=IokN4du3-7NwKcCaUms5LA&utm_campaign=yelp_api_v3&utm_medium=api_v3_business_search&utm_source=IokN4du3-7NwKcCaUms5LA", "review_count": 29, "categories": [{"alias": "gourmet", "title": "Specialty Food"}, {"alias": "mexican", "title": "Mexican"}], "rating": 3.0, "coordinates": {"latitude": 38.2490952891969, "longitude": -122.629926255452}, "transactions": [], "price": "$", "location": {"address1": "241 N McDowell Blvd", "address2": "", "address3": "", "city": "Petaluma", "zip_code": "94954", "country": "US", "state": "CA", "display_address": ["241 N McDowell Blvd", "Petaluma, CA 94954"]}, "phone": "+17077622112", "display_phone": "(707) 762-2112", "distance": 802.3020650628139}, {"id": "gEwmDdZ8n7ahd9aN1K7QkA", "alias": "el-pollo-loco-petaluma", "name": "El Pollo Loco", "image_url": "https://s3-media2.fl.yelpcdn.com/bphoto/AtsmogiOA3QrjMIueCAAAg/o.jpg", "is_closed": false, "url": "https://www.yelp.com/biz/el-pollo-loco-petaluma?adjust_creative=IokN4du3-7NwKcCaUms5LA&utm_campaign=yelp_api_v3&utm_medium=api_v3_business_search&utm_source=IokN4du3-7NwKcCaUms5LA", "review_count": 62, "categories": [{"alias": "hotdogs", "title": "Fast Food"}, {"alias": "mexican", "title": "Mexican"}], "rating": 2.5, "coordinates": {"latitude": 38.2509452104568, "longitude": -122.629135027528}, "transactions": [], "price": "$", "location": {"address1": "211 N Mcdowell", "address2": null, "address3": null, "city": "Petaluma", "zip_code": "94954", "country": "US", "state": "CA", "display_address": ["211 N Mcdowell", "Petaluma, CA 94954"]}, "phone": "+17077820797", "display_phone": "(707) 782-0797", "distance": 978.1381196373878}, {"id": "Cal_Aaa0CJ6q5QUQcfYIrw", "alias": "dine-in-marin-petaluma-3", "name": "Dine-In Marin", "image_url": "https://s3-media1.fl.yelpcdn.com/bphoto/56zXg1a1gID97uttt2m3HQ/o.jpg", "is_closed": false, "url": "https://www.yelp.com/biz/dine-in-marin-petaluma-3?adjust_creative=IokN4du3-7NwKcCaUms5LA&utm_campaign=yelp_api_v3&utm_medium=api_v3_business_search&utm_source=IokN4du3-7NwKcCaUms5LA", "review_count": 2, "categories": [{"alias": "fooddeliveryservices", "title": "Food Delivery Services"}, {"alias": "soup", "title": "Soup"}], "rating": 4.5, "coordinates": {"latitude": 38.2309842388269, "longitude": -122.631741128862}, "transactions": [], "location": {"address1": "1036 Garfield Dr", "address2": "", "address3": null, "city": "Petaluma", "zip_code": "94954", "country": "US", "state": "CA", "display_address": ["1036 Garfield Dr", "Petaluma, CA 94954"]}, "phone": "+14159279007", "display_phone": "(415) 927-9007", "distance": 1366.5227409108145}, {"id": "Tvlx5LV9Q_iwgcYZKvrDYA", "alias": "papa-murphys-petaluma-2", "name": "Papa Murphy's", "image_url": "https://s3-media3.fl.yelpcdn.com/bphoto/HaZ4Y8U3nFn0g8De7NAjsw/o.jpg", "is_closed": false, "url": "https://www.yelp.com/biz/papa-murphys-petaluma-2?adjust_creative=IokN4du3-7NwKcCaUms5LA&utm_campaign=yelp_api_v3&utm_medium=api_v3_business_search&utm_source=IokN4du3-7NwKcCaUms5LA", "review_count": 31, "categories": [{"alias": "pizza", "title": "Pizza"}], "rating": 3.5, "coordinates": {"latitude": 38.2359536701881, "longitude": -122.622468898981}, "transactions": [], "price": "$", "location": {"address1": "965 Lakeville Street", "address2": "Suite C8", "address3": null, "city": "Petaluma", "zip_code": "94952", "country": "US", "state": "CA", "display_address": ["965 Lakeville Street", "Suite C8", "Petaluma, CA 94952"]}, "phone": "+17077651011", "display_phone": "(707) 765-1011", "distance": 1339.481264408319}, {"id": "wgW4LbRcEov6aqeoPkMzjQ", "alias": "java-hut-petaluma", "name": "Java Hut", "image_url": "https://s3-media3.fl.yelpcdn.com/bphoto/5u5kDPPzPjwDN8ViOkImbA/o.jpg", "is_closed": false, "url": "https://www.yelp.com/biz/java-hut-petaluma?adjust_creative=IokN4du3-7NwKcCaUms5LA&utm_campaign=yelp_api_v3&utm_medium=api_v3_business_search&utm_source=IokN4du3-7NwKcCaUms5LA", "review_count": 47, "categories": [{"alias": "coffee", "title": "Coffee & Tea"}, {"alias": "breakfast_brunch", "title": "Breakfast & Brunch"}, {"alias": "donuts", "title": "Donuts"}], "rating": 4.0, "coordinates": {"latitude": 38.2434498071836, "longitude": -122.630744216715}, "transactions": [], "price": "$", "location": {"address1": "100 Fairgrounds Dr", "address2": "", "address3": "", "city": "Petaluma", "zip_code": "94952", "country": "US", "state": "CA", "display_address": ["100 Fairgrounds Dr", "Petaluma, CA 94952"]}, "phone": "+17077635496", "display_phone": "(707) 763-5496", "distance": 364.9599727500544}, {"id": "pWSQefke7XRoWgG8CPrFBQ", "alias": "firetrail-pizza-petaluma-3", "name": "Firetrail Pizza", "image_url": "https://s3-media2.fl.yelpcdn.com/bphoto/MV0wD6s7YSOAEnDHzCoGJQ/o.jpg", "is_closed": false, "url": "https://www.yelp.com/biz/firetrail-pizza-petaluma-3?adjust_creative=IokN4du3-7NwKcCaUms5LA&utm_campaign=yelp_api_v3&utm_medium=api_v3_business_search&utm_source=IokN4du3-7NwKcCaUms5LA", "review_count": 9, "categories": [{"alias": "pizza", "title": "Pizza"}], "rating": 3.0, "coordinates": {"latitude": 38.18207, "longitude": -122.66783}, "transactions": [], "location": {"address1": "", "address2": "", "address3": null, "city": "Petaluma", "zip_code": "94952", "country": "US", "state": "CA", "display_address": ["Petaluma, CA 94952"]}, "phone": "+17077203410", "display_phone": "(707) 720-3410", "distance": 1189.3170934203522}, {"id": "rM6pPB_qmQ3de5yGpfLT1g", "alias": "lomo-libre-san-francisco-2", "name": "Lomo Libre", "image_url": "https://s3-media1.fl.yelpcdn.com/bphoto/vjnO-EUjFHKoLMy2_JQYvg/o.jpg", "is_closed": false, "url": "https://www.yelp.com/biz/lomo-libre-san-francisco-2?adjust_creative=IokN4du3-7NwKcCaUms5LA&utm_campaign=yelp_api_v3&utm_medium=api_v3_business_search&utm_source=IokN4du3-7NwKcCaUms5LA", "review_count": 8, "categories": [{"alias": "foodtrucks", "title": "Food Trucks"}, {"alias": "peruvian", "title": "Peruvian"}], "rating": 5.0, "coordinates": {"latitude": 37.799634, "longitude": -122.436301}, "transactions": [], "location": {"address1": "2101 Lombard St", "address2": "", "address3": null, "city": "San Francisco", "zip_code": "94123", "country": "US", "state": "CA", "display_address": ["2101 Lombard St", "San Francisco, CA 94123"]}, "phone": "+14156198149", "display_phone": "(415) 619-8149", "distance": 52280.83145911396}, {"id": "CUwBAy6lrFi4x6Neu9eRVw", "alias": "mini-street-burger-alameda-3", "name": "Mini Street Burger", "image_url": "https://s3-media2.fl.yelpcdn.com/bphoto/Kh-OQKBIclWY1dCeIuu57w/o.jpg", "is_closed": false, "url": "https://www.yelp.com/biz/mini-street-burger-alameda-3?adjust_creative=IokN4du3-7NwKcCaUms5LA&utm_campaign=yelp_api_v3&utm_medium=api_v3_business_search&utm_source=IokN4du3-7NwKcCaUms5LA", "review_count": 28, "categories": [{"alias": "foodtrucks", "title": "Food Trucks"}, {"alias": "burgers", "title": "Burgers"}], "rating": 4.0, "coordinates": {"latitude": 37.82628, "longitude": -122.25101}, "transactions": [], "location": {"address1": null, "address2": null, "address3": null, "city": "Alameda", "zip_code": "94611", "country": "US", "state": "CA", "display_address": ["Alameda, CA 94611"]}, "phone": "+15108278982", "display_phone": "(510) 827-8982", "distance": 59186.15864564317}, {"id": "Eux6TM34XyoPbomXp9W8vg", "alias": "mountain-mikes-pizza-petaluma", "name": "Mountain Mike's Pizza", "image_url": "https://s3-media4.fl.yelpcdn.com/bphoto/G6eb4Tl_9PHKYLO-G-GFFg/o.jpg", "is_closed": false, "url": "https://www.yelp.com/biz/mountain-mikes-pizza-petaluma?adjust_creative=IokN4du3-7NwKcCaUms5LA&utm_campaign=yelp_api_v3&utm_medium=api_v3_business_search&utm_source=IokN4du3-7NwKcCaUms5LA", "review_count": 77, "categories": [{"alias": "pizza", "title": "Pizza"}], "rating": 3.0, "coordinates": {"latitude": 38.2355548, "longitude": -122.6242741}, "transactions": ["pickup", "delivery"], "price": "$$", "location": {"address1": "919 Lakeville St", "address2": "", "address3": "", "city": "Petaluma", "zip_code": "94952", "country": "US", "state": "CA", "display_address": ["919 Lakeville St", "Petaluma, CA 94952"]}, "phone": "+17077698989", "display_phone": "(707) 769-8989", "distance": 1217.2186491525322}, {"id": "B0vo3Te2a0_Z2paRLDImMw", "alias": "wendys-petaluma", "name": "Wendy's", "image_url": "https://s3-media3.fl.yelpcdn.com/bphoto/0CkPna6hSqLBb87NAhqOQw/o.jpg", "is_closed": false, "url": "https://www.yelp.com/biz/wendys-petaluma?adjust_creative=IokN4du3-7NwKcCaUms5LA&utm_campaign=yelp_api_v3&utm_medium=api_v3_business_search&utm_source=IokN4du3-7NwKcCaUms5LA", "review_count": 38, "categories": [{"alias": "burgers", "title": "Burgers"}, {"alias": "hotdogs", "title": "Fast Food"}], "rating": 2.5, "coordinates": {"latitude": 38.2390937805176, "longitude": -122.634552001953}, "transactions": [], "price": "$", "location": {"address1": "500 E Washington St", "address2": "", "address3": "", "city": "Petaluma", "zip_code": "94952", "country": "US", "state": "CA", "display_address": ["500 E Washington St", "Petaluma, CA 94952"]}, "phone": "+17077624790", "display_phone": "(707) 762-4790", "distance": 427.0256318888608}, {"id": "koGNEPes1n9zm9Vs3RqBLQ", "alias": "mcdonalds-petaluma", "name": "McDonald's", "image_url": "https://s3-media2.fl.yelpcdn.com/bphoto/A-bAqB-mghW__oV9G-H3Bw/o.jpg", "is_closed": false, "url": "https://www.yelp.com/biz/mcdonalds-petaluma?adjust_creative=IokN4du3-7NwKcCaUms5LA&utm_campaign=yelp_api_v3&utm_medium=api_v3_business_search&utm_source=IokN4du3-7NwKcCaUms5LA", "review_count": 44, "categories": [{"alias": "hotdogs", "title": "Fast Food"}, {"alias": "burgers", "title": "Burgers"}, {"alias": "coffee", "title": "Coffee & Tea"}], "rating": 2.0, "coordinates": {"latitude": 38.2356636690576, "longitude": -122.622999478171}, "transactions": [], "price": "$", "location": {"address1": "981 Lakeville Hwy", "address2": "", "address3": "", "city": "Petaluma", "zip_code": "94952", "country": "US", "state": "CA", "display_address": ["981 Lakeville Hwy", "Petaluma, CA 94952"]}, "phone": "+17077691862", "display_phone": "(707) 769-1862", "distance": 1321.9594982633664}, {"id": "jCcAuXhCpeJP2n-8ol7mxg", "alias": "kolobok-russian-soul-food-truck-oakland", "name": "Kolobok Russian Soul Food Truck", "image_url": "https://s3-media1.fl.yelpcdn.com/bphoto/k8s1Bfc05Iw7SJXE6VJ74Q/o.jpg", "is_closed": false, "url": "https://www.yelp.com/biz/kolobok-russian-soul-food-truck-oakland?adjust_creative=IokN4du3-7NwKcCaUms5LA&utm_campaign=yelp_api_v3&utm_medium=api_v3_business_search&utm_source=IokN4du3-7NwKcCaUms5LA", "review_count": 47, "categories": [{"alias": "foodtrucks", "title": "Food Trucks"}, {"alias": "russian", "title": "Russian"}], "rating": 4.5, "coordinates": {"latitude": 37.7883087690458, "longitude": -122.309032460882}, "transactions": [], "price": "$$", "location": {"address1": null, "address2": null, "address3": "", "city": "Oakland", "zip_code": "94577", "country": "US", "state": "CA", "display_address": ["Oakland, CA 94577"]}, "phone": "+15105996542", "display_phone": "(510) 599-6542", "distance": 58063.50529070391}, {"id": "1AUoC-K0ItHzyw1QGGOjTw", "alias": "adobe-beverage-and-foods-petaluma", "name": "Adobe Beverage & Foods", "image_url": "https://s3-media4.fl.yelpcdn.com/bphoto/xzYuMxaJATeWgiPB0It6Ww/o.jpg", "is_closed": false, "url": "https://www.yelp.com/biz/adobe-beverage-and-foods-petaluma?adjust_creative=IokN4du3-7NwKcCaUms5LA&utm_campaign=yelp_api_v3&utm_medium=api_v3_business_search&utm_source=IokN4du3-7NwKcCaUms5LA", "review_count": 6, "categories": [{"alias": "grocery", "title": "Grocery"}, {"alias": "delis", "title": "Delis"}], "rating": 4.5, "coordinates": {"latitude": 38.2386561, "longitude": -122.6071171}, "transactions": ["pickup"], "price": "$", "location": {"address1": "1410 S McDowell Blvd", "address2": "", "address3": "", "city": "Petaluma", "zip_code": "94954", "country": "US", "state": "CA", "display_address": ["1410 S McDowell Blvd", "Petaluma, CA 94954"]}, "phone": "+17077651232", "display_phone": "(707) 765-1232", "distance": 2473.4445072712037}, {"id": "ovJyn6qM82Zu2rVciIqNFg", "alias": "lilian-the-baked-goods-girl-petaluma", "name": "Lilian: The Baked Goods Girl", "image_url": "", "is_closed": false, "url": "https://www.yelp.com/biz/lilian-the-baked-goods-girl-petaluma?adjust_creative=IokN4du3-7NwKcCaUms5LA&utm_campaign=yelp_api_v3&utm_medium=api_v3_business_search&utm_source=IokN4du3-7NwKcCaUms5LA", "review_count": 1, "categories": [{"alias": "foodstands", "title": "Food Stands"}], "rating": 5.0, "coordinates": {"latitude": 38.237577, "longitude": -122.63555}, "transactions": [], "location": {"address1": "Downtown Petaluma", "address2": "", "address3": "", "city": "Petaluma", "zip_code": "94952", "country": "US", "state": "CA", "display_address": ["Downtown Petaluma", "Petaluma, CA 94952"]}, "phone": "", "display_phone": "", "distance": 608.2793240670627}, {"id": "Hv9hpw4YIbuTUTxP8uPM2g", "alias": "andersens-produce-stand-petaluma", "name": "Andersen's Produce Stand", "image_url": "", "is_closed": false, "url": "https://www.yelp.com/biz/andersens-produce-stand-petaluma?adjust_creative=IokN4du3-7NwKcCaUms5LA&utm_campaign=yelp_api_v3&utm_medium=api_v3_business_search&utm_source=IokN4du3-7NwKcCaUms5LA", "review_count": 4, "categories": [{"alias": "markets", "title": "Fruits & Veggies"}, {"alias": "foodstands", "title": "Food Stands"}], "rating": 5.0, "coordinates": {"latitude": 38.2551599, "longitude": -122.65256}, "transactions": [], "price": "$", "location": {"address1": "2485 Petaluma Blvd N", "address2": "", "address3": "", "city": "Petaluma", "zip_code": "94952", "country": "US", "state": "CA", "display_address": ["2485 Petaluma Blvd N", "Petaluma, CA 94952"]}, "phone": "", "display_phone": "", "distance": 2062.5774476538068}, {"id": "i6ZwMjYIbmFZ8EGYz6x5Bw", "alias": "phat-salads-and-wraps-napa", "name": "Phat Salads and Wraps", "image_url": "https://s3-media2.fl.yelpcdn.com/bphoto/FbrUwtrVIx2cLXiPdBhHkw/o.jpg", "is_closed": false, "url": "https://www.yelp.com/biz/phat-salads-and-wraps-napa?adjust_creative=IokN4du3-7NwKcCaUms5LA&utm_campaign=yelp_api_v3&utm_medium=api_v3_business_search&utm_source=IokN4du3-7NwKcCaUms5LA", "review_count": 48, "categories": [{"alias": "foodtrucks", "title": "Food Trucks"}, {"alias": "wraps", "title": "Wraps"}], "rating": 4.0, "coordinates": {"latitude": 38.3234491, "longitude": -122.3023962}, "transactions": [], "price": "$", "location": {"address1": "", "address2": "", "address3": "", "city": "Napa", "zip_code": "94558", "country": "US", "state": "CA", "display_address": ["Napa, CA 94558"]}, "phone": "+17073639658", "display_phone": "(707) 363-9658", "distance": 30367.58586802664}, {"id": "fAwv4ywda7JReH4lvwmJGA", "alias": "mcdonalds-petaluma-2", "name": "McDonald's", "image_url": "https://s3-media2.fl.yelpcdn.com/bphoto/g_MDwvt9B722kVj4lHO2aw/o.jpg", "is_closed": false, "url": "https://www.yelp.com/biz/mcdonalds-petaluma-2?adjust_creative=IokN4du3-7NwKcCaUms5LA&utm_campaign=yelp_api_v3&utm_medium=api_v3_business_search&utm_source=IokN4du3-7NwKcCaUms5LA", "review_count": 40, "categories": [{"alias": "hotdogs", "title": "Fast Food"}, {"alias": "burgers", "title": "Burgers"}, {"alias": "coffee", "title": "Coffee & Tea"}], "rating": 1.5, "coordinates": {"latitude": 38.2494674361548, "longitude": -122.627165392055}, "transactions": [], "price": "$", "location": {"address1": "103 Mcdowell Blvd", "address2": "", "address3": "", "city": "Petaluma", "zip_code": "94952", "country": "US", "state": "CA", "display_address": ["103 Mcdowell Blvd", "Petaluma, CA 94952"]}, "phone": "+17077637505", "display_phone": "(707) 763-7505", "distance": 984.0411870425979}, {"id": "p5mV4qtoMpQUfnpD9wKdFQ", "alias": "kfc-petaluma-3", "name": "KFC", "image_url": "https://s3-media1.fl.yelpcdn.com/bphoto/e3RWyvVjTZqffsIkgBMleA/o.jpg", "is_closed": false, "url": "https://www.yelp.com/biz/kfc-petaluma-3?adjust_creative=IokN4du3-7NwKcCaUms5LA&utm_campaign=yelp_api_v3&utm_medium=api_v3_business_search&utm_source=IokN4du3-7NwKcCaUms5LA", "review_count": 22, "categories": [{"alias": "hotdogs", "title": "Fast Food"}, {"alias": "chicken_wings", "title": "Chicken Wings"}, {"alias": "chickenshop", "title": "Chicken Shop"}], "rating": 1.5, "coordinates": {"latitude": 38.2413415213811, "longitude": -122.633544818299}, "transactions": ["pickup"], "price": "$", "location": {"address1": "701 E Washington St", "address2": "", "address3": "", "city": "Petaluma", "zip_code": "94952", "country": "US", "state": "CA", "display_address": ["701 E Washington St", "Petaluma, CA 94952"]}, "phone": "+17077636834", "display_phone": "(707) 763-6834", "distance": 220.6713264341391}, {"id": "_OwzpXK_1fdsufxD4RESLg", "alias": "dominos-pizza-petaluma-4", "name": "Domino's Pizza", "image_url": "https://s3-media4.fl.yelpcdn.com/bphoto/8B2cke0PaREs5EIH5K5TTg/o.jpg", "is_closed": false, "url": "https://www.yelp.com/biz/dominos-pizza-petaluma-4?adjust_creative=IokN4du3-7NwKcCaUms5LA&utm_campaign=yelp_api_v3&utm_medium=api_v3_business_search&utm_source=IokN4du3-7NwKcCaUms5LA", "review_count": 124, "categories": [{"alias": "pizza", "title": "Pizza"}, {"alias": "chicken_wings", "title": "Chicken Wings"}, {"alias": "sandwiches", "title": "Sandwiches"}], "rating": 1.5, "coordinates": {"latitude": 38.235989, "longitude": -122.639912}, "transactions": [], "price": "$", "location": {"address1": "10 E Washington St", "address2": "", "address3": "", "city": "Petaluma", "zip_code": "94952", "country": "US", "state": "CA", "display_address": ["10 E Washington St", "Petaluma, CA 94952"]}, "phone": "+17077621000", "display_phone": "(707) 762-1000", "distance": 896.787376701377}, {"id": "65LWMWzpm3h5nLI8Q0sD0g", "alias": "namaste-liquor-and-deli-petaluma-2", "name": "Namaste Liquor & Deli", "image_url": "", "is_closed": false, "url": "https://www.yelp.com/biz/namaste-liquor-and-deli-petaluma-2?adjust_creative=IokN4du3-7NwKcCaUms5LA&utm_campaign=yelp_api_v3&utm_medium=api_v3_business_search&utm_source=IokN4du3-7NwKcCaUms5LA", "review_count": 1, "categories": [{"alias": "delis", "title": "Delis"}, {"alias": "convenience", "title": "Convenience Stores"}], "rating": 5.0, "coordinates": {"latitude": 38.26086, "longitude": -122.66164}, "transactions": ["pickup"], "location": {"address1": "3590 Petaluma Blvd N", "address2": null, "address3": null, "city": "Petaluma", "zip_code": "94952", "country": "US", "state": "CA", "display_address": ["3590 Petaluma Blvd N", "Petaluma, CA 94952"]}, "phone": "+17077820518", "display_phone": "(707) 782-0518", "distance": 3056.5817198371856}, {"id": "UgpER14Qy4CiwlxC5ZwsqA", "alias": "la-cuchara-de-do\u00f1a-rosa-vallejo", "name": "La cuchara de Do\u00f1a Rosa", "image_url": "https://s3-media3.fl.yelpcdn.com/bphoto/IlLx-PG3Jt6VZBcxToYRng/o.jpg", "is_closed": false, "url": "https://www.yelp.com/biz/la-cuchara-de-do%C3%B1a-rosa-vallejo?adjust_creative=IokN4du3-7NwKcCaUms5LA&utm_campaign=yelp_api_v3&utm_medium=api_v3_business_search&utm_source=IokN4du3-7NwKcCaUms5LA", "review_count": 14, "categories": [{"alias": "foodtrucks", "title": "Food Trucks"}, {"alias": "tacos", "title": "Tacos"}], "rating": 4.0, "coordinates": {"latitude": 38.115436, "longitude": -122.2541558}, "transactions": ["pickup", "delivery"], "price": "$$", "location": {"address1": "105 Couch St", "address2": "", "address3": null, "city": "Vallejo", "zip_code": "94590", "country": "US", "state": "CA", "display_address": ["105 Couch St", "Vallejo, CA 94590"]}, "phone": "+15103138892", "display_phone": "(510) 313-8892", "distance": 36176.830807205566}, {"id": "3zRfkzhTk7jzXNC0cKdWRg", "alias": "tortas-gigantes-metro-balderas-2-santa-rosa", "name": "Tortas Gigantes Metro Balderas 2", "image_url": "https://s3-media3.fl.yelpcdn.com/bphoto/1zH8mMORZDEuR8Eg1A4ilQ/o.jpg", "is_closed": false, "url": "https://www.yelp.com/biz/tortas-gigantes-metro-balderas-2-santa-rosa?adjust_creative=IokN4du3-7NwKcCaUms5LA&utm_campaign=yelp_api_v3&utm_medium=api_v3_business_search&utm_source=IokN4du3-7NwKcCaUms5LA", "review_count": 4, "categories": [{"alias": "foodtrucks", "title": "Food Trucks"}, {"alias": "mexican", "title": "Mexican"}], "rating": 4.0, "coordinates": {"latitude": 38.42913, "longitude": -122.73433}, "transactions": [], "price": "$", "location": {"address1": "1289 Sebastopol Rd", "address2": "", "address3": null, "city": "Santa Rosa", "zip_code": "95407", "country": "US", "state": "CA", "display_address": ["1289 Sebastopol Rd", "Santa Rosa, CA 95407"]}, "phone": "+17072604343", "display_phone": "(707) 260-4343", "distance": 22465.57584243699}, {"id": "KQVq4NNbP7adcfmiBWwsYA", "alias": "subway-restaurants-petaluma", "name": "Subway Restaurants", "image_url": "https://s3-media2.fl.yelpcdn.com/bphoto/2zNqossaCGNtakPtfbc1wg/o.jpg", "is_closed": false, "url": "https://www.yelp.com/biz/subway-restaurants-petaluma?adjust_creative=IokN4du3-7NwKcCaUms5LA&utm_campaign=yelp_api_v3&utm_medium=api_v3_business_search&utm_source=IokN4du3-7NwKcCaUms5LA", "review_count": 14, "categories": [{"alias": "sandwiches", "title": "Sandwiches"}], "rating": 2.5, "coordinates": {"latitude": 38.2501931412098, "longitude": -122.628984239145}, "transactions": [], "price": "$", "location": {"address1": "221 North McDowell Blvd.", "address2": "", "address3": "", "city": "Petaluma", "zip_code": "94954", "country": "US", "state": "CA", "display_address": ["221 North McDowell Blvd.", "Petaluma, CA 94954"]}, "phone": "+17077652009", "display_phone": "(707) 765-2009", "distance": 949.4752190993757}, {"id": "Eo2iKFrfhCAjJ1bEV8YZFQ", "alias": "a-and-w-petaluma", "name": "A&W", "image_url": "https://s3-media4.fl.yelpcdn.com/bphoto/L_v8pBSz18LUzGFS63KXLg/o.jpg", "is_closed": false, "url": "https://www.yelp.com/biz/a-and-w-petaluma?adjust_creative=IokN4du3-7NwKcCaUms5LA&utm_campaign=yelp_api_v3&utm_medium=api_v3_business_search&utm_source=IokN4du3-7NwKcCaUms5LA", "review_count": 14, "categories": [{"alias": "hotdogs", "title": "Fast Food"}, {"alias": "burgers", "title": "Burgers"}, {"alias": "hotdog", "title": "Hot Dogs"}], "rating": 2.5, "coordinates": {"latitude": 38.2414169311523, "longitude": -122.633682250977}, "transactions": [], "price": "$", "location": {"address1": "701 East Washington St", "address2": "", "address3": "", "city": "Petaluma", "zip_code": "94952", "country": "US", "state": "CA", "display_address": ["701 East Washington St", "Petaluma, CA 94952"]}, "phone": "+17077636834", "display_phone": "(707) 763-6834", "distance": 224.11416994587847}, {"id": "XTJJ_PUQoJKIh31ZIzsFzw", "alias": "cochinita-food-truck-san-francisco-6", "name": "Cochinita Food Truck", "image_url": "https://s3-media2.fl.yelpcdn.com/bphoto/w77SOd2jVJjOh1lwuYQ42w/o.jpg", "is_closed": false, "url": "https://www.yelp.com/biz/cochinita-food-truck-san-francisco-6?adjust_creative=IokN4du3-7NwKcCaUms5LA&utm_campaign=yelp_api_v3&utm_medium=api_v3_business_search&utm_source=IokN4du3-7NwKcCaUms5LA", "review_count": 49, "categories": [{"alias": "foodtrucks", "title": "Food Trucks"}, {"alias": "mexican", "title": "Mexican"}], "rating": 4.5, "coordinates": {"latitude": 37.770753, "longitude": -122.3916722}, "transactions": [], "price": "$", "location": {"address1": "601 Mission Blvd N", "address2": null, "address3": "", "city": "San Francisco", "zip_code": "94103", "country": "US", "state": "CA", "display_address": ["601 Mission Blvd N", "San Francisco, CA 94103"]}, "phone": "+14159883663", "display_phone": "(415) 988-3663", "distance": 56672.627703848135}, {"id": "WC8YDwHkJgodbSruf0evtw", "alias": "little-caesars-pizza-petaluma", "name": "Little Caesar's Pizza", "image_url": "https://s3-media2.fl.yelpcdn.com/bphoto/zxv-wDWHzPP8e0yUlDRbnA/o.jpg", "is_closed": false, "url": "https://www.yelp.com/biz/little-caesars-pizza-petaluma?adjust_creative=IokN4du3-7NwKcCaUms5LA&utm_campaign=yelp_api_v3&utm_medium=api_v3_business_search&utm_source=IokN4du3-7NwKcCaUms5LA", "review_count": 18, "categories": [{"alias": "pizza", "title": "Pizza"}], "rating": 2.5, "coordinates": {"latitude": 38.2503055, "longitude": -122.6281902}, "transactions": [], "price": "$", "location": {"address1": "173 N Mcdowell Blvd", "address2": "Ste A", "address3": "", "city": "Petaluma", "zip_code": "94954", "country": "US", "state": "CA", "display_address": ["173 N Mcdowell Blvd", "Ste A", "Petaluma, CA 94954"]}, "phone": "+17077668000", "display_phone": "(707) 766-8000", "distance": 932.0286620797741}, {"id": "dtVcdUZYaWEsExGsS_HlmA", "alias": "jack-in-the-box-petaluma", "name": "Jack in the Box", "image_url": "https://s3-media3.fl.yelpcdn.com/bphoto/dftYEkp6d-HAJ-gdTz3TLQ/o.jpg", "is_closed": false, "url": "https://www.yelp.com/biz/jack-in-the-box-petaluma?adjust_creative=IokN4du3-7NwKcCaUms5LA&utm_campaign=yelp_api_v3&utm_medium=api_v3_business_search&utm_source=IokN4du3-7NwKcCaUms5LA", "review_count": 13, "categories": [{"alias": "hotdogs", "title": "Fast Food"}, {"alias": "burgers", "title": "Burgers"}, {"alias": "tacos", "title": "Tacos"}], "rating": 2.5, "coordinates": {"latitude": 38.2436512, "longitude": -122.6314325}, "transactions": [], "price": "$", "location": {"address1": "837 E Washington St", "address2": "", "address3": "", "city": "Petaluma", "zip_code": "94952", "country": "US", "state": "CA", "display_address": ["837 E Washington St", "Petaluma, CA 94952"]}, "phone": "+17077633612", "display_phone": "(707) 763-3612", "distance": 309.73588749791963}, {"id": "uuouQQIFQ1B9mkmcxaAKFA", "alias": "tacos-el-rey-oakland", "name": "Tacos El Rey", "image_url": "https://s3-media2.fl.yelpcdn.com/bphoto/DblyFrtT9uyPCQAUfPbYbQ/o.jpg", "is_closed": false, "url": "https://www.yelp.com/biz/tacos-el-rey-oakland?adjust_creative=IokN4du3-7NwKcCaUms5LA&utm_campaign=yelp_api_v3&utm_medium=api_v3_business_search&utm_source=IokN4du3-7NwKcCaUms5LA", "review_count": 9, "categories": [{"alias": "foodtrucks", "title": "Food Trucks"}, {"alias": "mexican", "title": "Mexican"}], "rating": 4.0, "coordinates": {"latitude": 37.8294034, "longitude": -122.2875758}, "transactions": [], "price": "$", "location": {"address1": "40th & Horton", "address2": "", "address3": null, "city": "Oakland", "zip_code": "94608", "country": "US", "state": "CA", "display_address": ["40th & Horton", "Oakland, CA 94608"]}, "phone": "+15108130232", "display_phone": "(510) 813-0232", "distance": 55140.695570189295}, {"id": "r4EyGZy8JKJoGPI81n7Wlw", "alias": "subway-restaurants-petaluma-4", "name": "Subway Restaurants", "image_url": "https://s3-media1.fl.yelpcdn.com/bphoto/-ofeQ5ZBQGC2lq43kyzahw/o.jpg", "is_closed": false, "url": "https://www.yelp.com/biz/subway-restaurants-petaluma-4?adjust_creative=IokN4du3-7NwKcCaUms5LA&utm_campaign=yelp_api_v3&utm_medium=api_v3_business_search&utm_source=IokN4du3-7NwKcCaUms5LA", "review_count": 7, "categories": [{"alias": "sandwiches", "title": "Sandwiches"}], "rating": 1.5, "coordinates": {"latitude": 38.23608, "longitude": -122.622521}, "transactions": [], "price": "$", "location": {"address1": "961 Lakeville Highway", "address2": "", "address3": "", "city": "Petaluma", "zip_code": "94952", "country": "US", "state": "CA", "display_address": ["961 Lakeville Highway", "Petaluma, CA 94952"]}, "phone": "+17077733294", "display_phone": "(707) 773-3294", "distance": 1899.98657073655}, {"id": "eWgasd3sdkSTm54yy5ao2Q", "alias": "pizza-hut-petaluma-2", "name": "Pizza Hut", "image_url": "https://s3-media4.fl.yelpcdn.com/bphoto/e5_jR_Av0A0PWwUAsoLv7A/o.jpg", "is_closed": false, "url": "https://www.yelp.com/biz/pizza-hut-petaluma-2?adjust_creative=IokN4du3-7NwKcCaUms5LA&utm_campaign=yelp_api_v3&utm_medium=api_v3_business_search&utm_source=IokN4du3-7NwKcCaUms5LA", "review_count": 1, "categories": [{"alias": "pizza", "title": "Pizza"}], "rating": 2.0, "coordinates": {"latitude": 38.2427968, "longitude": -122.6258028}, "transactions": [], "price": "$", "location": {"address1": "401 Kenilworth Dr", "address2": "", "address3": "", "city": "Petaluma", "zip_code": "94952", "country": "US", "state": "CA", "display_address": ["401 Kenilworth Dr", "Petaluma, CA 94952"]}, "phone": "", "display_phone": "", "distance": 793.796363945945}, {"id": "cg0cuXTOCPdpPDqpXhtzkg", "alias": "old-chicago-pizza-petaluma-4", "name": "Old Chicago Pizza", "image_url": "https://s3-media3.fl.yelpcdn.com/bphoto/LKtYxcvZI3WQPi3idTy2XQ/o.jpg", "is_closed": false, "url": "https://www.yelp.com/biz/old-chicago-pizza-petaluma-4?adjust_creative=IokN4du3-7NwKcCaUms5LA&utm_campaign=yelp_api_v3&utm_medium=api_v3_business_search&utm_source=IokN4du3-7NwKcCaUms5LA", "review_count": 1, "categories": [{"alias": "pizza", "title": "Pizza"}, {"alias": "fooddeliveryservices", "title": "Food Delivery Services"}], "rating": 1.0, "coordinates": {"latitude": 38.2580986022949, "longitude": -122.63752746582}, "transactions": [], "location": {"address1": "", "address2": "", "address3": null, "city": "Petaluma", "zip_code": "94954", "country": "US", "state": "CA", "display_address": ["Petaluma, CA 94954"]}, "phone": "+17077328008", "display_phone": "(707) 732-8008", "distance": 1189.3170934203522}, {"id": "DC42MrpWtqEeWRmMsn6Z8w", "alias": "the-everest-momo-fremont-2", "name": "The Everest Momo", "image_url": "https://s3-media2.fl.yelpcdn.com/bphoto/T2f7tUQ1c104otx9oSdqYw/o.jpg", "is_closed": false, "url": "https://www.yelp.com/biz/the-everest-momo-fremont-2?adjust_creative=IokN4du3-7NwKcCaUms5LA&utm_campaign=yelp_api_v3&utm_medium=api_v3_business_search&utm_source=IokN4du3-7NwKcCaUms5LA", "review_count": 23, "categories": [{"alias": "foodtrucks", "title": "Food Trucks"}, {"alias": "indpak", "title": "Indian"}, {"alias": "himalayan", "title": "Himalayan/Nepalese"}], "rating": 4.5, "coordinates": {"latitude": 37.54643, "longitude": -121.98512}, "transactions": [], "price": "$", "location": {"address1": "39233 Fremont Blvd", "address2": null, "address3": null, "city": "Fremont", "zip_code": "94538", "country": "US", "state": "CA", "display_address": ["39233 Fremont Blvd", "Fremont, CA 94538"]}, "phone": "+14088406369", "display_phone": "(408) 840-6369", "distance": 96175.43655833793}, {"id": "lgheXsHqe66AEZwoPDIEpw", "alias": "taco-coma-newark", "name": "Taco Coma", "image_url": "https://s3-media3.fl.yelpcdn.com/bphoto/DDz5lZDL5lDiRR_Ph0L4Sg/o.jpg", "is_closed": false, "url": "https://www.yelp.com/biz/taco-coma-newark?adjust_creative=IokN4du3-7NwKcCaUms5LA&utm_campaign=yelp_api_v3&utm_medium=api_v3_business_search&utm_source=IokN4du3-7NwKcCaUms5LA", "review_count": 3, "categories": [{"alias": "foodstands", "title": "Food Stands"}, {"alias": "tacos", "title": "Tacos"}], "rating": 5.0, "coordinates": {"latitude": 37.53453, "longitude": -122.03284}, "transactions": [], "location": {"address1": "", "address2": null, "address3": "", "city": "Newark", "zip_code": "94560", "country": "US", "state": "CA", "display_address": ["Newark, CA 94560"]}, "phone": "+15106971448", "display_phone": "(510) 697-1448", "distance": 95008.02158127785}, {"id": "8SNGFcMWZkvS4GWDUL8w1Q", "alias": "noon-o-kabob-san-jose-4", "name": "Noon O Kabob", "image_url": "https://s3-media2.fl.yelpcdn.com/bphoto/5GmY5FRw0m0XEWC5XXbVlA/o.jpg", "is_closed": false, "url": "https://www.yelp.com/biz/noon-o-kabob-san-jose-4?adjust_creative=IokN4du3-7NwKcCaUms5LA&utm_campaign=yelp_api_v3&utm_medium=api_v3_business_search&utm_source=IokN4du3-7NwKcCaUms5LA", "review_count": 29, "categories": [{"alias": "foodtrucks", "title": "Food Trucks"}, {"alias": "kebab", "title": "Kebab"}, {"alias": "persian", "title": "Persian/Iranian"}], "rating": 4.5, "coordinates": {"latitude": 37.3940232, "longitude": -122.0288052}, "transactions": [], "price": "$$", "location": {"address1": null, "address2": null, "address3": null, "city": "San Jose", "zip_code": "95101", "country": "US", "state": "CA", "display_address": ["San Jose, CA 95101"]}, "phone": "+14083346777", "display_phone": "(408) 334-6777", "distance": 108380.24319567133}, {"id": "C9uewBH5505NV0EWYBIJAA", "alias": "lady-and-l-aperitivo-san-jose", "name": "Lady & L'Aperitivo", "image_url": "https://s3-media4.fl.yelpcdn.com/bphoto/3nz0sRE9MlOq_4xVRQRt9w/o.jpg", "is_closed": false, "url": "https://www.yelp.com/biz/lady-and-l-aperitivo-san-jose?adjust_creative=IokN4du3-7NwKcCaUms5LA&utm_campaign=yelp_api_v3&utm_medium=api_v3_business_search&utm_source=IokN4du3-7NwKcCaUms5LA", "review_count": 1, "categories": [{"alias": "bakeries", "title": "Bakeries"}, {"alias": "desserts", "title": "Desserts"}, {"alias": "cheesesteaks", "title": "Cheesesteaks"}], "rating": 5.0, "coordinates": {"latitude": 37.2208938598633, "longitude": -121.861633300781}, "transactions": [], "location": {"address1": null, "address2": null, "address3": "", "city": "San Jose", "zip_code": "95120", "country": "US", "state": "CA", "display_address": ["San Jose, CA 95120"]}, "phone": "", "display_phone": "", "distance": 138107.4213420425}, {"id": "22KzWfCP7jt9tOl6Gl17LQ", "alias": "mai-thai-kitchen-las-vegas", "name": "Mai Thai Kitchen", "image_url": "https://s3-media1.fl.yelpcdn.com/bphoto/t1Zp5dvdlEzcNrgITCLZkw/o.jpg", "is_closed": false, "url": "https://www.yelp.com/biz/mai-thai-kitchen-las-vegas?adjust_creative=IokN4du3-7NwKcCaUms5LA&utm_campaign=yelp_api_v3&utm_medium=api_v3_business_search&utm_source=IokN4du3-7NwKcCaUms5LA", "review_count": 9, "categories": [{"alias": "foodtrucks", "title": "Food Trucks"}, {"alias": "thai", "title": "Thai"}, {"alias": "catering", "title": "Caterers"}], "rating": 3.5, "coordinates": {"latitude": 36.1067341598394, "longitude": -115.040667839348}, "transactions": [], "price": "$$$$", "location": {"address1": "", "address2": "", "address3": null, "city": "Las Vegas", "zip_code": "89122", "country": "US", "state": "NV", "display_address": ["Las Vegas, NV 89122"]}, "phone": "+14152591625", "display_phone": "(415) 259-1625", "distance": 713274.6783537248}]}