{"location": "Piedmont, CA", "term": "restaurant", "radius": 1183, "businesses": [{"id": "mxZVKEOSTcm6qr06Gdu3og", "alias": "vg-house-piedmont", "name": "VG House", "image_url": "", "is_closed": false, "url": "https://www.yelp.com/biz/vg-house-piedmont?adjust_creative=IokN4du3-7NwKcCaUms5LA&utm_campaign=yelp_api_v3&utm_medium=api_v3_business_search&utm_source=IokN4du3-7NwKcCaUms5LA", "review_count": 1, "categories": [{"alias": "newamerican", "title": "American (New)"}], "rating": 5.0, "coordinates": {"latitude": 37.828701, "longitude": -122.227839}, "transactions": [], "location": {"address1": "Scenic Ave", "address2": "", "address3": "", "city": "Piedmont", "zip_code": "94611", "country": "US", "state": "CA", "display_address": ["Scenic Ave", "Piedmont, CA 94611"]}, "phone": "", "display_phone": "", "distance": 690.3870939396332}, {"id": "Q3g9zsqgbzRy2W-K7c1nPQ", "alias": "la-santa-torta-oakland", "name": "La Santa Torta", "image_url": "https://s3-media2.fl.yelpcdn.com/bphoto/eQu7M0lXgXOlfZRWsiZ5EA/o.jpg", "is_closed": false, "url": "https://www.yelp.com/biz/la-santa-torta-oakland?adjust_creative=IokN4du3-7NwKcCaUms5LA&utm_campaign=yelp_api_v3&utm_medium=api_v3_business_search&utm_source=IokN4du3-7NwKcCaUms5LA", "review_count": 50, "categories": [{"alias": "foodtrucks", "title": "Food Trucks"}, {"alias": "mexican", "title": "Mexican"}], "rating": 4.5, "coordinates": {"latitude": 37.7973352, "longitude": -122.2760002}, "transactions": [], "location": {"address1": "333 Broadway", "address2": null, "address3": null, "city": "Oakland", "zip_code": "94607", "country": "US", "state": "CA", "display_address": ["333 Broadway", "Oakland, CA 94607"]}, "phone": "+19252079275", "display_phone": "(925) 207-9275", "distance": 4914.090871861105}, {"id": "CUwBAy6lrFi4x6Neu9eRVw", "alias": "mini-street-burger-alameda-3", "name": "Mini Street Burger", "image_url": "https://s3-media2.fl.yelpcdn.com/bphoto/Kh-OQKBIclWY1dCeIuu57w/o.jpg", "is_closed": false, "url": "https://www.yelp.com/biz/mini-street-burger-alameda-3?adjust_creative=IokN4du3-7NwKcCaUms5LA&utm_campaign=yelp_api_v3&utm_medium=api_v3_business_search&utm_source=IokN4du3-7NwKcCaUms5LA", "review_count": 28, "categories": [{"alias": "foodtrucks", "title": "Food Trucks"}, {"alias": "burgers", "title": "Burgers"}], "rating": 4.0, "coordinates": {"latitude": 37.82628, "longitude": -122.25101}, "transactions": [], "location": {"address1": null, "address2": null, "address3": null, "city": "Alameda", "zip_code": "94611", "country": "US", "state": "CA", "display_address": ["Alameda, CA 94611"]}, "phone": "+15108278982", "display_phone": "(510) 827-8982", "distance": 2682.934045857897}, {"id": "JMHqy3D8ipd_iFSS-GS26w", "alias": "taqueria-la-bonita-oakland-8", "name": "Taqueria La Bonita", "image_url": "https://s3-media2.fl.yelpcdn.com/bphoto/JURrsorvHDpbgxuQVUl7Zw/o.jpg", "is_closed": false, "url": "https://www.yelp.com/biz/taqueria-la-bonita-oakland-8?adjust_creative=IokN4du3-7NwKcCaUms5LA&utm_campaign=yelp_api_v3&utm_medium=api_v3_business_search&utm_source=IokN4du3-7NwKcCaUms5LA", "review_count": 9, "categories": [{"alias": "mexican", "title": "Mexican"}, {"alias": "foodtrucks", "title": "Food Trucks"}], "rating": 4.0, "coordinates": {"latitude": 37.8298607, "longitude": -122.2547097}, "transactions": [], "price": "$", "location": {"address1": "4200 Broadway", "address2": null, "address3": "", "city": "Oakland", "zip_code": "94601", "country": "US", "state": "CA", "display_address": ["4200 Broadway", "Oakland, CA 94601"]}, "phone": "+15102004968", "display_phone": "(510) 200-4968", "distance": 2284.6478808307734}, {"id": "gA2JV1E-4YdOpmDYscbZVA", "alias": "tacos-la-san-marquenna-oakland", "name": "Tacos La San Marquenna", "image_url": "https://s3-media4.fl.yelpcdn.com/bphoto/wk_KSviNjYwFndLLUATuCA/o.jpg", "is_closed": false, "url": "https://www.yelp.com/biz/tacos-la-san-marquenna-oakland?adjust_creative=IokN4du3-7NwKcCaUms5LA&utm_campaign=yelp_api_v3&utm_medium=api_v3_business_search&utm_source=IokN4du3-7NwKcCaUms5LA", "review_count": 22, "categories": [{"alias": "foodtrucks", "title": "Food Trucks"}, {"alias": "mexican", "title": "Mexican"}], "rating": 4.5, "coordinates": {"latitude": 37.80819, "longitude": -122.26637}, "transactions": [], "location": {"address1": "1975 Webster St", "address2": null, "address3": null, "city": "Oakland", "zip_code": "94601", "country": "US", "state": "CA", "display_address": ["1975 Webster St", "Oakland, CA 94601"]}, "phone": "+15103878763", "display_phone": "(510) 387-8763", "distance": 3561.236273183264}, {"id": "7dHj1XDVA_7AYXTfp5i-BQ", "alias": "momo-noodle-san-francisco", "name": "MOMO noodle", "image_url": "https://s3-media4.fl.yelpcdn.com/bphoto/7zlv0Fz-2CTVIPLa767RVw/o.jpg", "is_closed": false, "url": "https://www.yelp.com/biz/momo-noodle-san-francisco?adjust_creative=IokN4du3-7NwKcCaUms5LA&utm_campaign=yelp_api_v3&utm_medium=api_v3_business_search&utm_source=IokN4du3-7NwKcCaUms5LA", "review_count": 46, "categories": [{"alias": "noodles", "title": "Noodles"}, {"alias": "foodtrucks", "title": "Food Trucks"}, {"alias": "szechuan", "title": "Szechuan"}], "rating": 4.0, "coordinates": {"latitude": 37.79106, "longitude": -122.40175}, "transactions": [], "price": "$$", "location": {"address1": null, "address2": null, "address3": "", "city": "San Francisco", "zip_code": "94104", "country": "US", "state": "CA", "display_address": ["San Francisco, CA 94104"]}, "phone": "+14088006819", "display_phone": "(408) 800-6819", "distance": 15502.763107358205}, {"id": "jCcAuXhCpeJP2n-8ol7mxg", "alias": "kolobok-russian-soul-food-truck-oakland", "name": "Kolobok Russian Soul Food Truck", "image_url": "https://s3-media1.fl.yelpcdn.com/bphoto/k8s1Bfc05Iw7SJXE6VJ74Q/o.jpg", "is_closed": false, "url": "https://www.yelp.com/biz/kolobok-russian-soul-food-truck-oakland?adjust_creative=IokN4du3-7NwKcCaUms5LA&utm_campaign=yelp_api_v3&utm_medium=api_v3_business_search&utm_source=IokN4du3-7NwKcCaUms5LA", "review_count": 47, "categories": [{"alias": "foodtrucks", "title": "Food Trucks"}, {"alias": "russian", "title": "Russian"}], "rating": 4.5, "coordinates": {"latitude": 37.7883087690458, "longitude": -122.309032460882}, "transactions": [], "price": "$$", "location": {"address1": null, "address2": null, "address3": "", "city": "Oakland", "zip_code": "94577", "country": "US", "state": "CA", "display_address": ["Oakland, CA 94577"]}, "phone": "+15105996542", "display_phone": "(510) 599-6542", "distance": 7910.486873146027}, {"id": "C8QSWh3j0xkXwiWC8h-7ag", "alias": "three-amigos-market-and-deli-oakland", "name": "Three Amigos Market & Deli", "image_url": "https://s3-media1.fl.yelpcdn.com/bphoto/B4LNxfyWsiyHibJqkrK1gQ/o.jpg", "is_closed": false, "url": "https://www.yelp.com/biz/three-amigos-market-and-deli-oakland?adjust_creative=IokN4du3-7NwKcCaUms5LA&utm_campaign=yelp_api_v3&utm_medium=api_v3_business_search&utm_source=IokN4du3-7NwKcCaUms5LA", "review_count": 9, "categories": [{"alias": "grocery", "title": "Grocery"}, {"alias": "sandwiches", "title": "Sandwiches"}, {"alias": "delis", "title": "Delis"}], "rating": 4.5, "coordinates": {"latitude": 37.791048, "longitude": -122.245431}, "transactions": [], "price": "$", "location": {"address1": "1554 13th Ave", "address2": "", "address3": "", "city": "Oakland", "zip_code": "94606", "country": "US", "state": "CA", "display_address": ["1554 13th Ave", "Oakland, CA 94606"]}, "phone": "+15102612353", "display_phone": "(510) 261-2353", "distance": 3773.1342895882735}, {"id": "MS0sZySGZh4i1VggMJ8HWQ", "alias": "9-julio-empanada-kitchen-oakland-2", "name": "9 Julio Empanada Kitchen", "image_url": "https://s3-media3.fl.yelpcdn.com/bphoto/ZkEL30RuJROglV6sCpRLeA/o.jpg", "is_closed": false, "url": "https://www.yelp.com/biz/9-julio-empanada-kitchen-oakland-2?adjust_creative=IokN4du3-7NwKcCaUms5LA&utm_campaign=yelp_api_v3&utm_medium=api_v3_business_search&utm_source=IokN4du3-7NwKcCaUms5LA", "review_count": 26, "categories": [{"alias": "latin", "title": "Latin American"}, {"alias": "foodstands", "title": "Food Stands"}, {"alias": "salad", "title": "Salad"}], "rating": 5.0, "coordinates": {"latitude": 37.7917976379395, "longitude": -122.173988342285}, "transactions": [], "price": "$", "location": {"address1": "", "address2": null, "address3": "", "city": "Oakland", "zip_code": "94619", "country": "US", "state": "CA", "display_address": ["Oakland, CA 94619"]}, "phone": "+15106989535", "display_phone": "(510) 698-9535", "distance": 8063.611440292369}, {"id": "7jbpn3CYvByuMXwKqxDrgg", "alias": "los-compadres-taco-truck-oakland-2", "name": "Los Compadres Taco Truck", "image_url": "https://s3-media1.fl.yelpcdn.com/bphoto/40bIx8Fh4OaVeQi91c5w9Q/o.jpg", "is_closed": false, "url": "https://www.yelp.com/biz/los-compadres-taco-truck-oakland-2?adjust_creative=IokN4du3-7NwKcCaUms5LA&utm_campaign=yelp_api_v3&utm_medium=api_v3_business_search&utm_source=IokN4du3-7NwKcCaUms5LA", "review_count": 52, "categories": [{"alias": "foodtrucks", "title": "Food Trucks"}, {"alias": "tacos", "title": "Tacos"}], "rating": 4.5, "coordinates": {"latitude": 37.7848728792837, "longitude": -122.234277315438}, "transactions": [], "price": "$", "location": {"address1": "1536 23rd Ave", "address2": null, "address3": "", "city": "Oakland", "zip_code": "94606", "country": "US", "state": "CA", "display_address": ["1536 23rd Ave", "Oakland, CA 94606"]}, "phone": "+15106046846", "display_phone": "(510) 604-6846", "distance": 4231.841699154051}, {"id": "-arrRYJYGEejjYaBa8gJ5Q", "alias": "la-flamme-oakland-2", "name": "La Flamme", "image_url": "https://s3-media1.fl.yelpcdn.com/bphoto/RnuD-0Cj1J9SYQIuky76mQ/o.jpg", "is_closed": false, "url": "https://www.yelp.com/biz/la-flamme-oakland-2?adjust_creative=IokN4du3-7NwKcCaUms5LA&utm_campaign=yelp_api_v3&utm_medium=api_v3_business_search&utm_source=IokN4du3-7NwKcCaUms5LA", "review_count": 20, "categories": [{"alias": "pizza", "title": "Pizza"}, {"alias": "foodtrucks", "title": "Food Trucks"}], "rating": 4.0, "coordinates": {"latitude": 37.8089442, "longitude": -122.2652352}, "transactions": ["delivery", "pickup"], "price": "$$", "location": {"address1": "344 Thomas L Berkeley Way -", "address2": "Ste 310", "address3": "", "city": "OAKLAND", "zip_code": "94612", "country": "US", "state": "CA", "display_address": ["344 Thomas L Berkeley Way -", "Ste 310", "OAKLAND, CA 94612"]}, "phone": "+14153168541", "display_phone": "(415) 316-8541", "distance": 3435.2376274296457}, {"id": "sKHiC5_qr5Hk2r-5aFVB1A", "alias": "authentic-india-oakland-2", "name": "Authentic India", "image_url": "https://s3-media4.fl.yelpcdn.com/bphoto/4q00rbTYMK24g59EOOf0wQ/o.jpg", "is_closed": false, "url": "https://www.yelp.com/biz/authentic-india-oakland-2?adjust_creative=IokN4du3-7NwKcCaUms5LA&utm_campaign=yelp_api_v3&utm_medium=api_v3_business_search&utm_source=IokN4du3-7NwKcCaUms5LA", "review_count": 2, "categories": [{"alias": "indpak", "title": "Indian"}, {"alias": "foodtrucks", "title": "Food Trucks"}], "rating": 4.5, "coordinates": {"latitude": 37.8063871, "longitude": -122.265425353985}, "transactions": [], "location": {"address1": "Harrison St &, 19th St", "address2": "", "address3": "", "city": "Oakland", "zip_code": "94612", "country": "US", "state": "CA", "display_address": ["Harrison St &, 19th St", "Oakland, CA 94612"]}, "phone": "+15104586090", "display_phone": "(510) 458-6090", "distance": 3586.2254006211424}, {"id": "npVIaDBo65iSIvGK3BtAWA", "alias": "hernandez-pupuseria-oakland", "name": "Hernandez Pupuseria", "image_url": "https://s3-media3.fl.yelpcdn.com/bphoto/62lEwyNFeAF0zfPgUd7vVQ/o.jpg", "is_closed": false, "url": "https://www.yelp.com/biz/hernandez-pupuseria-oakland?adjust_creative=IokN4du3-7NwKcCaUms5LA&utm_campaign=yelp_api_v3&utm_medium=api_v3_business_search&utm_source=IokN4du3-7NwKcCaUms5LA", "review_count": 4, "categories": [{"alias": "salvadoran", "title": "Salvadoran"}, {"alias": "tacos", "title": "Tacos"}, {"alias": "foodtrucks", "title": "Food Trucks"}], "rating": 4.5, "coordinates": {"latitude": 37.77465, "longitude": -122.21233}, "transactions": [], "location": {"address1": "4265 Foothill Blvd", "address2": "", "address3": null, "city": "Oakland", "zip_code": "94601", "country": "US", "state": "CA", "display_address": ["4265 Foothill Blvd", "Oakland, CA 94601"]}, "phone": "+15107760134", "display_phone": "(510) 776-0134", "distance": 5576.19838026666}, {"id": "84Irk5lNFXfWCvLmz2llLg", "alias": "rodericks-restaurant-and-mobile-catering-oakland", "name": "Roderick's Restaurant & Mobile Catering", "image_url": "https://s3-media3.fl.yelpcdn.com/bphoto/OiqF8ctxchXEXUqOl_jbSg/o.jpg", "is_closed": false, "url": "https://www.yelp.com/biz/rodericks-restaurant-and-mobile-catering-oakland?adjust_creative=IokN4du3-7NwKcCaUms5LA&utm_campaign=yelp_api_v3&utm_medium=api_v3_business_search&utm_source=IokN4du3-7NwKcCaUms5LA", "review_count": 128, "categories": [{"alias": "foodtrucks", "title": "Food Trucks"}, {"alias": "southern", "title": "Southern"}], "rating": 4.5, "coordinates": {"latitude": 37.751577, "longitude": -122.153708}, "transactions": [], "price": "$", "location": {"address1": "2708 98th Ave", "address2": "", "address3": "", "city": "Oakland", "zip_code": "94605", "country": "US", "state": "CA", "display_address": ["2708 98th Ave", "Oakland, CA 94605"]}, "phone": "+15105644648", "display_phone": "(510) 564-4648", "distance": 10392.289256600001}, {"id": "Qgg3Kt3iLeDuuVBq6aF_jQ", "alias": "el-grullo-taco-truck-oakland", "name": "El Grullo Taco Truck", "image_url": "https://s3-media3.fl.yelpcdn.com/bphoto/sPXA18rFPOYjAZ-LqBb1xQ/o.jpg", "is_closed": false, "url": "https://www.yelp.com/biz/el-grullo-taco-truck-oakland?adjust_creative=IokN4du3-7NwKcCaUms5LA&utm_campaign=yelp_api_v3&utm_medium=api_v3_business_search&utm_source=IokN4du3-7NwKcCaUms5LA", "review_count": 38, "categories": [{"alias": "mexican", "title": "Mexican"}, {"alias": "foodtrucks", "title": "Food Trucks"}], "rating": 4.5, "coordinates": {"latitude": 37.78078, "longitude": -122.231461}, "transactions": [], "price": "$", "location": {"address1": "International Blvd & 27th Ave", "address2": "", "address3": "", "city": "Oakland", "zip_code": "94620", "country": "US", "state": "CA", "display_address": ["International Blvd & 27th Ave", "Oakland, CA 94620"]}, "phone": "", "display_phone": "", "distance": 4673.513021888375}, {"id": "VMUMcXnodm-16jz5bLth9Q", "alias": "burnt-ends-bbq-food-truck-alameda-2", "name": "Burnt Ends BBQ Food Truck", "image_url": "https://s3-media3.fl.yelpcdn.com/bphoto/2BDyU2AfhKbyHXyA6PSpiA/o.jpg", "is_closed": false, "url": "https://www.yelp.com/biz/burnt-ends-bbq-food-truck-alameda-2?adjust_creative=IokN4du3-7NwKcCaUms5LA&utm_campaign=yelp_api_v3&utm_medium=api_v3_business_search&utm_source=IokN4du3-7NwKcCaUms5LA", "review_count": 59, "categories": [{"alias": "bbq", "title": "Barbeque"}, {"alias": "foodtrucks", "title": "Food Trucks"}, {"alias": "sandwiches", "title": "Sandwiches"}], "rating": 4.0, "coordinates": {"latitude": 37.785461, "longitude": -122.308035}, "transactions": [], "price": "$$", "location": {"address1": "2400 Monarch St", "address2": null, "address3": "", "city": "Alameda", "zip_code": "94501", "country": "US", "state": "CA", "display_address": ["2400 Monarch St", "Alameda, CA 94501"]}, "phone": "+15105902749", "display_phone": "(510) 590-2749", "distance": 7993.864420399827}, {"id": "rM6pPB_qmQ3de5yGpfLT1g", "alias": "lomo-libre-san-francisco-2", "name": "Lomo Libre", "image_url": "https://s3-media1.fl.yelpcdn.com/bphoto/vjnO-EUjFHKoLMy2_JQYvg/o.jpg", "is_closed": false, "url": "https://www.yelp.com/biz/lomo-libre-san-francisco-2?adjust_creative=IokN4du3-7NwKcCaUms5LA&utm_campaign=yelp_api_v3&utm_medium=api_v3_business_search&utm_source=IokN4du3-7NwKcCaUms5LA", "review_count": 8, "categories": [{"alias": "foodtrucks", "title": "Food Trucks"}, {"alias": "peruvian", "title": "Peruvian"}], "rating": 5.0, "coordinates": {"latitude": 37.799634, "longitude": -122.436301}, "transactions": [], "location": {"address1": "2101 Lombard St", "address2": "", "address3": null, "city": "San Francisco", "zip_code": "94123", "country": "US", "state": "CA", "display_address": ["2101 Lombard St", "San Francisco, CA 94123"]}, "phone": "+14156198149", "display_phone": "(415) 619-8149", "distance": 18281.1291407956}, {"id": "6YdpqcSN3ySxE7bHyFXbbg", "alias": "tacos-el-rey-berkeley-2", "name": "Tacos El Rey", "image_url": "https://s3-media4.fl.yelpcdn.com/bphoto/7-frNE8WKa1pCAcYmLgDuw/o.jpg", "is_closed": false, "url": "https://www.yelp.com/biz/tacos-el-rey-berkeley-2?adjust_creative=IokN4du3-7NwKcCaUms5LA&utm_campaign=yelp_api_v3&utm_medium=api_v3_business_search&utm_source=IokN4du3-7NwKcCaUms5LA", "review_count": 108, "categories": [{"alias": "mexican", "title": "Mexican"}, {"alias": "foodtrucks", "title": "Food Trucks"}], "rating": 4.5, "coordinates": {"latitude": 37.851009, "longitude": -122.292444}, "transactions": [], "price": "$", "location": {"address1": "Ashby Ave 7th St", "address2": null, "address3": "", "city": "Berkeley", "zip_code": "94701", "country": "US", "state": "CA", "display_address": ["Ashby Ave 7th St", "Berkeley, CA 94701"]}, "phone": "+15105931020", "display_phone": "(510) 593-1020", "distance": 6295.93438481716}, {"id": "XCC2GEmWwwsb6LoeZLaqXA", "alias": "momolicious-san-francisco-2", "name": "MOMOlicious", "image_url": "https://s3-media1.fl.yelpcdn.com/bphoto/3yNgEihH74gOY8BSlXWZtg/o.jpg", "is_closed": false, "url": "https://www.yelp.com/biz/momolicious-san-francisco-2?adjust_creative=IokN4du3-7NwKcCaUms5LA&utm_campaign=yelp_api_v3&utm_medium=api_v3_business_search&utm_source=IokN4du3-7NwKcCaUms5LA", "review_count": 100, "categories": [{"alias": "foodtrucks", "title": "Food Trucks"}, {"alias": "himalayan", "title": "Himalayan/Nepalese"}, {"alias": "noodles", "title": "Noodles"}], "rating": 4.5, "coordinates": {"latitude": 37.7945413, "longitude": -122.3949711}, "transactions": [], "price": "$$", "location": {"address1": "10 Market St", "address2": null, "address3": "", "city": "San Francisco", "zip_code": "94105", "country": "US", "state": "CA", "display_address": ["10 Market St", "San Francisco, CA 94105"]}, "phone": "+15102876606", "display_phone": "(510) 287-6606", "distance": 14744.098008090825}, {"id": "uuouQQIFQ1B9mkmcxaAKFA", "alias": "tacos-el-rey-oakland", "name": "Tacos El Rey", "image_url": "https://s3-media2.fl.yelpcdn.com/bphoto/DblyFrtT9uyPCQAUfPbYbQ/o.jpg", "is_closed": false, "url": "https://www.yelp.com/biz/tacos-el-rey-oakland?adjust_creative=IokN4du3-7NwKcCaUms5LA&utm_campaign=yelp_api_v3&utm_medium=api_v3_business_search&utm_source=IokN4du3-7NwKcCaUms5LA", "review_count": 9, "categories": [{"alias": "foodtrucks", "title": "Food Trucks"}, {"alias": "mexican", "title": "Mexican"}], "rating": 4.0, "coordinates": {"latitude": 37.8294034, "longitude": -122.2875758}, "transactions": [], "price": "$", "location": {"address1": "40th & Horton", "address2": "", "address3": null, "city": "Oakland", "zip_code": "94608", "country": "US", "state": "CA", "display_address": ["40th & Horton", "Oakland, CA 94608"]}, "phone": "+15108130232", "display_phone": "(510) 813-0232", "distance": 5085.427431567932}, {"id": "DC42MrpWtqEeWRmMsn6Z8w", "alias": "the-everest-momo-fremont-2", "name": "The Everest Momo", "image_url": "https://s3-media2.fl.yelpcdn.com/bphoto/T2f7tUQ1c104otx9oSdqYw/o.jpg", "is_closed": false, "url": "https://www.yelp.com/biz/the-everest-momo-fremont-2?adjust_creative=IokN4du3-7NwKcCaUms5LA&utm_campaign=yelp_api_v3&utm_medium=api_v3_business_search&utm_source=IokN4du3-7NwKcCaUms5LA", "review_count": 23, "categories": [{"alias": "foodtrucks", "title": "Food Trucks"}, {"alias": "indpak", "title": "Indian"}, {"alias": "himalayan", "title": "Himalayan/Nepalese"}], "rating": 4.5, "coordinates": {"latitude": 37.54643, "longitude": -121.98512}, "transactions": [], "price": "$", "location": {"address1": "39233 Fremont Blvd", "address2": null, "address3": null, "city": "Fremont", "zip_code": "94538", "country": "US", "state": "CA", "display_address": ["39233 Fremont Blvd", "Fremont, CA 94538"]}, "phone": "+14088406369", "display_phone": "(408) 840-6369", "distance": 37543.85616338371}, {"id": "PxzM_zNIOy7jdtwT-fbB0w", "alias": "minnie-bells-san-francisco-2", "name": "Minnie Bells", "image_url": "https://s3-media2.fl.yelpcdn.com/bphoto/5YNxEigMmu8anIwGkIsEzg/o.jpg", "is_closed": false, "url": "https://www.yelp.com/biz/minnie-bells-san-francisco-2?adjust_creative=IokN4du3-7NwKcCaUms5LA&utm_campaign=yelp_api_v3&utm_medium=api_v3_business_search&utm_source=IokN4du3-7NwKcCaUms5LA", "review_count": 15, "categories": [{"alias": "soulfood", "title": "Soul Food"}, {"alias": "foodtrucks", "title": "Food Trucks"}, {"alias": "comfortfood", "title": "Comfort Food"}], "rating": 4.5, "coordinates": {"latitude": 37.7769775466477, "longitude": -122.416963241994}, "transactions": [], "location": {"address1": "", "address2": "", "address3": null, "city": "San Francisco", "zip_code": "94103", "country": "US", "state": "CA", "display_address": ["San Francisco, CA 94103"]}, "phone": "+14152739340", "display_phone": "(415) 273-9340", "distance": 17175.22735697106}, {"id": "ZwMYagQH_8aXT8g9EAeUKw", "alias": "noodle-girl-san-francisco-2", "name": "Noodle Girl", "image_url": "https://s3-media3.fl.yelpcdn.com/bphoto/AZ3jiGiDY47U8QlXEJOGiA/o.jpg", "is_closed": false, "url": "https://www.yelp.com/biz/noodle-girl-san-francisco-2?adjust_creative=IokN4du3-7NwKcCaUms5LA&utm_campaign=yelp_api_v3&utm_medium=api_v3_business_search&utm_source=IokN4du3-7NwKcCaUms5LA", "review_count": 4, "categories": [{"alias": "noodles", "title": "Noodles"}, {"alias": "foodstands", "title": "Food Stands"}, {"alias": "catering", "title": "Caterers"}], "rating": 3.5, "coordinates": {"latitude": 37.7485824, "longitude": -122.4184108}, "transactions": [], "location": {"address1": "", "address2": "", "address3": null, "city": "San Francisco", "zip_code": "94110", "country": "US", "state": "CA", "display_address": ["San Francisco, CA 94110"]}, "phone": "", "display_phone": "", "distance": 18477.71131071847}, {"id": "R-YVOqnLKzZnT5THs_axMA", "alias": "the-burrito-truck-oakland", "name": "The Burrito Truck", "image_url": "https://s3-media3.fl.yelpcdn.com/bphoto/mMK4b8dSj5KcchUxtgHwMQ/o.jpg", "is_closed": false, "url": "https://www.yelp.com/biz/the-burrito-truck-oakland?adjust_creative=IokN4du3-7NwKcCaUms5LA&utm_campaign=yelp_api_v3&utm_medium=api_v3_business_search&utm_source=IokN4du3-7NwKcCaUms5LA", "review_count": 11, "categories": [{"alias": "foodtrucks", "title": "Food Trucks"}, {"alias": "mexican", "title": "Mexican"}], "rating": 2.5, "coordinates": {"latitude": 37.8449241, "longitude": -122.2846393}, "transactions": [], "price": "$$", "location": {"address1": "6211 San Pablo Ave", "address2": null, "address3": "", "city": "Oakland", "zip_code": "94608", "country": "US", "state": "CA", "display_address": ["6211 San Pablo Ave", "Oakland, CA 94608"]}, "phone": "+15105995681", "display_phone": "(510) 599-5681", "distance": 5370.345194757097}, {"id": "jW66693LVPlyDtzAoeb7KQ", "alias": "travelin-joe-espresso-berkeley", "name": "Travelin Joe Espresso", "image_url": "https://s3-media2.fl.yelpcdn.com/bphoto/XiqMQnnnbGe4g2SzU4Wm-A/o.jpg", "is_closed": false, "url": "https://www.yelp.com/biz/travelin-joe-espresso-berkeley?adjust_creative=IokN4du3-7NwKcCaUms5LA&utm_campaign=yelp_api_v3&utm_medium=api_v3_business_search&utm_source=IokN4du3-7NwKcCaUms5LA", "review_count": 33, "categories": [{"alias": "coffee", "title": "Coffee & Tea"}, {"alias": "foodstands", "title": "Food Stands"}, {"alias": "waffles", "title": "Waffles"}], "rating": 4.5, "coordinates": {"latitude": 37.85571, "longitude": -122.2893}, "transactions": [], "price": "$$", "location": {"address1": "1016 Grayson St", "address2": "", "address3": "", "city": "Berkeley", "zip_code": "94710", "country": "US", "state": "CA", "display_address": ["1016 Grayson St", "Berkeley, CA 94710"]}, "phone": "+15109197279", "display_phone": "(510) 919-7279", "distance": 6348.346359702996}, {"id": "RsgxKM4y5V_po23Iy3lTww", "alias": "fiya-spice-caribbean-pittsburg", "name": "Fiya Spice Caribbean", "image_url": "https://s3-media1.fl.yelpcdn.com/bphoto/7NBUdJXMLVWdJqIumy-GBg/o.jpg", "is_closed": false, "url": "https://www.yelp.com/biz/fiya-spice-caribbean-pittsburg?adjust_creative=IokN4du3-7NwKcCaUms5LA&utm_campaign=yelp_api_v3&utm_medium=api_v3_business_search&utm_source=IokN4du3-7NwKcCaUms5LA", "review_count": 1, "categories": [{"alias": "foodtrucks", "title": "Food Trucks"}, {"alias": "caribbean", "title": "Caribbean"}, {"alias": "catering", "title": "Caterers"}], "rating": 5.0, "coordinates": {"latitude": 38.011279, "longitude": -121.876098}, "transactions": [], "location": {"address1": "", "address2": null, "address3": "", "city": "Pittsburg", "zip_code": "94565", "country": "US", "state": "CA", "display_address": ["Pittsburg, CA 94565"]}, "phone": "+15106863325", "display_phone": "(510) 686-3325", "distance": 37477.35706888716}, {"id": "lGLyIlp2qqAVu5Zxeomy9Q", "alias": "gondo-fusion-south-san-francisco", "name": "Gondo Fusion", "image_url": "https://s3-media2.fl.yelpcdn.com/bphoto/Ry4KFwoAev_BGRpe2WtcYA/o.jpg", "is_closed": false, "url": "https://www.yelp.com/biz/gondo-fusion-south-san-francisco?adjust_creative=IokN4du3-7NwKcCaUms5LA&utm_campaign=yelp_api_v3&utm_medium=api_v3_business_search&utm_source=IokN4du3-7NwKcCaUms5LA", "review_count": 13, "categories": [{"alias": "foodtrucks", "title": "Food Trucks"}, {"alias": "cuban", "title": "Cuban"}, {"alias": "mexican", "title": "Mexican"}], "rating": 4.0, "coordinates": {"latitude": 37.65774, "longitude": -122.41407}, "transactions": [], "location": {"address1": "", "address2": null, "address3": "", "city": "South San Francisco", "zip_code": "94080", "country": "US", "state": "CA", "display_address": ["South San Francisco, CA 94080"]}, "phone": "+16502185404", "display_phone": "(650) 218-5404", "distance": 25087.059407145607}, {"id": "dCrD7a_nUlGQLcuzA98TUQ", "alias": "las-marianas-food-truck-oakland", "name": "Las Marianas Food truck", "image_url": "https://s3-media3.fl.yelpcdn.com/bphoto/Ckw-ghPJ2MzG7FG4SCX3eQ/o.jpg", "is_closed": false, "url": "https://www.yelp.com/biz/las-marianas-food-truck-oakland?adjust_creative=IokN4du3-7NwKcCaUms5LA&utm_campaign=yelp_api_v3&utm_medium=api_v3_business_search&utm_source=IokN4du3-7NwKcCaUms5LA", "review_count": 22, "categories": [{"alias": "foodtrucks", "title": "Food Trucks"}, {"alias": "mexican", "title": "Mexican"}], "rating": 4.0, "coordinates": {"latitude": 37.74154, "longitude": -122.19285}, "transactions": ["pickup"], "price": "$", "location": {"address1": "8477 Enterprise Way", "address2": null, "address3": "", "city": "Oakland", "zip_code": "94601", "country": "US", "state": "CA", "display_address": ["8477 Enterprise Way", "Oakland, CA 94601"]}, "phone": "+14155960893", "display_phone": "(415) 596-0893", "distance": 9602.321063933518}, {"id": "Lg73M4FnC1QQmUGpGHD4hA", "alias": "kabob-trolley-san-francisco-5", "name": "Kabob Trolley", "image_url": "https://s3-media2.fl.yelpcdn.com/bphoto/6WneQFOu-WWB-80KhY5TeA/o.jpg", "is_closed": false, "url": "https://www.yelp.com/biz/kabob-trolley-san-francisco-5?adjust_creative=IokN4du3-7NwKcCaUms5LA&utm_campaign=yelp_api_v3&utm_medium=api_v3_business_search&utm_source=IokN4du3-7NwKcCaUms5LA", "review_count": 86, "categories": [{"alias": "foodtrucks", "title": "Food Trucks"}, {"alias": "afghani", "title": "Afghan"}, {"alias": "halal", "title": "Halal"}], "rating": 3.5, "coordinates": {"latitude": 37.776774, "longitude": -122.3940414}, "transactions": ["pickup"], "price": "$", "location": {"address1": "298 King St", "address2": "", "address3": "", "city": "San Francisco", "zip_code": "94107", "country": "US", "state": "CA", "display_address": ["298 King St", "San Francisco, CA 94107"]}, "phone": "+14154049756", "display_phone": "(415) 404-9756", "distance": 15271.232843914957}, {"id": "XTJJ_PUQoJKIh31ZIzsFzw", "alias": "cochinita-food-truck-san-francisco-6", "name": "Cochinita Food Truck", "image_url": "https://s3-media2.fl.yelpcdn.com/bphoto/w77SOd2jVJjOh1lwuYQ42w/o.jpg", "is_closed": false, "url": "https://www.yelp.com/biz/cochinita-food-truck-san-francisco-6?adjust_creative=IokN4du3-7NwKcCaUms5LA&utm_campaign=yelp_api_v3&utm_medium=api_v3_business_search&utm_source=IokN4du3-7NwKcCaUms5LA", "review_count": 49, "categories": [{"alias": "foodtrucks", "title": "Food Trucks"}, {"alias": "mexican", "title": "Mexican"}], "rating": 4.5, "coordinates": {"latitude": 37.770753, "longitude": -122.3916722}, "transactions": [], "price": "$", "location": {"address1": "601 Mission Blvd N", "address2": null, "address3": "", "city": "San Francisco", "zip_code": "94103", "country": "US", "state": "CA", "display_address": ["601 Mission Blvd N", "San Francisco, CA 94103"]}, "phone": "+14159883663", "display_phone": "(415) 988-3663", "distance": 15316.043462114007}, {"id": "2foqEQPQVy91S_ze4Win-A", "alias": "lamas-peruvian-truck-daly-city-2", "name": "Lamas Peruvian Truck", "image_url": "https://s3-media3.fl.yelpcdn.com/bphoto/G81twUQQu_9iDQMlyq58AA/o.jpg", "is_closed": false, "url": "https://www.yelp.com/biz/lamas-peruvian-truck-daly-city-2?adjust_creative=IokN4du3-7NwKcCaUms5LA&utm_campaign=yelp_api_v3&utm_medium=api_v3_business_search&utm_source=IokN4du3-7NwKcCaUms5LA", "review_count": 32, "categories": [{"alias": "foodtrucks", "title": "Food Trucks"}, {"alias": "peruvian", "title": "Peruvian"}], "rating": 3.5, "coordinates": {"latitude": 37.69158, "longitude": -122.46252}, "transactions": [], "price": "$$", "location": {"address1": "", "address2": null, "address3": null, "city": "Daly City", "zip_code": "94014", "country": "US", "state": "CA", "display_address": ["Daly City, CA 94014"]}, "phone": "+16507979866", "display_phone": "(650) 797-9866", "distance": 24450.207584802232}, {"id": "eQphqtQx_0KiltdsmnB07g", "alias": "wezy-cuisine-truck-hayward-4", "name": "Wezy Cuisine Truck", "image_url": "https://s3-media1.fl.yelpcdn.com/bphoto/uIsUoM74AtTEasvrnO33bQ/o.jpg", "is_closed": false, "url": "https://www.yelp.com/biz/wezy-cuisine-truck-hayward-4?adjust_creative=IokN4du3-7NwKcCaUms5LA&utm_campaign=yelp_api_v3&utm_medium=api_v3_business_search&utm_source=IokN4du3-7NwKcCaUms5LA", "review_count": 26, "categories": [{"alias": "asianfusion", "title": "Asian Fusion"}, {"alias": "foodtrucks", "title": "Food Trucks"}], "rating": 4.0, "coordinates": {"latitude": 37.60532, "longitude": -122.06126}, "transactions": [], "location": {"address1": "2430 Whipple Rd", "address2": null, "address3": "", "city": "Hayward", "zip_code": "94544", "country": "US", "state": "CA", "display_address": ["2430 Whipple Rd", "Hayward, CA 94544"]}, "phone": "+13212289393", "display_phone": "(321) 228-9393", "distance": 28374.39552084631}, {"id": "ZlLnkOJzKQx_QbZf5p2_lw", "alias": "yummysticks-richmond-2", "name": "YummySticks", "image_url": "https://s3-media1.fl.yelpcdn.com/bphoto/7Nfbaqr5CYkV6XM9IfLO9Q/o.jpg", "is_closed": false, "url": "https://www.yelp.com/biz/yummysticks-richmond-2?adjust_creative=IokN4du3-7NwKcCaUms5LA&utm_campaign=yelp_api_v3&utm_medium=api_v3_business_search&utm_source=IokN4du3-7NwKcCaUms5LA", "review_count": 3, "categories": [{"alias": "foodtrucks", "title": "Food Trucks"}, {"alias": "newamerican", "title": "American (New)"}, {"alias": "catering", "title": "Caterers"}], "rating": 3.5, "coordinates": {"latitude": 37.921329498291, "longitude": -122.341423034668}, "transactions": [], "location": {"address1": "", "address2": null, "address3": null, "city": "Richmond", "zip_code": "94804", "country": "US", "state": "CA", "display_address": ["Richmond, CA 94804"]}, "phone": "+15109923876", "display_phone": "(510) 992-3876", "distance": 14078.447407053718}, {"id": "40DtuR_HxNuBVf_uSoy66Q", "alias": "keeku-da-dhaba-fremont-2", "name": "Keeku da Dhaba", "image_url": "https://s3-media2.fl.yelpcdn.com/bphoto/8x2WS8oGXINIKI6pNnQYBw/o.jpg", "is_closed": false, "url": "https://www.yelp.com/biz/keeku-da-dhaba-fremont-2?adjust_creative=IokN4du3-7NwKcCaUms5LA&utm_campaign=yelp_api_v3&utm_medium=api_v3_business_search&utm_source=IokN4du3-7NwKcCaUms5LA", "review_count": 115, "categories": [{"alias": "indpak", "title": "Indian"}, {"alias": "foodtrucks", "title": "Food Trucks"}, {"alias": "kebab", "title": "Kebab"}], "rating": 4.5, "coordinates": {"latitude": 37.551938, "longitude": -121.985058}, "transactions": [], "location": {"address1": "3400 Mowry Ave", "address2": "", "address3": "Bharat Bazaar Parking Space", "city": "Fremont", "zip_code": "94538", "country": "US", "state": "CA", "display_address": ["3400 Mowry Ave", "Bharat Bazaar Parking Space", "Fremont, CA 94538"]}, "phone": "+15107893437", "display_phone": "(510) 789-3437", "distance": 37043.06567732942}, {"id": "S9MYGapWK7T7oKUEYLz6Iw", "alias": "the-boneyard-san-bruno-3", "name": "The Boneyard", "image_url": "https://s3-media3.fl.yelpcdn.com/bphoto/uG6EEbOomy5tsXTsHGodxg/o.jpg", "is_closed": false, "url": "https://www.yelp.com/biz/the-boneyard-san-bruno-3?adjust_creative=IokN4du3-7NwKcCaUms5LA&utm_campaign=yelp_api_v3&utm_medium=api_v3_business_search&utm_source=IokN4du3-7NwKcCaUms5LA", "review_count": 87, "categories": [{"alias": "foodtrucks", "title": "Food Trucks"}, {"alias": "bbq", "title": "Barbeque"}, {"alias": "catering", "title": "Caterers"}], "rating": 3.5, "coordinates": {"latitude": 37.7939188282826, "longitude": -122.400518522289}, "transactions": ["delivery", "pickup"], "price": "$$", "location": {"address1": "1225 San Mateo Ave", "address2": null, "address3": "", "city": "San Bruno", "zip_code": "94066", "country": "US", "state": "CA", "display_address": ["1225 San Mateo Ave", "San Bruno, CA 94066"]}, "phone": "+14159350696", "display_phone": "(415) 935-0696", "distance": 15296.399256175413}, {"id": "ojUAPwlCiu_4vm_Z0ZqiYQ", "alias": "bayareatacocatering-belmont", "name": "BayAreaTacoCatering", "image_url": "https://s3-media2.fl.yelpcdn.com/bphoto/GMhjsoS5maG6UsosVN8Yhw/o.jpg", "is_closed": false, "url": "https://www.yelp.com/biz/bayareatacocatering-belmont?adjust_creative=IokN4du3-7NwKcCaUms5LA&utm_campaign=yelp_api_v3&utm_medium=api_v3_business_search&utm_source=IokN4du3-7NwKcCaUms5LA", "review_count": 24, "categories": [{"alias": "tacos", "title": "Tacos"}, {"alias": "catering", "title": "Caterers"}, {"alias": "foodtrucks", "title": "Food Trucks"}], "rating": 5.0, "coordinates": {"latitude": 37.5117858227472, "longitude": -122.292540979695}, "transactions": [], "price": "$", "location": {"address1": null, "address2": null, "address3": "", "city": "Belmont", "zip_code": "94002", "country": "US", "state": "CA", "display_address": ["Belmont, CA 94002"]}, "phone": "+15108666832", "display_phone": "(510) 866-6832", "distance": 35014.59732919402}, {"id": "lgheXsHqe66AEZwoPDIEpw", "alias": "taco-coma-newark", "name": "Taco Coma", "image_url": "https://s3-media3.fl.yelpcdn.com/bphoto/DDz5lZDL5lDiRR_Ph0L4Sg/o.jpg", "is_closed": false, "url": "https://www.yelp.com/biz/taco-coma-newark?adjust_creative=IokN4du3-7NwKcCaUms5LA&utm_campaign=yelp_api_v3&utm_medium=api_v3_business_search&utm_source=IokN4du3-7NwKcCaUms5LA", "review_count": 3, "categories": [{"alias": "foodstands", "title": "Food Stands"}, {"alias": "tacos", "title": "Tacos"}], "rating": 5.0, "coordinates": {"latitude": 37.53453, "longitude": -122.03284}, "transactions": [], "location": {"address1": "", "address2": null, "address3": "", "city": "Newark", "zip_code": "94560", "country": "US", "state": "CA", "display_address": ["Newark, CA 94560"]}, "phone": "+15106971448", "display_phone": "(510) 697-1448", "distance": 36679.191879128775}, {"id": "uDiET4svV2YANPkSPDB9wQ", "alias": "o-my-cr\u00eapes-dublin-2", "name": "O My Cr\u00eapes!", "image_url": "https://s3-media2.fl.yelpcdn.com/bphoto/fhO5f-An4GYyPjPv57A66Q/o.jpg", "is_closed": false, "url": "https://www.yelp.com/biz/o-my-cr%C3%AApes-dublin-2?adjust_creative=IokN4du3-7NwKcCaUms5LA&utm_campaign=yelp_api_v3&utm_medium=api_v3_business_search&utm_source=IokN4du3-7NwKcCaUms5LA", "review_count": 52, "categories": [{"alias": "foodtrucks", "title": "Food Trucks"}, {"alias": "creperies", "title": "Creperies"}, {"alias": "catering", "title": "Caterers"}], "rating": 5.0, "coordinates": {"latitude": 37.71604, "longitude": -121.91311}, "transactions": [], "price": "$$", "location": {"address1": "", "address2": null, "address3": null, "city": "Dublin", "zip_code": "94568", "country": "US", "state": "CA", "display_address": ["Dublin, CA 94568"]}, "phone": "+19259848338", "display_phone": "(925) 984-8338", "distance": 30546.97197379346}, {"id": "kIsGtzHcIxk40klNpTWuog", "alias": "grillaz-gone-wild-hayward", "name": "Grillaz Gone Wild", "image_url": "https://s3-media1.fl.yelpcdn.com/bphoto/4OKiJlqTPiue8J6EbwO3ug/o.jpg", "is_closed": false, "url": "https://www.yelp.com/biz/grillaz-gone-wild-hayward?adjust_creative=IokN4du3-7NwKcCaUms5LA&utm_campaign=yelp_api_v3&utm_medium=api_v3_business_search&utm_source=IokN4du3-7NwKcCaUms5LA", "review_count": 124, "categories": [{"alias": "cheesesteaks", "title": "Cheesesteaks"}, {"alias": "foodtrucks", "title": "Food Trucks"}, {"alias": "sandwiches", "title": "Sandwiches"}], "rating": 4.0, "coordinates": {"latitude": 37.63805, "longitude": -122.07161}, "transactions": [], "price": "$", "location": {"address1": "", "address2": "", "address3": "", "city": "Hayward", "zip_code": "94544", "country": "US", "state": "CA", "display_address": ["Hayward, CA 94544"]}, "phone": "+17075013252", "display_phone": "(707) 501-3252", "distance": 26949.403171018857}, {"id": "Is1KN9f5THyPgo1RjAxRzg", "alias": "madd-mex-cantina-food-truck-san-mateo-3", "name": "Madd Mex Cantina Food Truck", "image_url": "https://s3-media3.fl.yelpcdn.com/bphoto/sqUQfoUkNqzsWDktPN09Dg/o.jpg", "is_closed": false, "url": "https://www.yelp.com/biz/madd-mex-cantina-food-truck-san-mateo-3?adjust_creative=IokN4du3-7NwKcCaUms5LA&utm_campaign=yelp_api_v3&utm_medium=api_v3_business_search&utm_source=IokN4du3-7NwKcCaUms5LA", "review_count": 225, "categories": [{"alias": "foodtrucks", "title": "Food Trucks"}, {"alias": "mexican", "title": "Mexican"}, {"alias": "catering", "title": "Caterers"}], "rating": 4.5, "coordinates": {"latitude": 37.5521392822266, "longitude": -122.260833740234}, "transactions": [], "price": "$", "location": {"address1": "", "address2": null, "address3": "", "city": "San Mateo", "zip_code": "94404", "country": "US", "state": "CA", "display_address": ["San Mateo, CA 94404"]}, "phone": "", "display_phone": "", "distance": 29999.087411416258}, {"id": "nfBk9bUx0XgFs6S6JUTJAA", "alias": "the-everest-momo-sunnyvale", "name": "The Everest Momo", "image_url": "https://s3-media2.fl.yelpcdn.com/bphoto/2q_EZw2hN6cfBnYLQpGZJA/o.jpg", "is_closed": false, "url": "https://www.yelp.com/biz/the-everest-momo-sunnyvale?adjust_creative=IokN4du3-7NwKcCaUms5LA&utm_campaign=yelp_api_v3&utm_medium=api_v3_business_search&utm_source=IokN4du3-7NwKcCaUms5LA", "review_count": 530, "categories": [{"alias": "foodtrucks", "title": "Food Trucks"}, {"alias": "himalayan", "title": "Himalayan/Nepalese"}, {"alias": "indpak", "title": "Indian"}], "rating": 4.0, "coordinates": {"latitude": 37.3744614, "longitude": -122.0563915}, "transactions": [], "price": "$", "location": {"address1": "1205 W El Camino Real", "address2": null, "address3": null, "city": "Sunnyvale", "zip_code": "94087", "country": "US", "state": "CA", "display_address": ["1205 W El Camino Real", "Sunnyvale, CA 94087"]}, "phone": "+14088406369", "display_phone": "(408) 840-6369", "distance": 52153.63231309541}, {"id": "8SNGFcMWZkvS4GWDUL8w1Q", "alias": "noon-o-kabob-san-jose-4", "name": "Noon O Kabob", "image_url": "https://s3-media2.fl.yelpcdn.com/bphoto/5GmY5FRw0m0XEWC5XXbVlA/o.jpg", "is_closed": false, "url": "https://www.yelp.com/biz/noon-o-kabob-san-jose-4?adjust_creative=IokN4du3-7NwKcCaUms5LA&utm_campaign=yelp_api_v3&utm_medium=api_v3_business_search&utm_source=IokN4du3-7NwKcCaUms5LA", "review_count": 29, "categories": [{"alias": "foodtrucks", "title": "Food Trucks"}, {"alias": "kebab", "title": "Kebab"}, {"alias": "persian", "title": "Persian/Iranian"}], "rating": 4.5, "coordinates": {"latitude": 37.3940232, "longitude": -122.0288052}, "transactions": [], "price": "$$", "location": {"address1": null, "address2": null, "address3": null, "city": "San Jose", "zip_code": "95101", "country": "US", "state": "CA", "display_address": ["San Jose, CA 95101"]}, "phone": "+14083346777", "display_phone": "(408) 334-6777", "distance": 50873.800809981825}, {"id": "xomxVUXe8Sy5R2nt7qBxxg", "alias": "fired-mobile-pizza-oven-stockton", "name": "FIRED Mobile Pizza Oven", "image_url": "https://s3-media4.fl.yelpcdn.com/bphoto/JV4MGBFFrJGZQbmtdoOLFQ/o.jpg", "is_closed": false, "url": "https://www.yelp.com/biz/fired-mobile-pizza-oven-stockton?adjust_creative=IokN4du3-7NwKcCaUms5LA&utm_campaign=yelp_api_v3&utm_medium=api_v3_business_search&utm_source=IokN4du3-7NwKcCaUms5LA", "review_count": 8, "categories": [{"alias": "pizza", "title": "Pizza"}, {"alias": "catering", "title": "Caterers"}, {"alias": "foodtrucks", "title": "Food Trucks"}], "rating": 5.0, "coordinates": {"latitude": 38.0521138, "longitude": -121.3484448}, "transactions": [], "location": {"address1": null, "address2": null, "address3": "", "city": "Stockton", "zip_code": "95209", "country": "US", "state": "CA", "display_address": ["Stockton, CA 95209"]}, "phone": "+12092424105", "display_phone": "(209) 242-4105", "distance": 81429.59523275627}, {"id": "-SnIHr-tALmciy_J1VqXRg", "alias": "cielito-lindo-mexican-street-kitchen-san-jos\u00e9-5", "name": "Cielito Lindo Mexican Street Kitchen", "image_url": "https://s3-media4.fl.yelpcdn.com/bphoto/kCSoIcRPwQ0tPiGQh3gEFw/o.jpg", "is_closed": false, "url": "https://www.yelp.com/biz/cielito-lindo-mexican-street-kitchen-san-jos%C3%A9-5?adjust_creative=IokN4du3-7NwKcCaUms5LA&utm_campaign=yelp_api_v3&utm_medium=api_v3_business_search&utm_source=IokN4du3-7NwKcCaUms5LA", "review_count": 40, "categories": [{"alias": "foodtrucks", "title": "Food Trucks"}, {"alias": "mexican", "title": "Mexican"}], "rating": 4.0, "coordinates": {"latitude": 37.3853149414062, "longitude": -121.893257141113}, "transactions": [], "price": "$", "location": {"address1": null, "address2": null, "address3": "", "city": "San Jos\u00e9", "zip_code": "95131", "country": "US", "state": "CA", "display_address": ["San Jos\u00e9, CA 95131"]}, "phone": "+16508629836", "display_phone": "(650) 862-9836", "distance": 56386.5049456677}, {"id": "0x_iVQeDq7YVMjNGUNuloA", "alias": "holy-cannoli-san-jose-3", "name": "Holy Cannoli", "image_url": "https://s3-media1.fl.yelpcdn.com/bphoto/-2Pxy7VYA8-CTgdvUf58Og/o.jpg", "is_closed": false, "url": "https://www.yelp.com/biz/holy-cannoli-san-jose-3?adjust_creative=IokN4du3-7NwKcCaUms5LA&utm_campaign=yelp_api_v3&utm_medium=api_v3_business_search&utm_source=IokN4du3-7NwKcCaUms5LA", "review_count": 58, "categories": [{"alias": "cafes", "title": "Cafes"}, {"alias": "catering", "title": "Caterers"}, {"alias": "foodtrucks", "title": "Food Trucks"}], "rating": 4.5, "coordinates": {"latitude": 37.337298, "longitude": -121.88759}, "transactions": ["delivery", "pickup"], "price": "$", "location": {"address1": "138 E Santa Clara St", "address2": null, "address3": null, "city": "San Jose", "zip_code": "95113", "country": "US", "state": "CA", "display_address": ["138 E Santa Clara St", "San Jose, CA 95113"]}, "phone": "+14085612223", "display_phone": "(408) 561-2223", "distance": 61857.538610351956}, {"id": "C9uewBH5505NV0EWYBIJAA", "alias": "lady-and-l-aperitivo-san-jose", "name": "Lady & L'Aperitivo", "image_url": "https://s3-media4.fl.yelpcdn.com/bphoto/3nz0sRE9MlOq_4xVRQRt9w/o.jpg", "is_closed": false, "url": "https://www.yelp.com/biz/lady-and-l-aperitivo-san-jose?adjust_creative=IokN4du3-7NwKcCaUms5LA&utm_campaign=yelp_api_v3&utm_medium=api_v3_business_search&utm_source=IokN4du3-7NwKcCaUms5LA", "review_count": 1, "categories": [{"alias": "bakeries", "title": "Bakeries"}, {"alias": "desserts", "title": "Desserts"}, {"alias": "cheesesteaks", "title": "Cheesesteaks"}], "rating": 5.0, "coordinates": {"latitude": 37.2208938598633, "longitude": -121.861633300781}, "transactions": [], "location": {"address1": null, "address2": null, "address3": "", "city": "San Jose", "zip_code": "95120", "country": "US", "state": "CA", "display_address": ["San Jose, CA 95120"]}, "phone": "", "display_phone": "", "distance": 80186.60109288905}, {"id": "Qa7brHniluYGS6kvDLn_7Q", "alias": "3geeks-food-truck-santa-clara", "name": "3GEEKS FOOD TRUCK", "image_url": "https://s3-media2.fl.yelpcdn.com/bphoto/Ahw89hwfujcvycQ_3soddQ/o.jpg", "is_closed": false, "url": "https://www.yelp.com/biz/3geeks-food-truck-santa-clara?adjust_creative=IokN4du3-7NwKcCaUms5LA&utm_campaign=yelp_api_v3&utm_medium=api_v3_business_search&utm_source=IokN4du3-7NwKcCaUms5LA", "review_count": 86, "categories": [{"alias": "seafood", "title": "Seafood"}, {"alias": "cheesesteaks", "title": "Cheesesteaks"}, {"alias": "foodtrucks", "title": "Food Trucks"}], "rating": 3.0, "coordinates": {"latitude": 37.39911, "longitude": -121.95728}, "transactions": [], "price": "$$", "location": {"address1": null, "address2": null, "address3": "", "city": "Santa Clara", "zip_code": "95054", "country": "US", "state": "CA", "display_address": ["Santa Clara, CA 95054"]}, "phone": "+14089090709", "display_phone": "(408) 909-0709", "distance": 52663.727019596154}, {"id": "sR0Wy3LYGdYV9HLszRlMmw", "alias": "tacos-la-palmita-stockton", "name": "Tacos La Palmita", "image_url": "https://s3-media2.fl.yelpcdn.com/bphoto/pzYoRmZjUQqxZ7qOyU7hUQ/o.jpg", "is_closed": false, "url": "https://www.yelp.com/biz/tacos-la-palmita-stockton?adjust_creative=IokN4du3-7NwKcCaUms5LA&utm_campaign=yelp_api_v3&utm_medium=api_v3_business_search&utm_source=IokN4du3-7NwKcCaUms5LA", "review_count": 90, "categories": [{"alias": "tacos", "title": "Tacos"}, {"alias": "foodtrucks", "title": "Food Trucks"}], "rating": 4.5, "coordinates": {"latitude": 38.008129, "longitude": -121.320219}, "transactions": ["delivery", "pickup"], "price": "$", "location": {"address1": "6393 Pacific Ave", "address2": null, "address3": null, "city": "Stockton", "zip_code": "95207", "country": "US", "state": "CA", "display_address": ["6393 Pacific Ave", "Stockton, CA 95207"]}, "phone": "+12093026825", "display_phone": "(209) 302-6825", "distance": 82450.4494764208}, {"id": "SbjAjfh2riT7rWxo2OITJA", "alias": "candies-kitchen-sacramento", "name": "Candies Kitchen", "image_url": "https://s3-media1.fl.yelpcdn.com/bphoto/wZehoZn9-gQLuWPX4QIOLA/o.jpg", "is_closed": false, "url": "https://www.yelp.com/biz/candies-kitchen-sacramento?adjust_creative=IokN4du3-7NwKcCaUms5LA&utm_campaign=yelp_api_v3&utm_medium=api_v3_business_search&utm_source=IokN4du3-7NwKcCaUms5LA", "review_count": 2, "categories": [{"alias": "cajun", "title": "Cajun/Creole"}, {"alias": "soulfood", "title": "Soul Food"}, {"alias": "foodtrucks", "title": "Food Trucks"}], "rating": 3.5, "coordinates": {"latitude": 38.59429, "longitude": -121.48536}, "transactions": [], "location": {"address1": "1100 Richards Blvd", "address2": null, "address3": "", "city": "Sacramento", "zip_code": "95811", "country": "US", "state": "CA", "display_address": ["1100 Richards Blvd", "Sacramento, CA 95811"]}, "phone": "+19164399922", "display_phone": "(916) 439-9922", "distance": 107690.28197834031}, {"id": "Mij1ZvLLpqvNmJFWNz9IsQ", "alias": "paquitas-mexican-grill-sacramento-2", "name": "Paquitas Mexican Grill", "image_url": "https://s3-media2.fl.yelpcdn.com/bphoto/Onav96dKMe8cWeFXMNFcyQ/o.jpg", "is_closed": false, "url": "https://www.yelp.com/biz/paquitas-mexican-grill-sacramento-2?adjust_creative=IokN4du3-7NwKcCaUms5LA&utm_campaign=yelp_api_v3&utm_medium=api_v3_business_search&utm_source=IokN4du3-7NwKcCaUms5LA", "review_count": 73, "categories": [{"alias": "foodtrucks", "title": "Food Trucks"}, {"alias": "mexican", "title": "Mexican"}], "rating": 4.0, "coordinates": {"latitude": 38.549732, "longitude": -121.406281}, "transactions": [], "price": "$", "location": {"address1": "49 Bicentennial Cir", "address2": null, "address3": "", "city": "Sacramento", "zip_code": "95826", "country": "US", "state": "CA", "display_address": ["49 Bicentennial Cir", "Sacramento, CA 95826"]}, "phone": "+15308484666", "display_phone": "(530) 848-4666", "distance": 108258.67969563279}, {"id": "7ETh5878KSnGQnLxLE_yaQ", "alias": "gyrostop-sacramento", "name": "GyroStop", "image_url": "https://s3-media1.fl.yelpcdn.com/bphoto/xQsct4YKnW0qSJOmK_gsxw/o.jpg", "is_closed": false, "url": "https://www.yelp.com/biz/gyrostop-sacramento?adjust_creative=IokN4du3-7NwKcCaUms5LA&utm_campaign=yelp_api_v3&utm_medium=api_v3_business_search&utm_source=IokN4du3-7NwKcCaUms5LA", "review_count": 74, "categories": [{"alias": "mediterranean", "title": "Mediterranean"}, {"alias": "foodtrucks", "title": "Food Trucks"}], "rating": 4.0, "coordinates": {"latitude": 38.6621589660645, "longitude": -121.336738586426}, "transactions": [], "price": "$$", "location": {"address1": "", "address2": "", "address3": "", "city": "Sacramento", "zip_code": "95841", "country": "US", "state": "CA", "display_address": ["Sacramento, CA 95841"]}, "phone": "+19163044976", "display_phone": "(916) 304-4976", "distance": 120942.398963604}, {"id": "c2HnRxq5MQRTZWYCUxDhWg", "alias": "manj\u00e9-haitian-caribbean-food-sunrise", "name": "Manj\u00e9 - Haitian Caribbean Food", "image_url": "https://s3-media2.fl.yelpcdn.com/bphoto/aqjTx48he8KHiq2hiBr61g/o.jpg", "is_closed": false, "url": "https://www.yelp.com/biz/manj%C3%A9-haitian-caribbean-food-sunrise?adjust_creative=IokN4du3-7NwKcCaUms5LA&utm_campaign=yelp_api_v3&utm_medium=api_v3_business_search&utm_source=IokN4du3-7NwKcCaUms5LA", "review_count": 4, "categories": [{"alias": "haitian", "title": "Haitian"}, {"alias": "foodtrucks", "title": "Food Trucks"}], "rating": 4.5, "coordinates": {"latitude": 26.1477, "longitude": -80.27769}, "transactions": [], "location": {"address1": "", "address2": "", "address3": null, "city": "Sunrise", "zip_code": "33322", "country": "US", "state": "FL", "display_address": ["Sunrise, FL 33322"]}, "phone": "", "display_phone": "", "distance": 4125635.9308377397}]}