{"location": "Pinole, CA", "term": "restaurant", "radius": 2096, "businesses": [{"id": "fjwAqWtsX_y-oerrIodwBA", "alias": "pinole-creek-cafe-pinole", "name": "Pinole Creek Cafe", "image_url": "https://s3-media4.fl.yelpcdn.com/bphoto/CHGi_frhpzOhYloT1Zibrg/o.jpg", "is_closed": false, "url": "https://www.yelp.com/biz/pinole-creek-cafe-pinole?adjust_creative=IokN4du3-7NwKcCaUms5LA&utm_campaign=yelp_api_v3&utm_medium=api_v3_business_search&utm_source=IokN4du3-7NwKcCaUms5LA", "review_count": 310, "categories": [{"alias": "newamerican", "title": "American (New)"}], "rating": 4.5, "coordinates": {"latitude": 38.0065, "longitude": -122.28994}, "transactions": [], "price": "$$", "location": {"address1": "2454 San Pablo Ave", "address2": "", "address3": "", "city": "Pinole", "zip_code": "94564", "country": "US", "state": "CA", "display_address": ["2454 San Pablo Ave", "Pinole, CA 94564"]}, "phone": "+15107241040", "display_phone": "(510) 724-1040", "distance": 1171.6447589934012}, {"id": "BhwnWnTNdyqkrpKgYfXStw", "alias": "nu-gu-na-pinole", "name": "Nu Gu Na", "image_url": "https://s3-media3.fl.yelpcdn.com/bphoto/umUJ57mQLPii6rWwvUUWAA/o.jpg", "is_closed": false, "url": "https://www.yelp.com/biz/nu-gu-na-pinole?adjust_creative=IokN4du3-7NwKcCaUms5LA&utm_campaign=yelp_api_v3&utm_medium=api_v3_business_search&utm_source=IokN4du3-7NwKcCaUms5LA", "review_count": 105, "categories": [{"alias": "korean", "title": "Korean"}, {"alias": "bbq", "title": "Barbeque"}], "rating": 4.5, "coordinates": {"latitude": 38.006287, "longitude": -122.290306}, "transactions": [], "price": "$$", "location": {"address1": "2400 San Pablo Ave", "address2": "", "address3": null, "city": "Pinole", "zip_code": "94564", "country": "US", "state": "CA", "display_address": ["2400 San Pablo Ave", "Pinole, CA 94564"]}, "phone": "+15102835678", "display_phone": "(510) 283-5678", "distance": 1141.0239022982746}, {"id": "9BMO4VkH0Ce5bQdmJufVvg", "alias": "pear-street-bistro-pinole", "name": "Pear Street Bistro", "image_url": "https://s3-media2.fl.yelpcdn.com/bphoto/PtVstnRfyo7wfoUFczOo4w/o.jpg", "is_closed": false, "url": "https://www.yelp.com/biz/pear-street-bistro-pinole?adjust_creative=IokN4du3-7NwKcCaUms5LA&utm_campaign=yelp_api_v3&utm_medium=api_v3_business_search&utm_source=IokN4du3-7NwKcCaUms5LA", "review_count": 859, "categories": [{"alias": "newamerican", "title": "American (New)"}, {"alias": "desserts", "title": "Desserts"}, {"alias": "cocktailbars", "title": "Cocktail Bars"}], "rating": 3.5, "coordinates": {"latitude": 38.005695, "longitude": -122.290194}, "transactions": ["pickup", "restaurant_reservation"], "price": "$$", "location": {"address1": "2395 San Pablo Ave", "address2": null, "address3": "", "city": "Pinole", "zip_code": "94564", "country": "US", "state": "CA", "display_address": ["2395 San Pablo Ave", "Pinole, CA 94564"]}, "phone": "+15107418875", "display_phone": "(510) 741-8875", "distance": 1090.6553919341122}, {"id": "QfJuHxnW92FD3X1dXcbuFQ", "alias": "famiglia-italian-restaurant-pinole-2", "name": "Famiglia Italian Restaurant", "image_url": "https://s3-media3.fl.yelpcdn.com/bphoto/oLd9U7qUYAutZRWva-L2gg/o.jpg", "is_closed": false, "url": "https://www.yelp.com/biz/famiglia-italian-restaurant-pinole-2?adjust_creative=IokN4du3-7NwKcCaUms5LA&utm_campaign=yelp_api_v3&utm_medium=api_v3_business_search&utm_source=IokN4du3-7NwKcCaUms5LA", "review_count": 265, "categories": [{"alias": "italian", "title": "Italian"}, {"alias": "pizza", "title": "Pizza"}], "rating": 4.0, "coordinates": {"latitude": 38.005674, "longitude": -122.308033}, "transactions": [], "price": "$$", "location": {"address1": "812 San Pablo Ave", "address2": "", "address3": null, "city": "Pinole", "zip_code": "94564", "country": "US", "state": "CA", "display_address": ["812 San Pablo Ave", "Pinole, CA 94564"]}, "phone": "+15102835971", "display_phone": "(510) 283-5971", "distance": 1331.254711268089}, {"id": "UwErg-tpPF2vOozKICfJ1A", "alias": "tandoor-restaurant-pinole-5", "name": "Tandoor Restaurant", "image_url": "https://s3-media2.fl.yelpcdn.com/bphoto/APQXFvprqErcesp0UkMNlw/o.jpg", "is_closed": false, "url": "https://www.yelp.com/biz/tandoor-restaurant-pinole-5?adjust_creative=IokN4du3-7NwKcCaUms5LA&utm_campaign=yelp_api_v3&utm_medium=api_v3_business_search&utm_source=IokN4du3-7NwKcCaUms5LA", "review_count": 461, "categories": [{"alias": "indpak", "title": "Indian"}, {"alias": "himalayan", "title": "Himalayan/Nepalese"}], "rating": 4.0, "coordinates": {"latitude": 37.9910052696043, "longitude": -122.300170738762}, "transactions": ["delivery", "pickup"], "price": "$$", "location": {"address1": "2554 Appian Way", "address2": "", "address3": "", "city": "Pinole", "zip_code": "94564", "country": "US", "state": "CA", "display_address": ["2554 Appian Way", "Pinole, CA 94564"]}, "phone": "+15102223663", "display_phone": "(510) 222-3663", "distance": 773.2876923014804}, {"id": "sWEeZcRTezO-Evaehk5hbw", "alias": "ristorante-due-rose-pinole", "name": "Ristorante Due Rose", "image_url": "https://s3-media2.fl.yelpcdn.com/bphoto/gA4TNJAhLFsuQkVSCS8CIg/o.jpg", "is_closed": false, "url": "https://www.yelp.com/biz/ristorante-due-rose-pinole?adjust_creative=IokN4du3-7NwKcCaUms5LA&utm_campaign=yelp_api_v3&utm_medium=api_v3_business_search&utm_source=IokN4du3-7NwKcCaUms5LA", "review_count": 322, "categories": [{"alias": "italian", "title": "Italian"}], "rating": 4.0, "coordinates": {"latitude": 37.991428, "longitude": -122.300731}, "transactions": ["delivery", "pickup"], "price": "$$", "location": {"address1": "1596 Fitzgerald Dr", "address2": "", "address3": "", "city": "Pinole", "zip_code": "94564", "country": "US", "state": "CA", "display_address": ["1596 Fitzgerald Dr", "Pinole, CA 94564"]}, "phone": "+15102235620", "display_phone": "(510) 223-5620", "distance": 749.2333589343958}, {"id": "f7cHkRh0LjjnUU5H4BeglQ", "alias": "go-sushi-pinole", "name": "Go Sushi", "image_url": "https://s3-media2.fl.yelpcdn.com/bphoto/H7lqldlgdsIml1t6uPe9QA/o.jpg", "is_closed": false, "url": "https://www.yelp.com/biz/go-sushi-pinole?adjust_creative=IokN4du3-7NwKcCaUms5LA&utm_campaign=yelp_api_v3&utm_medium=api_v3_business_search&utm_source=IokN4du3-7NwKcCaUms5LA", "review_count": 198, "categories": [{"alias": "sushi", "title": "Sushi Bars"}], "rating": 4.0, "coordinates": {"latitude": 37.99524, "longitude": -122.28533}, "transactions": ["delivery", "pickup"], "price": "$$", "location": {"address1": "2701 Pinole Valley Rd", "address2": "Ste C", "address3": null, "city": "Pinole", "zip_code": "94564", "country": "US", "state": "CA", "display_address": ["2701 Pinole Valley Rd", "Ste C", "Pinole, CA 94564"]}, "phone": "+15102759597", "display_phone": "(510) 275-9597", "distance": 1064.8783073509278}, {"id": "9yf0B4kFsCG6-LNdHY_qAw", "alias": "mint-vietnamese-sandwiches-and-deli-pinole", "name": "Mint Vietnamese Sandwiches & Deli", "image_url": "https://s3-media3.fl.yelpcdn.com/bphoto/r6374zDW5jkDo39jXwH0Tg/o.jpg", "is_closed": false, "url": "https://www.yelp.com/biz/mint-vietnamese-sandwiches-and-deli-pinole?adjust_creative=IokN4du3-7NwKcCaUms5LA&utm_campaign=yelp_api_v3&utm_medium=api_v3_business_search&utm_source=IokN4du3-7NwKcCaUms5LA", "review_count": 21, "categories": [{"alias": "vietnamese", "title": "Vietnamese"}], "rating": 3.5, "coordinates": {"latitude": 38.00396, "longitude": -122.30189}, "transactions": [], "location": {"address1": "1279 San Pablo Ave", "address2": null, "address3": "", "city": "Pinole", "zip_code": "94564", "country": "US", "state": "CA", "display_address": ["1279 San Pablo Ave", "Pinole, CA 94564"]}, "phone": "+15107418250", "display_phone": "(510) 741-8250", "distance": 836.3370534616967}, {"id": "gRQi6pwEFgK3Kj-inGq9Rw", "alias": "leila-by-the-bay-hercules", "name": "Leila by the Bay", "image_url": "https://s3-media4.fl.yelpcdn.com/bphoto/aiW_5zAAqcxgKyhaEtJJSQ/o.jpg", "is_closed": false, "url": "https://www.yelp.com/biz/leila-by-the-bay-hercules?adjust_creative=IokN4du3-7NwKcCaUms5LA&utm_campaign=yelp_api_v3&utm_medium=api_v3_business_search&utm_source=IokN4du3-7NwKcCaUms5LA", "review_count": 711, "categories": [{"alias": "newamerican", "title": "American (New)"}, {"alias": "breakfast_brunch", "title": "Breakfast & Brunch"}, {"alias": "sandwiches", "title": "Sandwiches"}], "rating": 3.5, "coordinates": {"latitude": 38.0160754, "longitude": -122.2905835}, "transactions": ["pickup"], "price": "$$", "location": {"address1": "1991 Railroad Ave", "address2": "", "address3": "", "city": "Hercules", "zip_code": "94547", "country": "US", "state": "CA", "display_address": ["1991 Railroad Ave", "Hercules, CA 94547"]}, "phone": "+15107415580", "display_phone": "(510) 741-5580", "distance": 2140.6146074109747}, {"id": "p36MeprlsjNj221ZLZBNlA", "alias": "king-valley-tea-house-pinole-2", "name": "King Valley Tea House", "image_url": "https://s3-media1.fl.yelpcdn.com/bphoto/-JCJSKVp0Y5kR2rOfVDbpg/o.jpg", "is_closed": false, "url": "https://www.yelp.com/biz/king-valley-tea-house-pinole-2?adjust_creative=IokN4du3-7NwKcCaUms5LA&utm_campaign=yelp_api_v3&utm_medium=api_v3_business_search&utm_source=IokN4du3-7NwKcCaUms5LA", "review_count": 376, "categories": [{"alias": "dimsum", "title": "Dim Sum"}], "rating": 3.0, "coordinates": {"latitude": 38.0054844950739, "longitude": -122.289558969246}, "transactions": [], "price": "$$", "location": {"address1": "795 Fernandez Ave", "address2": "", "address3": "", "city": "Pinole", "zip_code": "94564", "country": "US", "state": "CA", "display_address": ["795 Fernandez Ave", "Pinole, CA 94564"]}, "phone": "+15107241668", "display_phone": "(510) 724-1668", "distance": 1103.409042300315}, {"id": "ETj-lW_USYgRF1l4f9SoFg", "alias": "sherry-s-kitchen-pinole", "name": "Sherry\u2019s Kitchen", "image_url": "https://s3-media1.fl.yelpcdn.com/bphoto/hiOdM2oIGxHumg6fHAx8Pw/o.jpg", "is_closed": false, "url": "https://www.yelp.com/biz/sherry-s-kitchen-pinole?adjust_creative=IokN4du3-7NwKcCaUms5LA&utm_campaign=yelp_api_v3&utm_medium=api_v3_business_search&utm_source=IokN4du3-7NwKcCaUms5LA", "review_count": 70, "categories": [{"alias": "breakfast_brunch", "title": "Breakfast & Brunch"}], "rating": 3.5, "coordinates": {"latitude": 37.991202, "longitude": -122.306623}, "transactions": [], "price": "$$", "location": {"address1": "1473 Fitzgerald Dr", "address2": "Ste 102", "address3": null, "city": "Pinole", "zip_code": "94564", "country": "US", "state": "CA", "display_address": ["1473 Fitzgerald Dr", "Ste 102", "Pinole, CA 94564"]}, "phone": "", "display_phone": "", "distance": 1077.481015219018}, {"id": "xeoO_VUGxOs425euDJQCFw", "alias": "sabor-latino-17-pinole", "name": "Sabor Latino 17", "image_url": "https://s3-media3.fl.yelpcdn.com/bphoto/9jVFR2GPF_3XiSgCx3bxjw/o.jpg", "is_closed": false, "url": "https://www.yelp.com/biz/sabor-latino-17-pinole?adjust_creative=IokN4du3-7NwKcCaUms5LA&utm_campaign=yelp_api_v3&utm_medium=api_v3_business_search&utm_source=IokN4du3-7NwKcCaUms5LA", "review_count": 179, "categories": [{"alias": "mexican", "title": "Mexican"}], "rating": 4.0, "coordinates": {"latitude": 38.006739, "longitude": -122.2888163}, "transactions": ["pickup"], "price": "$", "location": {"address1": "2511 San Pablo Ave", "address2": "", "address3": "", "city": "Pinole", "zip_code": "94564", "country": "US", "state": "CA", "display_address": ["2511 San Pablo Ave", "Pinole, CA 94564"]}, "phone": "+15102835647", "display_phone": "(510) 283-5647", "distance": 1254.598149113313}, {"id": "66PEGsfK70v5eX4ijMUiIA", "alias": "thai-spice-pinole", "name": "Thai Spice", "image_url": "https://s3-media4.fl.yelpcdn.com/bphoto/pOi6qD1h-cnS2s5RpYzZCw/o.jpg", "is_closed": false, "url": "https://www.yelp.com/biz/thai-spice-pinole?adjust_creative=IokN4du3-7NwKcCaUms5LA&utm_campaign=yelp_api_v3&utm_medium=api_v3_business_search&utm_source=IokN4du3-7NwKcCaUms5LA", "review_count": 396, "categories": [{"alias": "thai", "title": "Thai"}], "rating": 3.5, "coordinates": {"latitude": 37.9952735900879, "longitude": -122.285331726074}, "transactions": ["pickup"], "price": "$$", "location": {"address1": "2701 B Pinole Valley Rd", "address2": null, "address3": "", "city": "Pinole", "zip_code": "94564", "country": "US", "state": "CA", "display_address": ["2701 B Pinole Valley Rd", "Pinole, CA 94564"]}, "phone": "+15106699108", "display_phone": "(510) 669-9108", "distance": 1064.724360325069}, {"id": "ZtGltY6GPb0cRjus6N0OWg", "alias": "growlers-doghaus-pinole-3", "name": "Growlers DogHaus", "image_url": "https://s3-media3.fl.yelpcdn.com/bphoto/Yb0NuszdHyTjGQkSN3HnFA/o.jpg", "is_closed": false, "url": "https://www.yelp.com/biz/growlers-doghaus-pinole-3?adjust_creative=IokN4du3-7NwKcCaUms5LA&utm_campaign=yelp_api_v3&utm_medium=api_v3_business_search&utm_source=IokN4du3-7NwKcCaUms5LA", "review_count": 74, "categories": [{"alias": "hotdog", "title": "Hot Dogs"}, {"alias": "icecream", "title": "Ice Cream & Frozen Yogurt"}], "rating": 4.0, "coordinates": {"latitude": 38.00617, "longitude": -122.29046}, "transactions": [], "price": "$", "location": {"address1": "2432 San Pablo Ave", "address2": "", "address3": "", "city": "Pinole", "zip_code": "94564", "country": "US", "state": "CA", "display_address": ["2432 San Pablo Ave", "Pinole, CA 94564"]}, "phone": "+15107244550", "display_phone": "(510) 724-4550", "distance": 1128.8993252126097}, {"id": "P1WNIBtVYeu1Bj_8GgWfnA", "alias": "the-noodle-house-el-sobrante", "name": "The Noodle House", "image_url": "https://s3-media1.fl.yelpcdn.com/bphoto/b7ZaLDzHFXysWc9pScKrDg/o.jpg", "is_closed": false, "url": "https://www.yelp.com/biz/the-noodle-house-el-sobrante?adjust_creative=IokN4du3-7NwKcCaUms5LA&utm_campaign=yelp_api_v3&utm_medium=api_v3_business_search&utm_source=IokN4du3-7NwKcCaUms5LA", "review_count": 314, "categories": [{"alias": "asianfusion", "title": "Asian Fusion"}, {"alias": "noodles", "title": "Noodles"}], "rating": 3.5, "coordinates": {"latitude": 37.978567, "longitude": -122.295045}, "transactions": ["pickup"], "price": "$$", "location": {"address1": "452-A Appian Way", "address2": "", "address3": "", "city": "El Sobrante", "zip_code": "94803", "country": "US", "state": "CA", "display_address": ["452-A Appian Way", "El Sobrante, CA 94803"]}, "phone": "+15107587076", "display_phone": "(510) 758-7076", "distance": 2114.031208346977}, {"id": "fwdWxN7dklKcaGNx_FT56Q", "alias": "tachikawa-japanese-restaurant-pinole", "name": "Tachikawa Japanese Restaurant", "image_url": "https://s3-media1.fl.yelpcdn.com/bphoto/noiWTaK-hLrPNUbVoY6EYQ/o.jpg", "is_closed": false, "url": "https://www.yelp.com/biz/tachikawa-japanese-restaurant-pinole?adjust_creative=IokN4du3-7NwKcCaUms5LA&utm_campaign=yelp_api_v3&utm_medium=api_v3_business_search&utm_source=IokN4du3-7NwKcCaUms5LA", "review_count": 313, "categories": [{"alias": "japanese", "title": "Japanese"}, {"alias": "sushi", "title": "Sushi Bars"}], "rating": 3.5, "coordinates": {"latitude": 38.0037944110034, "longitude": -122.31435}, "transactions": [], "price": "$$", "location": {"address1": "632 San Pablo Ave", "address2": "", "address3": "", "city": "Pinole", "zip_code": "94564", "country": "US", "state": "CA", "display_address": ["632 San Pablo Ave", "Pinole, CA 94564"]}, "phone": "+15109640478", "display_phone": "(510) 964-0478", "distance": 1668.4061102748915}, {"id": "PAls_zg57m-xM9__sa7uWQ", "alias": "the-new-deli-pinole", "name": "The New Deli", "image_url": "https://s3-media1.fl.yelpcdn.com/bphoto/lpsQGpK3Sg6rqHmDSDzskw/o.jpg", "is_closed": false, "url": "https://www.yelp.com/biz/the-new-deli-pinole?adjust_creative=IokN4du3-7NwKcCaUms5LA&utm_campaign=yelp_api_v3&utm_medium=api_v3_business_search&utm_source=IokN4du3-7NwKcCaUms5LA", "review_count": 229, "categories": [{"alias": "delis", "title": "Delis"}, {"alias": "sandwiches", "title": "Sandwiches"}], "rating": 4.5, "coordinates": {"latitude": 38.0037113, "longitude": -122.3143742}, "transactions": [], "price": "$", "location": {"address1": "624 San Pablo Ave", "address2": "Ste A", "address3": "", "city": "Pinole", "zip_code": "94564", "country": "US", "state": "CA", "display_address": ["624 San Pablo Ave", "Ste A", "Pinole, CA 94564"]}, "phone": "+15107245335", "display_phone": "(510) 724-5335", "distance": 1716.9114002987658}, {"id": "NvjmUd7FOo9pPe08ypuIqg", "alias": "uncle-chungs-szechuan-pinole", "name": "Uncle Chung's Szechuan", "image_url": "https://s3-media1.fl.yelpcdn.com/bphoto/iiOriw7MJ_8-Lj4qFfP7UA/o.jpg", "is_closed": false, "url": "https://www.yelp.com/biz/uncle-chungs-szechuan-pinole?adjust_creative=IokN4du3-7NwKcCaUms5LA&utm_campaign=yelp_api_v3&utm_medium=api_v3_business_search&utm_source=IokN4du3-7NwKcCaUms5LA", "review_count": 275, "categories": [{"alias": "chinese", "title": "Chinese"}], "rating": 3.5, "coordinates": {"latitude": 37.9899444580078, "longitude": -122.299751281738}, "transactions": ["pickup"], "price": "$$", "location": {"address1": "2550 Appian Way", "address2": "", "address3": "", "city": "Pinole", "zip_code": "94564", "country": "US", "state": "CA", "display_address": ["2550 Appian Way", "Pinole, CA 94564"]}, "phone": "+15102228881", "display_phone": "(510) 222-8881", "distance": 870.0511970918499}, {"id": "cYH_hS9tQGjjd-M0GLM42A", "alias": "wynns-seafood-and-barbecue-pinole", "name": "Wynn's Seafood and Barbecue", "image_url": "https://s3-media1.fl.yelpcdn.com/bphoto/E2rAXTcCeyiWbYpFP_yE1A/o.jpg", "is_closed": false, "url": "https://www.yelp.com/biz/wynns-seafood-and-barbecue-pinole?adjust_creative=IokN4du3-7NwKcCaUms5LA&utm_campaign=yelp_api_v3&utm_medium=api_v3_business_search&utm_source=IokN4du3-7NwKcCaUms5LA", "review_count": 55, "categories": [{"alias": "bbq", "title": "Barbeque"}, {"alias": "seafood", "title": "Seafood"}], "rating": 3.0, "coordinates": {"latitude": 37.995113, "longitude": -122.303673}, "transactions": ["delivery"], "price": "$$", "location": {"address1": "1569 Tara Hills Dr", "address2": "", "address3": "", "city": "Pinole", "zip_code": "94564", "country": "US", "state": "CA", "display_address": ["1569 Tara Hills Dr", "Pinole, CA 94564"]}, "phone": "+15102835286", "display_phone": "(510) 283-5286", "distance": 638.1098840558611}, {"id": "-yUSIgFH9CTMekEfAPKeVA", "alias": "hunan-villa-pinole", "name": "Hunan Villa", "image_url": "https://s3-media4.fl.yelpcdn.com/bphoto/BcLKAQCgRiKLv4vVtcF1mA/o.jpg", "is_closed": false, "url": "https://www.yelp.com/biz/hunan-villa-pinole?adjust_creative=IokN4du3-7NwKcCaUms5LA&utm_campaign=yelp_api_v3&utm_medium=api_v3_business_search&utm_source=IokN4du3-7NwKcCaUms5LA", "review_count": 277, "categories": [{"alias": "chinese", "title": "Chinese"}], "rating": 3.5, "coordinates": {"latitude": 38.003969299271, "longitude": -122.31443937517}, "transactions": [], "price": "$$", "location": {"address1": "632 San Pablo Ave", "address2": "", "address3": "", "city": "Pinole", "zip_code": "94564", "country": "US", "state": "CA", "display_address": ["632 San Pablo Ave", "Pinole, CA 94564"]}, "phone": "+15107241368", "display_phone": "(510) 724-1368", "distance": 1683.7193529145563}, {"id": "fwBj0rWznE48cBVwbAF6iw", "alias": "china-delights-pinole", "name": "China Delights", "image_url": "https://s3-media1.fl.yelpcdn.com/bphoto/WhGoxv8a-MLg_mLsm2xgfA/o.jpg", "is_closed": false, "url": "https://www.yelp.com/biz/china-delights-pinole?adjust_creative=IokN4du3-7NwKcCaUms5LA&utm_campaign=yelp_api_v3&utm_medium=api_v3_business_search&utm_source=IokN4du3-7NwKcCaUms5LA", "review_count": 169, "categories": [{"alias": "chinese", "title": "Chinese"}], "rating": 3.5, "coordinates": {"latitude": 37.994486703567, "longitude": -122.303188178056}, "transactions": [], "price": "$$", "location": {"address1": "1501 Tara Hills Dr", "address2": "", "address3": "", "city": "Pinole", "zip_code": "94564", "country": "US", "state": "CA", "display_address": ["1501 Tara Hills Dr", "Pinole, CA 94564"]}, "phone": "+15109641882", "display_phone": "(510) 964-1882", "distance": 633.8414346019813}, {"id": "3kCW3PZsnRVmuyvomFPcxQ", "alias": "tinas-place-pinole", "name": "Tina's Place", "image_url": "https://s3-media1.fl.yelpcdn.com/bphoto/eUP3hjgDQ5GBZ0JBRzFkgQ/o.jpg", "is_closed": false, "url": "https://www.yelp.com/biz/tinas-place-pinole?adjust_creative=IokN4du3-7NwKcCaUms5LA&utm_campaign=yelp_api_v3&utm_medium=api_v3_business_search&utm_source=IokN4du3-7NwKcCaUms5LA", "review_count": 994, "categories": [{"alias": "tradamerican", "title": "American (Traditional)"}, {"alias": "breakfast_brunch", "title": "Breakfast & Brunch"}, {"alias": "sandwiches", "title": "Sandwiches"}], "rating": 3.0, "coordinates": {"latitude": 38.0057618729876, "longitude": -122.290983799308}, "transactions": ["delivery", "pickup"], "price": "$$", "location": {"address1": "2300 San Pablo Ave", "address2": "", "address3": "", "city": "Pinole", "zip_code": "94564", "country": "US", "state": "CA", "display_address": ["2300 San Pablo Ave", "Pinole, CA 94564"]}, "phone": "+15109647546", "display_phone": "(510) 964-7546", "distance": 1060.500696791206}, {"id": "ibW3M6qHJtunSbOVAT18ng", "alias": "happy-sashimi-pinole", "name": "Happy Sashimi", "image_url": "https://s3-media3.fl.yelpcdn.com/bphoto/zAI4-lKhcqH4psypkPGaLQ/o.jpg", "is_closed": false, "url": "https://www.yelp.com/biz/happy-sashimi-pinole?adjust_creative=IokN4du3-7NwKcCaUms5LA&utm_campaign=yelp_api_v3&utm_medium=api_v3_business_search&utm_source=IokN4du3-7NwKcCaUms5LA", "review_count": 745, "categories": [{"alias": "japanese", "title": "Japanese"}, {"alias": "sushi", "title": "Sushi Bars"}, {"alias": "desserts", "title": "Desserts"}], "rating": 2.5, "coordinates": {"latitude": 37.9954715, "longitude": -122.285863}, "transactions": [], "price": "$$", "location": {"address1": "2718 Pinole Valley Rd", "address2": null, "address3": "", "city": "Pinole", "zip_code": "94564", "country": "US", "state": "CA", "display_address": ["2718 Pinole Valley Rd", "Pinole, CA 94564"]}, "phone": "+15107588881", "display_phone": "(510) 758-8881", "distance": 943.5827538474688}, {"id": "xMQzdCANQY2RNuy65UymOQ", "alias": "ohana-hawaiian-bbq-pinole", "name": "Ohana Hawaiian BBQ", "image_url": "https://s3-media2.fl.yelpcdn.com/bphoto/Ivf0_qBUlNenZ2ZUKyZC8Q/o.jpg", "is_closed": false, "url": "https://www.yelp.com/biz/ohana-hawaiian-bbq-pinole?adjust_creative=IokN4du3-7NwKcCaUms5LA&utm_campaign=yelp_api_v3&utm_medium=api_v3_business_search&utm_source=IokN4du3-7NwKcCaUms5LA", "review_count": 135, "categories": [{"alias": "hawaiian", "title": "Hawaiian"}], "rating": 3.0, "coordinates": {"latitude": 37.990566, "longitude": -122.30149}, "transactions": [], "price": "$$", "location": {"address1": "1554 Fitzgerald Dr", "address2": "", "address3": "Pinole Vista Shopping Center", "city": "Pinole", "zip_code": "94564", "country": "US", "state": "CA", "display_address": ["1554 Fitzgerald Dr", "Pinole Vista Shopping Center", "Pinole, CA 94564"]}, "phone": "+15102223668", "display_phone": "(510) 222-3668", "distance": 864.5675040712586}, {"id": "2Or1lcLIrHpbNfO31nU9WQ", "alias": "happy-chin-eating-el-sobrante", "name": "Happy Chin Eating", "image_url": "https://s3-media2.fl.yelpcdn.com/bphoto/rw_8Rh5Aqql9HKLy600Uag/o.jpg", "is_closed": false, "url": "https://www.yelp.com/biz/happy-chin-eating-el-sobrante?adjust_creative=IokN4du3-7NwKcCaUms5LA&utm_campaign=yelp_api_v3&utm_medium=api_v3_business_search&utm_source=IokN4du3-7NwKcCaUms5LA", "review_count": 25, "categories": [{"alias": "chinese", "title": "Chinese"}], "rating": 3.5, "coordinates": {"latitude": 37.978959, "longitude": -122.295268}, "transactions": ["delivery", "pickup"], "location": {"address1": "454 Appian Way D", "address2": "", "address3": null, "city": "El Sobrante", "zip_code": "94803", "country": "US", "state": "CA", "display_address": ["454 Appian Way D", "El Sobrante, CA 94803"]}, "phone": "+15102753474", "display_phone": "(510) 275-3474", "distance": 2069.0245483619715}, {"id": "ZwbM89DqSRvTHo8PaEbm1g", "alias": "the-original-red-onion-pinole", "name": "The Original Red Onion", "image_url": "https://s3-media3.fl.yelpcdn.com/bphoto/dn4wLK2gqp9XB9uE4NlRBA/o.jpg", "is_closed": false, "url": "https://www.yelp.com/biz/the-original-red-onion-pinole?adjust_creative=IokN4du3-7NwKcCaUms5LA&utm_campaign=yelp_api_v3&utm_medium=api_v3_business_search&utm_source=IokN4du3-7NwKcCaUms5LA", "review_count": 496, "categories": [{"alias": "burgers", "title": "Burgers"}, {"alias": "hotdogs", "title": "Fast Food"}, {"alias": "breakfast_brunch", "title": "Breakfast & Brunch"}], "rating": 3.5, "coordinates": {"latitude": 37.993172544723, "longitude": -122.28590672456}, "transactions": ["delivery", "pickup"], "price": "$$", "location": {"address1": "2870 Pinole Valley Rd", "address2": null, "address3": "", "city": "Pinole", "zip_code": "94564", "country": "US", "state": "CA", "display_address": ["2870 Pinole Valley Rd", "Pinole, CA 94564"]}, "phone": "+15107589462", "display_phone": "(510) 758-9462", "distance": 1089.8496759875557}, {"id": "rLtf2wSTai9sk60L_7qpTA", "alias": "mod-pizza-pinole", "name": "MOD Pizza", "image_url": "https://s3-media1.fl.yelpcdn.com/bphoto/eAitMzRD2wZvuHFGLAxcYw/o.jpg", "is_closed": false, "url": "https://www.yelp.com/biz/mod-pizza-pinole?adjust_creative=IokN4du3-7NwKcCaUms5LA&utm_campaign=yelp_api_v3&utm_medium=api_v3_business_search&utm_source=IokN4du3-7NwKcCaUms5LA", "review_count": 281, "categories": [{"alias": "pizza", "title": "Pizza"}, {"alias": "hotdogs", "title": "Fast Food"}], "rating": 4.0, "coordinates": {"latitude": 37.99388, "longitude": -122.286}, "transactions": [], "price": "$$", "location": {"address1": "2830 Pinole Valley Rd", "address2": "Ste A", "address3": "", "city": "Pinole", "zip_code": "94564", "country": "US", "state": "CA", "display_address": ["2830 Pinole Valley Rd", "Ste A", "Pinole, CA 94564"]}, "phone": "+15106623172", "display_phone": "(510) 662-3172", "distance": 1055.8227516154054}, {"id": "MmMNIbUBR_RGXMQRajf8Qg", "alias": "rickshaw-chinese-restaurant-pinole", "name": "Rickshaw Chinese Restaurant", "image_url": "https://s3-media3.fl.yelpcdn.com/bphoto/d46dbBHzQPzz2suKBAHVgQ/o.jpg", "is_closed": false, "url": "https://www.yelp.com/biz/rickshaw-chinese-restaurant-pinole?adjust_creative=IokN4du3-7NwKcCaUms5LA&utm_campaign=yelp_api_v3&utm_medium=api_v3_business_search&utm_source=IokN4du3-7NwKcCaUms5LA", "review_count": 106, "categories": [{"alias": "chinese", "title": "Chinese"}], "rating": 4.0, "coordinates": {"latitude": 37.9914347, "longitude": -122.3020599}, "transactions": [], "price": "$", "location": {"address1": "1560 Fitzgerald Dr", "address2": "", "address3": "", "city": "Pinole", "zip_code": "94564", "country": "US", "state": "CA", "display_address": ["1560 Fitzgerald Dr", "Pinole, CA 94564"]}, "phone": "+15102226677", "display_phone": "(510) 222-6677", "distance": 897.1000159831929}, {"id": "aElHn62tww87VG0hIt5kFQ", "alias": "the-habit-burger-grill-pinole", "name": "The Habit Burger Grill", "image_url": "https://s3-media3.fl.yelpcdn.com/bphoto/NgidaNsSE5DV9oK_nBae2g/o.jpg", "is_closed": false, "url": "https://www.yelp.com/biz/the-habit-burger-grill-pinole?adjust_creative=IokN4du3-7NwKcCaUms5LA&utm_campaign=yelp_api_v3&utm_medium=api_v3_business_search&utm_source=IokN4du3-7NwKcCaUms5LA", "review_count": 165, "categories": [{"alias": "burgers", "title": "Burgers"}, {"alias": "salad", "title": "Salad"}, {"alias": "sandwiches", "title": "Sandwiches"}], "rating": 3.0, "coordinates": {"latitude": 37.9977540098152, "longitude": -122.287014687836}, "transactions": [], "price": "$", "location": {"address1": "1412 Pinole Valley Rd", "address2": "", "address3": null, "city": "Pinole", "zip_code": "94564", "country": "US", "state": "CA", "display_address": ["1412 Pinole Valley Rd", "Pinole, CA 94564"]}, "phone": "+15102435188", "display_phone": "(510) 243-5188", "distance": 880.4689317919357}, {"id": "A3ros5JqL5eceey7EeohYw", "alias": "wingstop-pinole", "name": "Wingstop", "image_url": "https://s3-media3.fl.yelpcdn.com/bphoto/2umd-1aI_zjDDsbghnCj_g/o.jpg", "is_closed": false, "url": "https://www.yelp.com/biz/wingstop-pinole?adjust_creative=IokN4du3-7NwKcCaUms5LA&utm_campaign=yelp_api_v3&utm_medium=api_v3_business_search&utm_source=IokN4du3-7NwKcCaUms5LA", "review_count": 303, "categories": [{"alias": "chicken_wings", "title": "Chicken Wings"}], "rating": 2.0, "coordinates": {"latitude": 37.99166, "longitude": -122.30108}, "transactions": ["delivery"], "price": "$$", "location": {"address1": "1581 Fitzgerald Dr", "address2": "", "address3": "", "city": "Pinole", "zip_code": "94564", "country": "US", "state": "CA", "display_address": ["1581 Fitzgerald Dr", "Pinole, CA 94564"]}, "phone": "+15107589464", "display_phone": "(510) 758-9464", "distance": 738.2135328749368}, {"id": "LdrCcFUm2avMxZoGv_qPmw", "alias": "krispy-krunchy-chicken-pinole", "name": "Krispy Krunchy Chicken", "image_url": "https://s3-media3.fl.yelpcdn.com/bphoto/jCRyPTdm6YB9k0HcA5Na4Q/o.jpg", "is_closed": false, "url": "https://www.yelp.com/biz/krispy-krunchy-chicken-pinole?adjust_creative=IokN4du3-7NwKcCaUms5LA&utm_campaign=yelp_api_v3&utm_medium=api_v3_business_search&utm_source=IokN4du3-7NwKcCaUms5LA", "review_count": 23, "categories": [{"alias": "cajun", "title": "Cajun/Creole"}, {"alias": "chicken_wings", "title": "Chicken Wings"}], "rating": 3.0, "coordinates": {"latitude": 38.00416, "longitude": -122.30447}, "transactions": ["pickup"], "price": "$", "location": {"address1": "1007 San Pablo Ave", "address2": "", "address3": null, "city": "Pinole", "zip_code": "94564", "country": "US", "state": "CA", "display_address": ["1007 San Pablo Ave", "Pinole, CA 94564"]}, "phone": "", "display_phone": "", "distance": 981.3625194360053}, {"id": "Q_b-6oHnhB_lKK0Z2A-oXg", "alias": "good-butter-bakery-pinole", "name": "Good Butter Bakery", "image_url": "https://s3-media2.fl.yelpcdn.com/bphoto/4lMlOiOauRkMQ2YWsB9aig/o.jpg", "is_closed": false, "url": "https://www.yelp.com/biz/good-butter-bakery-pinole?adjust_creative=IokN4du3-7NwKcCaUms5LA&utm_campaign=yelp_api_v3&utm_medium=api_v3_business_search&utm_source=IokN4du3-7NwKcCaUms5LA", "review_count": 145, "categories": [{"alias": "bakeries", "title": "Bakeries"}, {"alias": "sandwiches", "title": "Sandwiches"}], "rating": 4.0, "coordinates": {"latitude": 38.0058497, "longitude": -122.2903927}, "transactions": ["delivery"], "price": "$", "location": {"address1": "2352 San Pablo Ave", "address2": "Ste A", "address3": "", "city": "Pinole", "zip_code": "94564", "country": "US", "state": "CA", "display_address": ["2352 San Pablo Ave", "Ste A", "Pinole, CA 94564"]}, "phone": "+15107246826", "display_phone": "(510) 724-6826", "distance": 1095.667282525608}, {"id": "vJ6lvh_w7nntM84MKkYcPg", "alias": "china-house-restaurant-pinole", "name": "China House Restaurant", "image_url": "https://s3-media4.fl.yelpcdn.com/bphoto/Hwx6oUQsz7lHgC1vHg_9Pw/o.jpg", "is_closed": false, "url": "https://www.yelp.com/biz/china-house-restaurant-pinole?adjust_creative=IokN4du3-7NwKcCaUms5LA&utm_campaign=yelp_api_v3&utm_medium=api_v3_business_search&utm_source=IokN4du3-7NwKcCaUms5LA", "review_count": 229, "categories": [{"alias": "chinese", "title": "Chinese"}], "rating": 3.0, "coordinates": {"latitude": 38.004042, "longitude": -122.293864}, "transactions": [], "price": "$$", "location": {"address1": "1971 San Pablo Ave", "address2": "", "address3": "", "city": "Pinole", "zip_code": "94564", "country": "US", "state": "CA", "display_address": ["1971 San Pablo Ave", "Pinole, CA 94564"]}, "phone": "+15107418788", "display_phone": "(510) 741-8788", "distance": 778.1064704829463}, {"id": "AXdBk9KKxqdD2HePkxejLg", "alias": "the-original-mels-pinole-2", "name": "The Original Mels", "image_url": "https://s3-media2.fl.yelpcdn.com/bphoto/u30eb-VMhnE_ev14nhinUQ/o.jpg", "is_closed": false, "url": "https://www.yelp.com/biz/the-original-mels-pinole-2?adjust_creative=IokN4du3-7NwKcCaUms5LA&utm_campaign=yelp_api_v3&utm_medium=api_v3_business_search&utm_source=IokN4du3-7NwKcCaUms5LA", "review_count": 495, "categories": [{"alias": "diners", "title": "Diners"}, {"alias": "breakfast_brunch", "title": "Breakfast & Brunch"}, {"alias": "tradamerican", "title": "American (Traditional)"}], "rating": 3.5, "coordinates": {"latitude": 37.99123, "longitude": -122.30783}, "transactions": [], "price": "$$", "location": {"address1": "1441 Fitzgerald Dr", "address2": "", "address3": "", "city": "Pinole", "zip_code": "94564", "country": "US", "state": "CA", "display_address": ["1441 Fitzgerald Dr", "Pinole, CA 94564"]}, "phone": "+15102236357", "display_phone": "(510) 223-6357", "distance": 1192.0150740728}, {"id": "uJkW5ioxAsXIk2S5cRoHWA", "alias": "outback-steakhouse-pinole", "name": "Outback Steakhouse", "image_url": "https://s3-media2.fl.yelpcdn.com/bphoto/suyogeAQm1HsHWdSdJtL-Q/o.jpg", "is_closed": false, "url": "https://www.yelp.com/biz/outback-steakhouse-pinole?adjust_creative=IokN4du3-7NwKcCaUms5LA&utm_campaign=yelp_api_v3&utm_medium=api_v3_business_search&utm_source=IokN4du3-7NwKcCaUms5LA", "review_count": 434, "categories": [{"alias": "steak", "title": "Steakhouses"}], "rating": 2.5, "coordinates": {"latitude": 37.987479999663, "longitude": -122.31266299997}, "transactions": [], "price": "$$", "location": {"address1": "1361 Fitzgerald Dr", "address2": "", "address3": "", "city": "Pinole", "zip_code": "94564", "country": "US", "state": "CA", "display_address": ["1361 Fitzgerald Dr", "Pinole, CA 94564"]}, "phone": "+15107587386", "display_phone": "(510) 758-7386", "distance": 1764.80107401051}, {"id": "2BEd82hnrBmBm_rG6ODRqA", "alias": "taqueria-morena-pinole", "name": "Taqueria Morena", "image_url": "https://s3-media1.fl.yelpcdn.com/bphoto/mZLWlQMnbC2b0ClJTdNswA/o.jpg", "is_closed": false, "url": "https://www.yelp.com/biz/taqueria-morena-pinole?adjust_creative=IokN4du3-7NwKcCaUms5LA&utm_campaign=yelp_api_v3&utm_medium=api_v3_business_search&utm_source=IokN4du3-7NwKcCaUms5LA", "review_count": 199, "categories": [{"alias": "mexican", "title": "Mexican"}], "rating": 3.5, "coordinates": {"latitude": 37.9896877218777, "longitude": -122.2994416}, "transactions": [], "price": "$", "location": {"address1": "2576 Appian Way", "address2": "", "address3": "", "city": "Pinole", "zip_code": "94564", "country": "US", "state": "CA", "display_address": ["2576 Appian Way", "Pinole, CA 94564"]}, "phone": "+15102223887", "display_phone": "(510) 222-3887", "distance": 894.8085996786717}, {"id": "emCcIzjgqE4T-_4c5oMYNg", "alias": "sizzler-pinole", "name": "Sizzler", "image_url": "https://s3-media4.fl.yelpcdn.com/bphoto/KNX4vz5p6nv5DeRe6dAC_g/o.jpg", "is_closed": false, "url": "https://www.yelp.com/biz/sizzler-pinole?adjust_creative=IokN4du3-7NwKcCaUms5LA&utm_campaign=yelp_api_v3&utm_medium=api_v3_business_search&utm_source=IokN4du3-7NwKcCaUms5LA", "review_count": 196, "categories": [{"alias": "seafood", "title": "Seafood"}, {"alias": "steak", "title": "Steakhouses"}, {"alias": "salad", "title": "Salad"}], "rating": 3.0, "coordinates": {"latitude": 37.99208, "longitude": -122.30416}, "transactions": [], "price": "$$", "location": {"address1": "1515 Fitzgerald Dr", "address2": "", "address3": "", "city": "Pinole", "zip_code": "94564", "country": "US", "state": "CA", "display_address": ["1515 Fitzgerald Dr", "Pinole, CA 94564"]}, "phone": "+15102223468", "display_phone": "(510) 222-3468", "distance": 877.2530421336822}, {"id": "i0FgZgY3Xww9Vsf8kMq1Mg", "alias": "in-n-out-burger-pinole", "name": "In-N-Out Burger", "image_url": "https://s3-media2.fl.yelpcdn.com/bphoto/YVVqtDlD_I9avoVAA3fJUQ/o.jpg", "is_closed": false, "url": "https://www.yelp.com/biz/in-n-out-burger-pinole?adjust_creative=IokN4du3-7NwKcCaUms5LA&utm_campaign=yelp_api_v3&utm_medium=api_v3_business_search&utm_source=IokN4du3-7NwKcCaUms5LA", "review_count": 526, "categories": [{"alias": "burgers", "title": "Burgers"}, {"alias": "hotdogs", "title": "Fast Food"}], "rating": 4.0, "coordinates": {"latitude": 37.9890568, "longitude": -122.3107423}, "transactions": [], "price": "$", "location": {"address1": "1417 Fitzgerald Dr", "address2": null, "address3": "", "city": "Pinole", "zip_code": "94564", "country": "US", "state": "CA", "display_address": ["1417 Fitzgerald Dr", "Pinole, CA 94564"]}, "phone": "+18007861000", "display_phone": "(800) 786-1000", "distance": 1523.8230112805954}, {"id": "1Vmv5bcGvABqLssBkManuA", "alias": "the-embers-pinole", "name": "The Embers", "image_url": "https://s3-media2.fl.yelpcdn.com/bphoto/BABOzGy1ZXjwy5W6H2UXiQ/o.jpg", "is_closed": false, "url": "https://www.yelp.com/biz/the-embers-pinole?adjust_creative=IokN4du3-7NwKcCaUms5LA&utm_campaign=yelp_api_v3&utm_medium=api_v3_business_search&utm_source=IokN4du3-7NwKcCaUms5LA", "review_count": 193, "categories": [{"alias": "tradamerican", "title": "American (Traditional)"}], "rating": 3.0, "coordinates": {"latitude": 38.0031592786208, "longitude": -122.315856804123}, "transactions": [], "price": "$$", "location": {"address1": "600 San Pablo Ave", "address2": "", "address3": "", "city": "Pinole", "zip_code": "94564", "country": "US", "state": "CA", "display_address": ["600 San Pablo Ave", "Pinole, CA 94564"]}, "phone": "+15107244949", "display_phone": "(510) 724-4949", "distance": 1762.7955847050634}, {"id": "DM1IIvqYJO6IIDTTV1opqg", "alias": "bear-claw-bakery-and-cafe-pinole", "name": "Bear Claw Bakery and Cafe", "image_url": "https://s3-media3.fl.yelpcdn.com/bphoto/pMRO7OCxgcDvKy7l_btepQ/o.jpg", "is_closed": false, "url": "https://www.yelp.com/biz/bear-claw-bakery-and-cafe-pinole?adjust_creative=IokN4du3-7NwKcCaUms5LA&utm_campaign=yelp_api_v3&utm_medium=api_v3_business_search&utm_source=IokN4du3-7NwKcCaUms5LA", "review_count": 226, "categories": [{"alias": "bakeries", "title": "Bakeries"}, {"alias": "sandwiches", "title": "Sandwiches"}, {"alias": "pizza", "title": "Pizza"}], "rating": 4.5, "coordinates": {"latitude": 38.00591, "longitude": -122.29069}, "transactions": [], "price": "$", "location": {"address1": "2340 San Pablo Ave", "address2": "", "address3": "", "city": "Pinole", "zip_code": "94564", "country": "US", "state": "CA", "display_address": ["2340 San Pablo Ave", "Pinole, CA 94564"]}, "phone": "+15107243105", "display_phone": "(510) 724-3105", "distance": 1087.2733603920803}, {"id": "6DEoVAfy7Wf6wqeg0U5oPA", "alias": "taqueria-aquililla-pinole", "name": "Taqueria Aquililla", "image_url": "https://s3-media3.fl.yelpcdn.com/bphoto/kkEa8lW3R8YMONak7Wk2lQ/o.jpg", "is_closed": false, "url": "https://www.yelp.com/biz/taqueria-aquililla-pinole?adjust_creative=IokN4du3-7NwKcCaUms5LA&utm_campaign=yelp_api_v3&utm_medium=api_v3_business_search&utm_source=IokN4du3-7NwKcCaUms5LA", "review_count": 110, "categories": [{"alias": "mexican", "title": "Mexican"}], "rating": 3.5, "coordinates": {"latitude": 37.9913806416178, "longitude": -122.300736032145}, "transactions": [], "price": "$", "location": {"address1": "1584 Fitzgerald Dr", "address2": "", "address3": null, "city": "Pinole", "zip_code": "94564", "country": "US", "state": "CA", "display_address": ["1584 Fitzgerald Dr", "Pinole, CA 94564"]}, "phone": "+15106699377", "display_phone": "(510) 669-9377", "distance": 756.7916448493108}, {"id": "2yMX7ftbXfg9cBe_DX9bBg", "alias": "applebees-grill-bar-pinole", "name": "Applebee's Grill + Bar", "image_url": "https://s3-media1.fl.yelpcdn.com/bphoto/lToUHkWNKOr3ZFc9cCrh2w/o.jpg", "is_closed": false, "url": "https://www.yelp.com/biz/applebees-grill-bar-pinole?adjust_creative=IokN4du3-7NwKcCaUms5LA&utm_campaign=yelp_api_v3&utm_medium=api_v3_business_search&utm_source=IokN4du3-7NwKcCaUms5LA", "review_count": 502, "categories": [{"alias": "tradamerican", "title": "American (Traditional)"}, {"alias": "sportsbars", "title": "Sports Bars"}, {"alias": "burgers", "title": "Burgers"}], "rating": 2.0, "coordinates": {"latitude": 37.988144, "longitude": -122.312117}, "transactions": ["delivery", "pickup"], "price": "$$", "location": {"address1": "1369 Fitzgerald Dr", "address2": "", "address3": "", "city": "Pinole", "zip_code": "94564", "country": "US", "state": "CA", "display_address": ["1369 Fitzgerald Dr", "Pinole, CA 94564"]}, "phone": "+15102430400", "display_phone": "(510) 243-0400", "distance": 1681.265719886864}, {"id": "VYSK1Y_E9is-zhk08encfQ", "alias": "fosters-freeze-pinole-2", "name": "Fosters Freeze", "image_url": "https://s3-media3.fl.yelpcdn.com/bphoto/-PrKQRhTL1NZMNlGEs5hjQ/o.jpg", "is_closed": false, "url": "https://www.yelp.com/biz/fosters-freeze-pinole-2?adjust_creative=IokN4du3-7NwKcCaUms5LA&utm_campaign=yelp_api_v3&utm_medium=api_v3_business_search&utm_source=IokN4du3-7NwKcCaUms5LA", "review_count": 82, "categories": [{"alias": "burgers", "title": "Burgers"}, {"alias": "icecream", "title": "Ice Cream & Frozen Yogurt"}, {"alias": "tradamerican", "title": "American (Traditional)"}], "rating": 3.5, "coordinates": {"latitude": 38.00424, "longitude": -122.30486}, "transactions": [], "price": "$", "location": {"address1": "993 San Pable Ave", "address2": null, "address3": "", "city": "Pinole", "zip_code": "95464", "country": "US", "state": "CA", "display_address": ["993 San Pable Ave", "Pinole, CA 95464"]}, "phone": "+15107248782", "display_phone": "(510) 724-8782", "distance": 1007.7626040233915}, {"id": "Oo2X55kWeFWAac3L6-4nQg", "alias": "alley-cafe-pinole", "name": "Alley Cafe", "image_url": "https://s3-media2.fl.yelpcdn.com/bphoto/p5RmMxDKnP_6E10XBRQLwg/o.jpg", "is_closed": false, "url": "https://www.yelp.com/biz/alley-cafe-pinole?adjust_creative=IokN4du3-7NwKcCaUms5LA&utm_campaign=yelp_api_v3&utm_medium=api_v3_business_search&utm_source=IokN4du3-7NwKcCaUms5LA", "review_count": 306, "categories": [{"alias": "breakfast_brunch", "title": "Breakfast & Brunch"}], "rating": 3.0, "coordinates": {"latitude": 38.0046386271715, "longitude": -122.290848791599}, "transactions": [], "price": "$$", "location": {"address1": "2265 Pear St", "address2": "", "address3": "", "city": "Pinole", "zip_code": "94564", "country": "US", "state": "CA", "display_address": ["2265 Pear St", "Pinole, CA 94564"]}, "phone": "+15107245312", "display_phone": "(510) 724-5312", "distance": 977.7387812953609}, {"id": "rWwBmG15nqLZmGOOW429cg", "alias": "mountain-mikes-pizza-pinole", "name": "Mountain Mike's Pizza", "image_url": "https://s3-media1.fl.yelpcdn.com/bphoto/cR30pyEIM1P8yGJMB4nYcA/o.jpg", "is_closed": false, "url": "https://www.yelp.com/biz/mountain-mikes-pizza-pinole?adjust_creative=IokN4du3-7NwKcCaUms5LA&utm_campaign=yelp_api_v3&utm_medium=api_v3_business_search&utm_source=IokN4du3-7NwKcCaUms5LA", "review_count": 92, "categories": [{"alias": "pizza", "title": "Pizza"}], "rating": 3.0, "coordinates": {"latitude": 37.9903329, "longitude": -122.3031375}, "transactions": ["delivery", "pickup"], "price": "$$", "location": {"address1": "1516 Fitzgerald Drive", "address2": "", "address3": "", "city": "Pinole", "zip_code": "94564", "country": "US", "state": "CA", "display_address": ["1516 Fitzgerald Drive", "Pinole, CA 94564"]}, "phone": "+15102231900", "display_phone": "(510) 223-1900", "distance": 959.7767439057077}, {"id": "02nX7Xm35ZgPMASFF7ZzNg", "alias": "the-cheese-steak-shop-pinole", "name": "The Cheese Steak Shop", "image_url": "https://s3-media2.fl.yelpcdn.com/bphoto/NA9M_S1LfpyXqyQnUJo2OQ/o.jpg", "is_closed": false, "url": "https://www.yelp.com/biz/the-cheese-steak-shop-pinole?adjust_creative=IokN4du3-7NwKcCaUms5LA&utm_campaign=yelp_api_v3&utm_medium=api_v3_business_search&utm_source=IokN4du3-7NwKcCaUms5LA", "review_count": 193, "categories": [{"alias": "sandwiches", "title": "Sandwiches"}, {"alias": "cheesesteaks", "title": "Cheesesteaks"}], "rating": 3.0, "coordinates": {"latitude": 37.9876517, "longitude": -122.3113464}, "transactions": ["delivery", "pickup"], "price": "$$", "location": {"address1": "1394 Fitzgerald Dr", "address2": "", "address3": "", "city": "Pinole", "zip_code": "94564", "country": "US", "state": "CA", "display_address": ["1394 Fitzgerald Dr", "Pinole, CA 94564"]}, "phone": "+15102237232", "display_phone": "(510) 223-7232", "distance": 1598.390921325759}, {"id": "Vy-MrX7nyIgwqb5hIzDZYw", "alias": "five-guys-pinole-2", "name": "Five Guys", "image_url": "https://s3-media3.fl.yelpcdn.com/bphoto/fFYTXNM2PAeHOg3RcS3CtQ/o.jpg", "is_closed": false, "url": "https://www.yelp.com/biz/five-guys-pinole-2?adjust_creative=IokN4du3-7NwKcCaUms5LA&utm_campaign=yelp_api_v3&utm_medium=api_v3_business_search&utm_source=IokN4du3-7NwKcCaUms5LA", "review_count": 211, "categories": [{"alias": "burgers", "title": "Burgers"}, {"alias": "hotdogs", "title": "Fast Food"}], "rating": 3.0, "coordinates": {"latitude": 37.9946046, "longitude": -122.2859155}, "transactions": ["pickup"], "price": "$", "location": {"address1": "2780 Pinole Valley Rd", "address2": "", "address3": "", "city": "Pinole", "zip_code": "94564", "country": "US", "state": "CA", "display_address": ["2780 Pinole Valley Rd", "Pinole, CA 94564"]}, "phone": "+15102236031", "display_phone": "(510) 223-6031", "distance": 989.2225309150868}, {"id": "z1ccErTgZw5pOkyc-IKubw", "alias": "panda-express-pinole", "name": "Panda Express", "image_url": "https://s3-media3.fl.yelpcdn.com/bphoto/Sc2rEdBbQivI1R324bPB2A/o.jpg", "is_closed": false, "url": "https://www.yelp.com/biz/panda-express-pinole?adjust_creative=IokN4du3-7NwKcCaUms5LA&utm_campaign=yelp_api_v3&utm_medium=api_v3_business_search&utm_source=IokN4du3-7NwKcCaUms5LA", "review_count": 83, "categories": [{"alias": "chinese", "title": "Chinese"}, {"alias": "hotdogs", "title": "Fast Food"}], "rating": 3.5, "coordinates": {"latitude": 37.99123422875, "longitude": -122.3065998468}, "transactions": [], "price": "$", "location": {"address1": "1473 Fitzgerald Dr", "address2": "", "address3": "", "city": "Pinole", "zip_code": "94564", "country": "US", "state": "CA", "display_address": ["1473 Fitzgerald Dr", "Pinole, CA 94564"]}, "phone": "+15102225618", "display_phone": "(510) 222-5618", "distance": 1089.2688542530163}, {"id": "ZZn6oI_CPoYQCSuxfOk6tw", "alias": "chipotle-mexican-grill-pinole", "name": "Chipotle Mexican Grill", "image_url": "https://s3-media1.fl.yelpcdn.com/bphoto/NhzT-Tl1prBGpJvtHu62gw/o.jpg", "is_closed": false, "url": "https://www.yelp.com/biz/chipotle-mexican-grill-pinole?adjust_creative=IokN4du3-7NwKcCaUms5LA&utm_campaign=yelp_api_v3&utm_medium=api_v3_business_search&utm_source=IokN4du3-7NwKcCaUms5LA", "review_count": 276, "categories": [{"alias": "mexican", "title": "Mexican"}, {"alias": "hotdogs", "title": "Fast Food"}], "rating": 2.5, "coordinates": {"latitude": 37.9958448806938, "longitude": -122.28617}, "transactions": [], "price": "$", "location": {"address1": "2696 Pinole Valley Rd", "address2": "", "address3": "", "city": "Pinole", "zip_code": "94564", "country": "US", "state": "CA", "display_address": ["2696 Pinole Valley Rd", "Pinole, CA 94564"]}, "phone": "+15102830070", "display_phone": "(510) 283-0070", "distance": 971.9439425750761}, {"id": "k5FtCyanerNe761x9FzjbA", "alias": "b-and-d-sandwiches-pinole", "name": "B and D Sandwiches", "image_url": "https://s3-media1.fl.yelpcdn.com/bphoto/CpIWlOIdN1XOu-cjJFbHug/o.jpg", "is_closed": false, "url": "https://www.yelp.com/biz/b-and-d-sandwiches-pinole?adjust_creative=IokN4du3-7NwKcCaUms5LA&utm_campaign=yelp_api_v3&utm_medium=api_v3_business_search&utm_source=IokN4du3-7NwKcCaUms5LA", "review_count": 6, "categories": [{"alias": "vietnamese", "title": "Vietnamese"}], "rating": 3.0, "coordinates": {"latitude": 38.0041219, "longitude": -122.3020558}, "transactions": [], "price": "$", "location": {"address1": "1231 San Pablo Ave", "address2": "", "address3": "", "city": "Pinole", "zip_code": "94564", "country": "US", "state": "CA", "display_address": ["1231 San Pablo Ave", "Pinole, CA 94564"]}, "phone": "", "display_phone": "", "distance": 846.9054880715622}, {"id": "MM2QPYOSkLiNEda4ca9oxQ", "alias": "panera-bread-pinole", "name": "Panera Bread", "image_url": "https://s3-media2.fl.yelpcdn.com/bphoto/arx81Opc3uvDbjizP-Akyg/o.jpg", "is_closed": false, "url": "https://www.yelp.com/biz/panera-bread-pinole?adjust_creative=IokN4du3-7NwKcCaUms5LA&utm_campaign=yelp_api_v3&utm_medium=api_v3_business_search&utm_source=IokN4du3-7NwKcCaUms5LA", "review_count": 291, "categories": [{"alias": "sandwiches", "title": "Sandwiches"}, {"alias": "salad", "title": "Salad"}, {"alias": "soup", "title": "Soup"}], "rating": 2.5, "coordinates": {"latitude": 37.987588, "longitude": -122.311169}, "transactions": [], "price": "$$", "location": {"address1": "1376 Fitzgerald Dr", "address2": "", "address3": "", "city": "Pinole", "zip_code": "94564", "country": "US", "state": "CA", "display_address": ["1376 Fitzgerald Dr", "Pinole, CA 94564"]}, "phone": "+15107580015", "display_phone": "(510) 758-0015", "distance": 1657.3909602383428}, {"id": "RDXaHxZRF4p6UhWWi5wu6w", "alias": "round-table-pizza-pinole", "name": "Round Table Pizza", "image_url": "https://s3-media2.fl.yelpcdn.com/bphoto/FO8BvOSgWdhbUdRc0I2ugg/o.jpg", "is_closed": false, "url": "https://www.yelp.com/biz/round-table-pizza-pinole?adjust_creative=IokN4du3-7NwKcCaUms5LA&utm_campaign=yelp_api_v3&utm_medium=api_v3_business_search&utm_source=IokN4du3-7NwKcCaUms5LA", "review_count": 114, "categories": [{"alias": "pizza", "title": "Pizza"}], "rating": 2.5, "coordinates": {"latitude": 37.98889, "longitude": -122.31131}, "transactions": ["delivery", "pickup"], "price": "$$", "location": {"address1": "1409 Fitzgerald Dr", "address2": "", "address3": "", "city": "Pinole", "zip_code": "94564", "country": "US", "state": "CA", "display_address": ["1409 Fitzgerald Dr", "Pinole, CA 94564"]}, "phone": "+15102225555", "display_phone": "(510) 222-5555", "distance": 1571.0690536822005}, {"id": "efbrhhI6cjPBJFw7s3Kddw", "alias": "papa-murphys-pinole", "name": "Papa Murphy's", "image_url": "https://s3-media2.fl.yelpcdn.com/bphoto/dbtfbWmz3bZMU7m2TQ43eg/o.jpg", "is_closed": false, "url": "https://www.yelp.com/biz/papa-murphys-pinole?adjust_creative=IokN4du3-7NwKcCaUms5LA&utm_campaign=yelp_api_v3&utm_medium=api_v3_business_search&utm_source=IokN4du3-7NwKcCaUms5LA", "review_count": 45, "categories": [{"alias": "pizza", "title": "Pizza"}], "rating": 4.0, "coordinates": {"latitude": 37.990120283812, "longitude": -122.303738238221}, "transactions": [], "price": "$", "location": {"address1": "1502A Fitzgerald Drive", "address2": "", "address3": "", "city": "Pinole", "zip_code": "94564", "country": "US", "state": "CA", "display_address": ["1502A Fitzgerald Drive", "Pinole, CA 94564"]}, "phone": "+15102233000", "display_phone": "(510) 223-3000", "distance": 1009.1287645232705}, {"id": "SUBOQntYhMK-2KkEQ3p6NA", "alias": "chuck-e-cheese-pinole-3", "name": "Chuck E. Cheese", "image_url": "https://s3-media4.fl.yelpcdn.com/bphoto/gE07tx3lKl6apn029AWnDA/o.jpg", "is_closed": false, "url": "https://www.yelp.com/biz/chuck-e-cheese-pinole-3?adjust_creative=IokN4du3-7NwKcCaUms5LA&utm_campaign=yelp_api_v3&utm_medium=api_v3_business_search&utm_source=IokN4du3-7NwKcCaUms5LA", "review_count": 139, "categories": [{"alias": "arcades", "title": "Arcades"}, {"alias": "pizza", "title": "Pizza"}, {"alias": "kids_activities", "title": "Kids Activities"}], "rating": 2.5, "coordinates": {"latitude": 37.9903199, "longitude": -122.30811}, "transactions": [], "price": "$$", "location": {"address1": "1470 Fitzgerald Dr", "address2": "", "address3": "", "city": "Pinole", "zip_code": "94564", "country": "US", "state": "CA", "display_address": ["1470 Fitzgerald Dr", "Pinole, CA 94564"]}, "phone": "+15102431111", "display_phone": "(510) 243-1111", "distance": 1250.4399137346177}, {"id": "9ASLuwlUyVoydpobjryUZg", "alias": "pizza-hut-pinole", "name": "Pizza Hut", "image_url": "https://s3-media1.fl.yelpcdn.com/bphoto/QbAaOULr8Aek3eH2skwAMg/o.jpg", "is_closed": false, "url": "https://www.yelp.com/biz/pizza-hut-pinole?adjust_creative=IokN4du3-7NwKcCaUms5LA&utm_campaign=yelp_api_v3&utm_medium=api_v3_business_search&utm_source=IokN4du3-7NwKcCaUms5LA", "review_count": 59, "categories": [{"alias": "pizza", "title": "Pizza"}, {"alias": "italian", "title": "Italian"}, {"alias": "chicken_wings", "title": "Chicken Wings"}], "rating": 2.0, "coordinates": {"latitude": 37.99549, "longitude": -122.30514}, "transactions": [], "price": "$", "location": {"address1": "1211 Tara Hills Rd", "address2": "", "address3": "", "city": "Pinole", "zip_code": "94564", "country": "US", "state": "CA", "display_address": ["1211 Tara Hills Rd", "Pinole, CA 94564"]}, "phone": "+15107418899", "display_phone": "(510) 741-8899", "distance": 751.4789862904059}, {"id": "msAQUtNQU_AUt4jplAB-tw", "alias": "taco-bell-pinole", "name": "Taco Bell", "image_url": "https://s3-media1.fl.yelpcdn.com/bphoto/d0ATstUMOfJ9044MqLV8zw/o.jpg", "is_closed": false, "url": "https://www.yelp.com/biz/taco-bell-pinole?adjust_creative=IokN4du3-7NwKcCaUms5LA&utm_campaign=yelp_api_v3&utm_medium=api_v3_business_search&utm_source=IokN4du3-7NwKcCaUms5LA", "review_count": 109, "categories": [{"alias": "hotdogs", "title": "Fast Food"}, {"alias": "tacos", "title": "Tacos"}], "rating": 2.0, "coordinates": {"latitude": 37.991959, "longitude": -122.302918}, "transactions": ["delivery"], "price": "$", "location": {"address1": "1561 Fitzgerald Dr", "address2": "", "address3": "", "city": "Pinole", "zip_code": "94564", "country": "US", "state": "CA", "display_address": ["1561 Fitzgerald Dr", "Pinole, CA 94564"]}, "phone": "+15102229598", "display_phone": "(510) 222-9598", "distance": 797.6852883845792}, {"id": "tW_SFtxfiBCOC4pOGRTsJQ", "alias": "kfc-pinole-2", "name": "KFC", "image_url": "https://s3-media3.fl.yelpcdn.com/bphoto/I9GB7ElE0TBNbGftNuUR6g/o.jpg", "is_closed": false, "url": "https://www.yelp.com/biz/kfc-pinole-2?adjust_creative=IokN4du3-7NwKcCaUms5LA&utm_campaign=yelp_api_v3&utm_medium=api_v3_business_search&utm_source=IokN4du3-7NwKcCaUms5LA", "review_count": 88, "categories": [{"alias": "hotdogs", "title": "Fast Food"}, {"alias": "chicken_wings", "title": "Chicken Wings"}, {"alias": "chickenshop", "title": "Chicken Shop"}], "rating": 2.0, "coordinates": {"latitude": 37.9913152871536, "longitude": -122.302168250909}, "transactions": ["delivery", "pickup"], "price": "$", "location": {"address1": "1544 Fitzgerald Dr", "address2": "", "address3": "", "city": "Pinole", "zip_code": "94564", "country": "US", "state": "CA", "display_address": ["1544 Fitzgerald Dr", "Pinole, CA 94564"]}, "phone": "+15102226742", "display_phone": "(510) 222-6742", "distance": 821.8280276524279}, {"id": "42wGxdWdirgrqIsnth1qlg", "alias": "flavors-of-ethiopia-richmond", "name": "Flavors of Ethiopia", "image_url": "https://s3-media3.fl.yelpcdn.com/bphoto/MIJAGjk5PkCZDF41ItxaWA/o.jpg", "is_closed": false, "url": "https://www.yelp.com/biz/flavors-of-ethiopia-richmond?adjust_creative=IokN4du3-7NwKcCaUms5LA&utm_campaign=yelp_api_v3&utm_medium=api_v3_business_search&utm_source=IokN4du3-7NwKcCaUms5LA", "review_count": 8, "categories": [{"alias": "ethiopian", "title": "Ethiopian"}, {"alias": "foodtrucks", "title": "Food Trucks"}], "rating": 4.0, "coordinates": {"latitude": 38.0118979, "longitude": -122.2797716}, "transactions": [], "price": "$", "location": {"address1": "3300 San Pablo Ave", "address2": "", "address3": "", "city": "Richmond", "zip_code": "94801", "country": "US", "state": "CA", "display_address": ["3300 San Pablo Ave", "Richmond, CA 94801"]}, "phone": "+15103025174", "display_phone": "(510) 302-5174", "distance": 2202.862618119258}, {"id": "7hoR85ZbJVRQ98Q14OlQZQ", "alias": "cosa-nostra-pasta-truck-berkeley", "name": "Cosa Nostra Pasta Truck", "image_url": "https://s3-media1.fl.yelpcdn.com/bphoto/kJNRKi9NzgsPf3KmTr_fAg/o.jpg", "is_closed": false, "url": "https://www.yelp.com/biz/cosa-nostra-pasta-truck-berkeley?adjust_creative=IokN4du3-7NwKcCaUms5LA&utm_campaign=yelp_api_v3&utm_medium=api_v3_business_search&utm_source=IokN4du3-7NwKcCaUms5LA", "review_count": 31, "categories": [{"alias": "foodtrucks", "title": "Food Trucks"}, {"alias": "italian", "title": "Italian"}], "rating": 5.0, "coordinates": {"latitude": 37.8760173212886, "longitude": -122.303487025201}, "transactions": [], "price": "$$", "location": {"address1": "701 Page St", "address2": null, "address3": null, "city": "Berkeley", "zip_code": "94710", "country": "US", "state": "CA", "display_address": ["701 Page St", "Berkeley, CA 94710"]}, "phone": "+15102448782", "display_phone": "(510) 244-8782", "distance": 13521.407833963402}, {"id": "g2qCw8V0k5afq37DbMWsFw", "alias": "wendys-pinole", "name": "Wendy's", "image_url": "https://s3-media3.fl.yelpcdn.com/bphoto/ze6w09vSc2ojnGTOWOvG0w/o.jpg", "is_closed": false, "url": "https://www.yelp.com/biz/wendys-pinole?adjust_creative=IokN4du3-7NwKcCaUms5LA&utm_campaign=yelp_api_v3&utm_medium=api_v3_business_search&utm_source=IokN4du3-7NwKcCaUms5LA", "review_count": 63, "categories": [{"alias": "hotdogs", "title": "Fast Food"}, {"alias": "burgers", "title": "Burgers"}], "rating": 2.0, "coordinates": {"latitude": 37.991669, "longitude": -122.30111}, "transactions": ["delivery", "pickup"], "price": "$", "location": {"address1": "1581 Fitzgerald Drive", "address2": "", "address3": "", "city": "Pinole", "zip_code": "94564", "country": "US", "state": "CA", "display_address": ["1581 Fitzgerald Drive", "Pinole, CA 94564"]}, "phone": "+15102620242", "display_phone": "(510) 262-0242", "distance": 738.2135328749368}, {"id": "iSoN3qBrar7uFz9BodZnGg", "alias": "burger-king-pinole", "name": "Burger King", "image_url": "https://s3-media3.fl.yelpcdn.com/bphoto/DRrU2q4UClKPoRPd6Q7_qA/o.jpg", "is_closed": false, "url": "https://www.yelp.com/biz/burger-king-pinole?adjust_creative=IokN4du3-7NwKcCaUms5LA&utm_campaign=yelp_api_v3&utm_medium=api_v3_business_search&utm_source=IokN4du3-7NwKcCaUms5LA", "review_count": 73, "categories": [{"alias": "burgers", "title": "Burgers"}, {"alias": "hotdogs", "title": "Fast Food"}], "rating": 2.5, "coordinates": {"latitude": 37.99187, "longitude": -122.30189}, "transactions": [], "price": "$", "location": {"address1": "1571 Fitzgerald Dr", "address2": "", "address3": "", "city": "Pinole", "zip_code": "94564", "country": "US", "state": "CA", "display_address": ["1571 Fitzgerald Dr", "Pinole, CA 94564"]}, "phone": "+15102230377", "display_phone": "(510) 223-0377", "distance": 762.8112460563035}, {"id": "60OAF7rNMqxRNJdO1glo6A", "alias": "mcdonalds-pinole", "name": "McDonald's", "image_url": "https://s3-media2.fl.yelpcdn.com/bphoto/n_PGLcI2TbOMg6_S4F8SXw/o.jpg", "is_closed": false, "url": "https://www.yelp.com/biz/mcdonalds-pinole?adjust_creative=IokN4du3-7NwKcCaUms5LA&utm_campaign=yelp_api_v3&utm_medium=api_v3_business_search&utm_source=IokN4du3-7NwKcCaUms5LA", "review_count": 60, "categories": [{"alias": "hotdogs", "title": "Fast Food"}, {"alias": "burgers", "title": "Burgers"}, {"alias": "coffee", "title": "Coffee & Tea"}], "rating": 2.5, "coordinates": {"latitude": 37.9960772853816, "longitude": -122.304952517152}, "transactions": [], "price": "$", "location": {"address1": "1402 Tara Hills Dr", "address2": "", "address3": "", "city": "Pinole", "zip_code": "94564", "country": "US", "state": "CA", "display_address": ["1402 Tara Hills Dr", "Pinole, CA 94564"]}, "phone": "+15107247211", "display_phone": "(510) 724-7211", "distance": 709.9332592251292}, {"id": "-9RGWwXfZbpwuUl6fmgoXQ", "alias": "carls-jr-pinole", "name": "Carl's Jr", "image_url": "https://s3-media4.fl.yelpcdn.com/bphoto/mtNM8k1FVyAd1p7HRYX48A/o.jpg", "is_closed": false, "url": "https://www.yelp.com/biz/carls-jr-pinole?adjust_creative=IokN4du3-7NwKcCaUms5LA&utm_campaign=yelp_api_v3&utm_medium=api_v3_business_search&utm_source=IokN4du3-7NwKcCaUms5LA", "review_count": 70, "categories": [{"alias": "burgers", "title": "Burgers"}, {"alias": "hotdogs", "title": "Fast Food"}], "rating": 2.0, "coordinates": {"latitude": 37.991102, "longitude": -122.301358}, "transactions": ["delivery"], "price": "$", "location": {"address1": "1550 Fitzgerald Dr", "address2": "", "address3": "", "city": "Pinole", "zip_code": "94564", "country": "US", "state": "CA", "display_address": ["1550 Fitzgerald Dr", "Pinole, CA 94564"]}, "phone": "+15102232562", "display_phone": "(510) 223-2562", "distance": 807.1928318859349}, {"id": "vD-s4VpL6dDectii37uV3g", "alias": "subway-restaurants-pinole", "name": "Subway Restaurants", "image_url": "https://s3-media3.fl.yelpcdn.com/bphoto/ivaHl0e2e4uWEqMSw3d-7Q/o.jpg", "is_closed": false, "url": "https://www.yelp.com/biz/subway-restaurants-pinole?adjust_creative=IokN4du3-7NwKcCaUms5LA&utm_campaign=yelp_api_v3&utm_medium=api_v3_business_search&utm_source=IokN4du3-7NwKcCaUms5LA", "review_count": 30, "categories": [{"alias": "sandwiches", "title": "Sandwiches"}], "rating": 1.5, "coordinates": {"latitude": 37.99447, "longitude": -122.28647}, "transactions": ["delivery", "pickup"], "price": "$", "location": {"address1": "2768 Pinole Valley Rd", "address2": "", "address3": "", "city": "Pinole", "zip_code": "94564", "country": "US", "state": "CA", "display_address": ["2768 Pinole Valley Rd", "Pinole, CA 94564"]}, "phone": "+15102835440", "display_phone": "(510) 283-5440", "distance": 964.7675556118751}, {"id": "t8EqwIJLNSYrXpEY1aLJ4A", "alias": "togo-s-sandwiches-pinole", "name": "Togo\u2019s Sandwiches", "image_url": "https://s3-media4.fl.yelpcdn.com/bphoto/dBxEH2M3Qus-d1HFPAEnpw/o.jpg", "is_closed": false, "url": "https://www.yelp.com/biz/togo-s-sandwiches-pinole?adjust_creative=IokN4du3-7NwKcCaUms5LA&utm_campaign=yelp_api_v3&utm_medium=api_v3_business_search&utm_source=IokN4du3-7NwKcCaUms5LA", "review_count": 68, "categories": [{"alias": "sandwiches", "title": "Sandwiches"}, {"alias": "hotdogs", "title": "Fast Food"}, {"alias": "delis", "title": "Delis"}], "rating": 3.0, "coordinates": {"latitude": 37.9861491285353, "longitude": -122.310875841071}, "transactions": ["delivery", "pickup"], "price": "$", "location": {"address1": "1356 Fitzgerald Dr", "address2": "", "address3": "", "city": "Pinole", "zip_code": "94564", "country": "US", "state": "CA", "display_address": ["1356 Fitzgerald Dr", "Pinole, CA 94564"]}, "phone": "+15102229991", "display_phone": "(510) 222-9991", "distance": 1750.0938432743158}, {"id": "jm6FM0gsxfqfr3j1mTrW7w", "alias": "little-caesars-el-sobrante-2", "name": "Little Caesars", "image_url": "https://s3-media2.fl.yelpcdn.com/bphoto/QaO3sEXwbzTg5I1OeThhfQ/o.jpg", "is_closed": false, "url": "https://www.yelp.com/biz/little-caesars-el-sobrante-2?adjust_creative=IokN4du3-7NwKcCaUms5LA&utm_campaign=yelp_api_v3&utm_medium=api_v3_business_search&utm_source=IokN4du3-7NwKcCaUms5LA", "review_count": 45, "categories": [{"alias": "pizza", "title": "Pizza"}], "rating": 2.5, "coordinates": {"latitude": 37.9788423, "longitude": -122.295166}, "transactions": [], "price": "$", "location": {"address1": "454 Appian Way", "address2": "", "address3": "", "city": "El Sobrante", "zip_code": "94820", "country": "US", "state": "CA", "display_address": ["454 Appian Way", "El Sobrante, CA 94820"]}, "phone": "+15102224995", "display_phone": "(510) 222-4995", "distance": 2082.656507313104}, {"id": "rM6pPB_qmQ3de5yGpfLT1g", "alias": "lomo-libre-san-francisco-2", "name": "Lomo Libre", "image_url": "https://s3-media1.fl.yelpcdn.com/bphoto/vjnO-EUjFHKoLMy2_JQYvg/o.jpg", "is_closed": false, "url": "https://www.yelp.com/biz/lomo-libre-san-francisco-2?adjust_creative=IokN4du3-7NwKcCaUms5LA&utm_campaign=yelp_api_v3&utm_medium=api_v3_business_search&utm_source=IokN4du3-7NwKcCaUms5LA", "review_count": 8, "categories": [{"alias": "foodtrucks", "title": "Food Trucks"}, {"alias": "peruvian", "title": "Peruvian"}], "rating": 5.0, "coordinates": {"latitude": 37.799634, "longitude": -122.436301}, "transactions": [], "location": {"address1": "2101 Lombard St", "address2": "", "address3": null, "city": "San Francisco", "zip_code": "94123", "country": "US", "state": "CA", "display_address": ["2101 Lombard St", "San Francisco, CA 94123"]}, "phone": "+14156198149", "display_phone": "(415) 619-8149", "distance": 25167.457757682507}, {"id": "VZNzvQKzRneRjGQ2sMspnA", "alias": "jack-in-the-box-pinole", "name": "Jack in the Box", "image_url": "https://s3-media2.fl.yelpcdn.com/bphoto/iV-BAjIFL6OdXjhXJj878w/o.jpg", "is_closed": false, "url": "https://www.yelp.com/biz/jack-in-the-box-pinole?adjust_creative=IokN4du3-7NwKcCaUms5LA&utm_campaign=yelp_api_v3&utm_medium=api_v3_business_search&utm_source=IokN4du3-7NwKcCaUms5LA", "review_count": 69, "categories": [{"alias": "burgers", "title": "Burgers"}, {"alias": "hotdogs", "title": "Fast Food"}, {"alias": "tacos", "title": "Tacos"}], "rating": 2.0, "coordinates": {"latitude": 37.9963085262727, "longitude": -122.285307347775}, "transactions": [], "price": "$", "location": {"address1": "2689 Pinole Valley Rd", "address2": "", "address3": "", "city": "Pinole", "zip_code": "94564", "country": "US", "state": "CA", "display_address": ["2689 Pinole Valley Rd", "Pinole, CA 94564"]}, "phone": "+15107582346", "display_phone": "(510) 758-2346", "distance": 1038.345114417307}, {"id": "q3ZOtUofqg7e3qAiA9gs9w", "alias": "taqueria-la-estrella-richmond", "name": "Taqueria La Estrella", "image_url": "https://s3-media3.fl.yelpcdn.com/bphoto/uj_8OLGuFKDGF_nOsVRcOw/o.jpg", "is_closed": false, "url": "https://www.yelp.com/biz/taqueria-la-estrella-richmond?adjust_creative=IokN4du3-7NwKcCaUms5LA&utm_campaign=yelp_api_v3&utm_medium=api_v3_business_search&utm_source=IokN4du3-7NwKcCaUms5LA", "review_count": 117, "categories": [{"alias": "mexican", "title": "Mexican"}, {"alias": "vegetarian", "title": "Vegetarian"}, {"alias": "foodtrucks", "title": "Food Trucks"}], "rating": 4.0, "coordinates": {"latitude": 37.93622, "longitude": -122.34797}, "transactions": [], "price": "$", "location": {"address1": "325 23rd St", "address2": "", "address3": "", "city": "Richmond", "zip_code": "94804", "country": "US", "state": "CA", "display_address": ["325 23rd St", "Richmond, CA 94804"]}, "phone": "+15102326955", "display_phone": "(510) 232-6955", "distance": 8136.1502152841895}, {"id": "SFN17ohwxw6N0aU_XWyZLQ", "alias": "izalco-catering-pinole", "name": "Izalco Catering", "image_url": "https://s3-media2.fl.yelpcdn.com/bphoto/ZhWSTQ9v0uszOVuE_OlQ8Q/o.jpg", "is_closed": false, "url": "https://www.yelp.com/biz/izalco-catering-pinole?adjust_creative=IokN4du3-7NwKcCaUms5LA&utm_campaign=yelp_api_v3&utm_medium=api_v3_business_search&utm_source=IokN4du3-7NwKcCaUms5LA", "review_count": 3, "categories": [{"alias": "farmersmarket", "title": "Farmers Market"}, {"alias": "salvadoran", "title": "Salvadoran"}], "rating": 3.5, "coordinates": {"latitude": 38.005659, "longitude": -122.308189}, "transactions": [], "price": "$", "location": {"address1": "812 San Pablo Ave", "address2": "", "address3": "", "city": "Pinole", "zip_code": "94564", "country": "US", "state": "CA", "display_address": ["812 San Pablo Ave", "Pinole, CA 94564"]}, "phone": "+19255973092", "display_phone": "(925) 597-3092", "distance": 1331.0668994577793}, {"id": "UgpER14Qy4CiwlxC5ZwsqA", "alias": "la-cuchara-de-do\u00f1a-rosa-vallejo", "name": "La cuchara de Do\u00f1a Rosa", "image_url": "https://s3-media3.fl.yelpcdn.com/bphoto/IlLx-PG3Jt6VZBcxToYRng/o.jpg", "is_closed": false, "url": "https://www.yelp.com/biz/la-cuchara-de-do%C3%B1a-rosa-vallejo?adjust_creative=IokN4du3-7NwKcCaUms5LA&utm_campaign=yelp_api_v3&utm_medium=api_v3_business_search&utm_source=IokN4du3-7NwKcCaUms5LA", "review_count": 14, "categories": [{"alias": "foodtrucks", "title": "Food Trucks"}, {"alias": "tacos", "title": "Tacos"}], "rating": 4.0, "coordinates": {"latitude": 38.115436, "longitude": -122.2541558}, "transactions": ["delivery", "pickup"], "price": "$$", "location": {"address1": "105 Couch St", "address2": "", "address3": null, "city": "Vallejo", "zip_code": "94590", "country": "US", "state": "CA", "display_address": ["105 Couch St", "Vallejo, CA 94590"]}, "phone": "+15103138892", "display_phone": "(510) 313-8892", "distance": 13639.891839183241}, {"id": "RsgxKM4y5V_po23Iy3lTww", "alias": "fiya-spice-caribbean-pittsburg", "name": "Fiya Spice Caribbean", "image_url": "https://s3-media1.fl.yelpcdn.com/bphoto/7NBUdJXMLVWdJqIumy-GBg/o.jpg", "is_closed": false, "url": "https://www.yelp.com/biz/fiya-spice-caribbean-pittsburg?adjust_creative=IokN4du3-7NwKcCaUms5LA&utm_campaign=yelp_api_v3&utm_medium=api_v3_business_search&utm_source=IokN4du3-7NwKcCaUms5LA", "review_count": 1, "categories": [{"alias": "foodtrucks", "title": "Food Trucks"}, {"alias": "caribbean", "title": "Caribbean"}, {"alias": "catering", "title": "Caterers"}], "rating": 5.0, "coordinates": {"latitude": 38.011279, "longitude": -121.876098}, "transactions": [], "location": {"address1": "", "address2": null, "address3": "", "city": "Pittsburg", "zip_code": "94565", "country": "US", "state": "CA", "display_address": ["Pittsburg, CA 94565"]}, "phone": "+15106863325", "display_phone": "(510) 686-3325", "distance": 36915.16968717616}, {"id": "jCcAuXhCpeJP2n-8ol7mxg", "alias": "kolobok-russian-soul-food-truck-oakland", "name": "Kolobok Russian Soul Food Truck", "image_url": "https://s3-media1.fl.yelpcdn.com/bphoto/k8s1Bfc05Iw7SJXE6VJ74Q/o.jpg", "is_closed": false, "url": "https://www.yelp.com/biz/kolobok-russian-soul-food-truck-oakland?adjust_creative=IokN4du3-7NwKcCaUms5LA&utm_campaign=yelp_api_v3&utm_medium=api_v3_business_search&utm_source=IokN4du3-7NwKcCaUms5LA", "review_count": 47, "categories": [{"alias": "foodtrucks", "title": "Food Trucks"}, {"alias": "russian", "title": "Russian"}], "rating": 4.5, "coordinates": {"latitude": 37.7883087690458, "longitude": -122.309032460882}, "transactions": [], "price": "$$", "location": {"address1": null, "address2": null, "address3": "", "city": "Oakland", "zip_code": "94577", "country": "US", "state": "CA", "display_address": ["Oakland, CA 94577"]}, "phone": "+15105996542", "display_phone": "(510) 599-6542", "distance": 23286.10242386185}, {"id": "CUwBAy6lrFi4x6Neu9eRVw", "alias": "mini-street-burger-alameda-3", "name": "Mini Street Burger", "image_url": "https://s3-media2.fl.yelpcdn.com/bphoto/Kh-OQKBIclWY1dCeIuu57w/o.jpg", "is_closed": false, "url": "https://www.yelp.com/biz/mini-street-burger-alameda-3?adjust_creative=IokN4du3-7NwKcCaUms5LA&utm_campaign=yelp_api_v3&utm_medium=api_v3_business_search&utm_source=IokN4du3-7NwKcCaUms5LA", "review_count": 28, "categories": [{"alias": "foodtrucks", "title": "Food Trucks"}, {"alias": "burgers", "title": "Burgers"}], "rating": 4.0, "coordinates": {"latitude": 37.82628, "longitude": -122.25101}, "transactions": [], "location": {"address1": null, "address2": null, "address3": null, "city": "Alameda", "zip_code": "94611", "country": "US", "state": "CA", "display_address": ["Alameda, CA 94611"]}, "phone": "+15108278982", "display_phone": "(510) 827-8982", "distance": 20004.66515826018}, {"id": "99CcZUG9qei3xTunjGYwfw", "alias": "subway-restaurants-el-sobrante", "name": "Subway Restaurants", "image_url": "https://s3-media4.fl.yelpcdn.com/bphoto/u-BaGK_iBxnWBn-5FW6NOg/o.jpg", "is_closed": false, "url": "https://www.yelp.com/biz/subway-restaurants-el-sobrante?adjust_creative=IokN4du3-7NwKcCaUms5LA&utm_campaign=yelp_api_v3&utm_medium=api_v3_business_search&utm_source=IokN4du3-7NwKcCaUms5LA", "review_count": 23, "categories": [{"alias": "sandwiches", "title": "Sandwiches"}], "rating": 1.0, "coordinates": {"latitude": 37.97882, "longitude": -122.29506}, "transactions": [], "price": "$", "location": {"address1": "454 Appian Way", "address2": "Suite B", "address3": "", "city": "El Sobrante", "zip_code": "94803", "country": "US", "state": "CA", "display_address": ["454 Appian Way", "Suite B", "El Sobrante, CA 94803"]}, "phone": "+15106016400", "display_phone": "(510) 601-6400", "distance": 2083.009962832696}, {"id": "PxzM_zNIOy7jdtwT-fbB0w", "alias": "minnie-bells-san-francisco-2", "name": "Minnie Bells", "image_url": "https://s3-media2.fl.yelpcdn.com/bphoto/5YNxEigMmu8anIwGkIsEzg/o.jpg", "is_closed": false, "url": "https://www.yelp.com/biz/minnie-bells-san-francisco-2?adjust_creative=IokN4du3-7NwKcCaUms5LA&utm_campaign=yelp_api_v3&utm_medium=api_v3_business_search&utm_source=IokN4du3-7NwKcCaUms5LA", "review_count": 15, "categories": [{"alias": "soulfood", "title": "Soul Food"}, {"alias": "foodtrucks", "title": "Food Trucks"}, {"alias": "comfortfood", "title": "Comfort Food"}], "rating": 4.5, "coordinates": {"latitude": 37.7769775466477, "longitude": -122.416963241994}, "transactions": [], "location": {"address1": "", "address2": "", "address3": null, "city": "San Francisco", "zip_code": "94103", "country": "US", "state": "CA", "display_address": ["San Francisco, CA 94103"]}, "phone": "+14152739340", "display_phone": "(415) 273-9340", "distance": 26684.63093967093}, {"id": "ZlLnkOJzKQx_QbZf5p2_lw", "alias": "yummysticks-richmond-2", "name": "YummySticks", "image_url": "https://s3-media1.fl.yelpcdn.com/bphoto/7Nfbaqr5CYkV6XM9IfLO9Q/o.jpg", "is_closed": false, "url": "https://www.yelp.com/biz/yummysticks-richmond-2?adjust_creative=IokN4du3-7NwKcCaUms5LA&utm_campaign=yelp_api_v3&utm_medium=api_v3_business_search&utm_source=IokN4du3-7NwKcCaUms5LA", "review_count": 3, "categories": [{"alias": "foodtrucks", "title": "Food Trucks"}, {"alias": "newamerican", "title": "American (New)"}, {"alias": "catering", "title": "Caterers"}], "rating": 3.5, "coordinates": {"latitude": 37.921329498291, "longitude": -122.341423034668}, "transactions": [], "location": {"address1": "", "address2": null, "address3": null, "city": "Richmond", "zip_code": "94804", "country": "US", "state": "CA", "display_address": ["Richmond, CA 94804"]}, "phone": "+15109923876", "display_phone": "(510) 992-3876", "distance": 9803.444407589952}, {"id": "uuouQQIFQ1B9mkmcxaAKFA", "alias": "tacos-el-rey-oakland", "name": "Tacos El Rey", "image_url": "https://s3-media2.fl.yelpcdn.com/bphoto/DblyFrtT9uyPCQAUfPbYbQ/o.jpg", "is_closed": false, "url": "https://www.yelp.com/biz/tacos-el-rey-oakland?adjust_creative=IokN4du3-7NwKcCaUms5LA&utm_campaign=yelp_api_v3&utm_medium=api_v3_business_search&utm_source=IokN4du3-7NwKcCaUms5LA", "review_count": 9, "categories": [{"alias": "foodtrucks", "title": "Food Trucks"}, {"alias": "mexican", "title": "Mexican"}], "rating": 4.0, "coordinates": {"latitude": 37.8294034, "longitude": -122.2875758}, "transactions": [], "price": "$", "location": {"address1": "40th & Horton", "address2": "", "address3": null, "city": "Oakland", "zip_code": "94608", "country": "US", "state": "CA", "display_address": ["40th & Horton", "Oakland, CA 94608"]}, "phone": "+15108130232", "display_phone": "(510) 813-0232", "distance": 18711.37362488074}, {"id": "jW66693LVPlyDtzAoeb7KQ", "alias": "travelin-joe-espresso-berkeley", "name": "Travelin Joe Espresso", "image_url": "https://s3-media2.fl.yelpcdn.com/bphoto/XiqMQnnnbGe4g2SzU4Wm-A/o.jpg", "is_closed": false, "url": "https://www.yelp.com/biz/travelin-joe-espresso-berkeley?adjust_creative=IokN4du3-7NwKcCaUms5LA&utm_campaign=yelp_api_v3&utm_medium=api_v3_business_search&utm_source=IokN4du3-7NwKcCaUms5LA", "review_count": 33, "categories": [{"alias": "coffee", "title": "Coffee & Tea"}, {"alias": "foodstands", "title": "Food Stands"}, {"alias": "waffles", "title": "Waffles"}], "rating": 4.5, "coordinates": {"latitude": 37.85571, "longitude": -122.2893}, "transactions": [], "price": "$$", "location": {"address1": "1016 Grayson St", "address2": "", "address3": "", "city": "Berkeley", "zip_code": "94710", "country": "US", "state": "CA", "display_address": ["1016 Grayson St", "Berkeley, CA 94710"]}, "phone": "+15109197279", "display_phone": "(510) 919-7279", "distance": 15778.469233542894}, {"id": "C8QSWh3j0xkXwiWC8h-7ag", "alias": "three-amigos-market-and-deli-oakland", "name": "Three Amigos Market & Deli", "image_url": "https://s3-media1.fl.yelpcdn.com/bphoto/B4LNxfyWsiyHibJqkrK1gQ/o.jpg", "is_closed": false, "url": "https://www.yelp.com/biz/three-amigos-market-and-deli-oakland?adjust_creative=IokN4du3-7NwKcCaUms5LA&utm_campaign=yelp_api_v3&utm_medium=api_v3_business_search&utm_source=IokN4du3-7NwKcCaUms5LA", "review_count": 9, "categories": [{"alias": "grocery", "title": "Grocery"}, {"alias": "sandwiches", "title": "Sandwiches"}, {"alias": "delis", "title": "Delis"}], "rating": 4.5, "coordinates": {"latitude": 37.791048, "longitude": -122.245431}, "transactions": [], "price": "$", "location": {"address1": "1554 13th Ave", "address2": "", "address3": "", "city": "Oakland", "zip_code": "94606", "country": "US", "state": "CA", "display_address": ["1554 13th Ave", "Oakland, CA 94606"]}, "phone": "+15102612353", "display_phone": "(510) 261-2353", "distance": 23400.49549817159}, {"id": "DC42MrpWtqEeWRmMsn6Z8w", "alias": "the-everest-momo-fremont-2", "name": "The Everest Momo", "image_url": "https://s3-media2.fl.yelpcdn.com/bphoto/T2f7tUQ1c104otx9oSdqYw/o.jpg", "is_closed": false, "url": "https://www.yelp.com/biz/the-everest-momo-fremont-2?adjust_creative=IokN4du3-7NwKcCaUms5LA&utm_campaign=yelp_api_v3&utm_medium=api_v3_business_search&utm_source=IokN4du3-7NwKcCaUms5LA", "review_count": 23, "categories": [{"alias": "foodtrucks", "title": "Food Trucks"}, {"alias": "indpak", "title": "Indian"}, {"alias": "himalayan", "title": "Himalayan/Nepalese"}], "rating": 4.5, "coordinates": {"latitude": 37.54643, "longitude": -121.98512}, "transactions": [], "price": "$", "location": {"address1": "39233 Fremont Blvd", "address2": null, "address3": null, "city": "Fremont", "zip_code": "94538", "country": "US", "state": "CA", "display_address": ["39233 Fremont Blvd", "Fremont, CA 94538"]}, "phone": "+14088406369", "display_phone": "(408) 840-6369", "distance": 57157.529345075774}, {"id": "i6ZwMjYIbmFZ8EGYz6x5Bw", "alias": "phat-salads-and-wraps-napa", "name": "Phat Salads and Wraps", "image_url": "https://s3-media2.fl.yelpcdn.com/bphoto/FbrUwtrVIx2cLXiPdBhHkw/o.jpg", "is_closed": false, "url": "https://www.yelp.com/biz/phat-salads-and-wraps-napa?adjust_creative=IokN4du3-7NwKcCaUms5LA&utm_campaign=yelp_api_v3&utm_medium=api_v3_business_search&utm_source=IokN4du3-7NwKcCaUms5LA", "review_count": 48, "categories": [{"alias": "foodtrucks", "title": "Food Trucks"}, {"alias": "wraps", "title": "Wraps"}], "rating": 4.0, "coordinates": {"latitude": 38.3234491, "longitude": -122.3023962}, "transactions": [], "price": "$", "location": {"address1": "", "address2": "", "address3": "", "city": "Napa", "zip_code": "94558", "country": "US", "state": "CA", "display_address": ["Napa, CA 94558"]}, "phone": "+17073639658", "display_phone": "(707) 363-9658", "distance": 36245.445340312894}, {"id": "XTJJ_PUQoJKIh31ZIzsFzw", "alias": "cochinita-food-truck-san-francisco-6", "name": "Cochinita Food Truck", "image_url": "https://s3-media2.fl.yelpcdn.com/bphoto/w77SOd2jVJjOh1lwuYQ42w/o.jpg", "is_closed": false, "url": "https://www.yelp.com/biz/cochinita-food-truck-san-francisco-6?adjust_creative=IokN4du3-7NwKcCaUms5LA&utm_campaign=yelp_api_v3&utm_medium=api_v3_business_search&utm_source=IokN4du3-7NwKcCaUms5LA", "review_count": 49, "categories": [{"alias": "foodtrucks", "title": "Food Trucks"}, {"alias": "mexican", "title": "Mexican"}], "rating": 4.5, "coordinates": {"latitude": 37.770753, "longitude": -122.3916722}, "transactions": [], "price": "$", "location": {"address1": "601 Mission Blvd N", "address2": null, "address3": "", "city": "San Francisco", "zip_code": "94103", "country": "US", "state": "CA", "display_address": ["601 Mission Blvd N", "San Francisco, CA 94103"]}, "phone": "+14159883663", "display_phone": "(415) 988-3663", "distance": 26546.511693507066}, {"id": "lgheXsHqe66AEZwoPDIEpw", "alias": "taco-coma-newark", "name": "Taco Coma", "image_url": "https://s3-media3.fl.yelpcdn.com/bphoto/DDz5lZDL5lDiRR_Ph0L4Sg/o.jpg", "is_closed": false, "url": "https://www.yelp.com/biz/taco-coma-newark?adjust_creative=IokN4du3-7NwKcCaUms5LA&utm_campaign=yelp_api_v3&utm_medium=api_v3_business_search&utm_source=IokN4du3-7NwKcCaUms5LA", "review_count": 3, "categories": [{"alias": "foodstands", "title": "Food Stands"}, {"alias": "tacos", "title": "Tacos"}], "rating": 5.0, "coordinates": {"latitude": 37.53453, "longitude": -122.03284}, "transactions": [], "location": {"address1": "", "address2": null, "address3": "", "city": "Newark", "zip_code": "94560", "country": "US", "state": "CA", "display_address": ["Newark, CA 94560"]}, "phone": "+15106971448", "display_phone": "(510) 697-1448", "distance": 56742.32613905916}, {"id": "8SNGFcMWZkvS4GWDUL8w1Q", "alias": "noon-o-kabob-san-jose-4", "name": "Noon O Kabob", "image_url": "https://s3-media2.fl.yelpcdn.com/bphoto/5GmY5FRw0m0XEWC5XXbVlA/o.jpg", "is_closed": false, "url": "https://www.yelp.com/biz/noon-o-kabob-san-jose-4?adjust_creative=IokN4du3-7NwKcCaUms5LA&utm_campaign=yelp_api_v3&utm_medium=api_v3_business_search&utm_source=IokN4du3-7NwKcCaUms5LA", "review_count": 29, "categories": [{"alias": "foodtrucks", "title": "Food Trucks"}, {"alias": "kebab", "title": "Kebab"}, {"alias": "persian", "title": "Persian/Iranian"}], "rating": 4.5, "coordinates": {"latitude": 37.3940232, "longitude": -122.0288052}, "transactions": [], "price": "$$", "location": {"address1": null, "address2": null, "address3": null, "city": "San Jose", "zip_code": "95101", "country": "US", "state": "CA", "display_address": ["San Jose, CA 95101"]}, "phone": "+14083346777", "display_phone": "(408) 334-6777", "distance": 71134.49518407806}, {"id": "sR0Wy3LYGdYV9HLszRlMmw", "alias": "tacos-la-palmita-stockton", "name": "Tacos La Palmita", "image_url": "https://s3-media2.fl.yelpcdn.com/bphoto/pzYoRmZjUQqxZ7qOyU7hUQ/o.jpg", "is_closed": false, "url": "https://www.yelp.com/biz/tacos-la-palmita-stockton?adjust_creative=IokN4du3-7NwKcCaUms5LA&utm_campaign=yelp_api_v3&utm_medium=api_v3_business_search&utm_source=IokN4du3-7NwKcCaUms5LA", "review_count": 90, "categories": [{"alias": "tacos", "title": "Tacos"}, {"alias": "foodtrucks", "title": "Food Trucks"}], "rating": 4.5, "coordinates": {"latitude": 38.008129, "longitude": -121.320219}, "transactions": ["delivery", "pickup"], "price": "$", "location": {"address1": "6393 Pacific Ave", "address2": null, "address3": null, "city": "Stockton", "zip_code": "95207", "country": "US", "state": "CA", "display_address": ["6393 Pacific Ave", "Stockton, CA 95207"]}, "phone": "+12093026825", "display_phone": "(209) 302-6825", "distance": 85597.73533967911}, {"id": "SbjAjfh2riT7rWxo2OITJA", "alias": "candies-kitchen-sacramento", "name": "Candies Kitchen", "image_url": "https://s3-media1.fl.yelpcdn.com/bphoto/wZehoZn9-gQLuWPX4QIOLA/o.jpg", "is_closed": false, "url": "https://www.yelp.com/biz/candies-kitchen-sacramento?adjust_creative=IokN4du3-7NwKcCaUms5LA&utm_campaign=yelp_api_v3&utm_medium=api_v3_business_search&utm_source=IokN4du3-7NwKcCaUms5LA", "review_count": 2, "categories": [{"alias": "cajun", "title": "Cajun/Creole"}, {"alias": "soulfood", "title": "Soul Food"}, {"alias": "foodtrucks", "title": "Food Trucks"}], "rating": 3.5, "coordinates": {"latitude": 38.59429, "longitude": -121.48536}, "transactions": [], "location": {"address1": "1100 Richards Blvd", "address2": null, "address3": "", "city": "Sacramento", "zip_code": "95811", "country": "US", "state": "CA", "display_address": ["1100 Richards Blvd", "Sacramento, CA 95811"]}, "phone": "+19164399922", "display_phone": "(916) 439-9922", "distance": 97068.25518506834}, {"id": "Mij1ZvLLpqvNmJFWNz9IsQ", "alias": "paquitas-mexican-grill-sacramento-2", "name": "Paquitas Mexican Grill", "image_url": "https://s3-media2.fl.yelpcdn.com/bphoto/Onav96dKMe8cWeFXMNFcyQ/o.jpg", "is_closed": false, "url": "https://www.yelp.com/biz/paquitas-mexican-grill-sacramento-2?adjust_creative=IokN4du3-7NwKcCaUms5LA&utm_campaign=yelp_api_v3&utm_medium=api_v3_business_search&utm_source=IokN4du3-7NwKcCaUms5LA", "review_count": 73, "categories": [{"alias": "foodtrucks", "title": "Food Trucks"}, {"alias": "mexican", "title": "Mexican"}], "rating": 4.0, "coordinates": {"latitude": 38.549732, "longitude": -121.406281}, "transactions": [], "price": "$", "location": {"address1": "49 Bicentennial Cir", "address2": null, "address3": "", "city": "Sacramento", "zip_code": "95826", "country": "US", "state": "CA", "display_address": ["49 Bicentennial Cir", "Sacramento, CA 95826"]}, "phone": "+15308484666", "display_phone": "(530) 848-4666", "distance": 99080.30643822088}, {"id": "C9uewBH5505NV0EWYBIJAA", "alias": "lady-and-l-aperitivo-san-jose", "name": "Lady & L'Aperitivo", "image_url": "https://s3-media4.fl.yelpcdn.com/bphoto/3nz0sRE9MlOq_4xVRQRt9w/o.jpg", "is_closed": false, "url": "https://www.yelp.com/biz/lady-and-l-aperitivo-san-jose?adjust_creative=IokN4du3-7NwKcCaUms5LA&utm_campaign=yelp_api_v3&utm_medium=api_v3_business_search&utm_source=IokN4du3-7NwKcCaUms5LA", "review_count": 1, "categories": [{"alias": "bakeries", "title": "Bakeries"}, {"alias": "desserts", "title": "Desserts"}, {"alias": "cheesesteaks", "title": "Cheesesteaks"}], "rating": 5.0, "coordinates": {"latitude": 37.2208938598633, "longitude": -121.861633300781}, "transactions": [], "location": {"address1": null, "address2": null, "address3": "", "city": "San Jose", "zip_code": "95120", "country": "US", "state": "CA", "display_address": ["San Jose, CA 95120"]}, "phone": "", "display_phone": "", "distance": 100302.06087782118}, {"id": "7ETh5878KSnGQnLxLE_yaQ", "alias": "gyrostop-sacramento", "name": "GyroStop", "image_url": "https://s3-media1.fl.yelpcdn.com/bphoto/xQsct4YKnW0qSJOmK_gsxw/o.jpg", "is_closed": false, "url": "https://www.yelp.com/biz/gyrostop-sacramento?adjust_creative=IokN4du3-7NwKcCaUms5LA&utm_campaign=yelp_api_v3&utm_medium=api_v3_business_search&utm_source=IokN4du3-7NwKcCaUms5LA", "review_count": 74, "categories": [{"alias": "mediterranean", "title": "Mediterranean"}, {"alias": "foodtrucks", "title": "Food Trucks"}], "rating": 4.0, "coordinates": {"latitude": 38.6621589660645, "longitude": -121.336738586426}, "transactions": [], "price": "$$", "location": {"address1": "", "address2": "", "address3": "", "city": "Sacramento", "zip_code": "95841", "country": "US", "state": "CA", "display_address": ["Sacramento, CA 95841"]}, "phone": "+19163044976", "display_phone": "(916) 304-4976", "distance": 110891.64723516036}]}