{"location": "Rio Vista, CA", "term": "restaurant", "radius": 2347, "businesses": [{"id": "16fjup83fOdvt7ErDg6miQ", "alias": "fosters-bighorn-rio-vista", "name": "Foster's Bighorn", "image_url": "https://s3-media3.fl.yelpcdn.com/bphoto/1IKLoIuoJCnGDMXlFSUfLw/o.jpg", "is_closed": false, "url": "https://www.yelp.com/biz/fosters-bighorn-rio-vista?adjust_creative=IokN4du3-7NwKcCaUms5LA&utm_campaign=yelp_api_v3&utm_medium=api_v3_business_search&utm_source=IokN4du3-7NwKcCaUms5LA", "review_count": 211, "categories": [{"alias": "tradamerican", "title": "American (Traditional)"}, {"alias": "bars", "title": "Bars"}], "rating": 3.5, "coordinates": {"latitude": 38.1559600830078, "longitude": -121.691421508789}, "transactions": [], "price": "$$", "location": {"address1": "143 Main St", "address2": null, "address3": "", "city": "Rio Vista", "zip_code": "94571", "country": "US", "state": "CA", "display_address": ["143 Main St", "Rio Vista, CA 94571"]}, "phone": "+17073742511", "display_phone": "(707) 374-2511", "distance": 2302.9365659019245}, {"id": "NcUuLdpkdXSZK2nMBPWOjA", "alias": "hwy-12-diner-rio-vista", "name": "Hwy 12 Diner", "image_url": "https://s3-media3.fl.yelpcdn.com/bphoto/_M8zfACp2TIo-BbbgWlZFQ/o.jpg", "is_closed": false, "url": "https://www.yelp.com/biz/hwy-12-diner-rio-vista?adjust_creative=IokN4du3-7NwKcCaUms5LA&utm_campaign=yelp_api_v3&utm_medium=api_v3_business_search&utm_source=IokN4du3-7NwKcCaUms5LA", "review_count": 86, "categories": [{"alias": "breakfast_brunch", "title": "Breakfast & Brunch"}, {"alias": "tradamerican", "title": "American (Traditional)"}], "rating": 4.0, "coordinates": {"latitude": 38.161245262368, "longitude": -121.696730107069}, "transactions": [], "price": "$$", "location": {"address1": "1000 Hwy 12", "address2": "", "address3": "", "city": "Rio Vista", "zip_code": "94571", "country": "US", "state": "CA", "display_address": ["1000 Hwy 12", "Rio Vista, CA 94571"]}, "phone": "+17073742695", "display_phone": "(707) 374-2695", "distance": 1595.2074742963546}, {"id": "0NEjBnF634ZXkPYWf9lSFQ", "alias": "lucys-cafe-rio-vista", "name": "Lucy's Cafe", "image_url": "https://s3-media3.fl.yelpcdn.com/bphoto/w_y6mKWMpTAUYTxyNeL1iw/o.jpg", "is_closed": false, "url": "https://www.yelp.com/biz/lucys-cafe-rio-vista?adjust_creative=IokN4du3-7NwKcCaUms5LA&utm_campaign=yelp_api_v3&utm_medium=api_v3_business_search&utm_source=IokN4du3-7NwKcCaUms5LA", "review_count": 122, "categories": [{"alias": "italian", "title": "Italian"}, {"alias": "breakfast_brunch", "title": "Breakfast & Brunch"}, {"alias": "sandwiches", "title": "Sandwiches"}], "rating": 4.0, "coordinates": {"latitude": 38.1556966155767, "longitude": -121.690694466233}, "transactions": [], "price": "$$", "location": {"address1": "95 Main St", "address2": "", "address3": "", "city": "Rio Vista", "zip_code": "94571", "country": "US", "state": "CA", "display_address": ["95 Main St", "Rio Vista, CA 94571"]}, "phone": "+17073743939", "display_phone": "(707) 374-3939", "distance": 2348.421668881115}, {"id": "3uaaQudLWYJU5Qd1jEzGuQ", "alias": "tortilla-flats-rio-vista", "name": "Tortilla Flats", "image_url": "https://s3-media3.fl.yelpcdn.com/bphoto/aX1ygi9rWjENL89y2aGd0w/o.jpg", "is_closed": false, "url": "https://www.yelp.com/biz/tortilla-flats-rio-vista?adjust_creative=IokN4du3-7NwKcCaUms5LA&utm_campaign=yelp_api_v3&utm_medium=api_v3_business_search&utm_source=IokN4du3-7NwKcCaUms5LA", "review_count": 116, "categories": [{"alias": "mexican", "title": "Mexican"}], "rating": 4.0, "coordinates": {"latitude": 38.1579001674323, "longitude": -121.696552522417}, "transactions": [], "price": "$$", "location": {"address1": "", "address2": "", "address3": "646 California Hwy 12", "city": "Rio Vista", "zip_code": "94571", "country": "US", "state": "CA", "display_address": ["646 California Hwy 12", "Rio Vista, CA 94571"]}, "phone": "+17073742564", "display_phone": "(707) 374-2564", "distance": 2329.5040702183974}, {"id": "GVIBBGsIkVeuZdSup-1LaA", "alias": "rauls-striper-cafe-rio-vista", "name": "Raul's Striper Cafe", "image_url": "https://s3-media3.fl.yelpcdn.com/bphoto/nkgY-zduvNi9dbeN8OEKYA/o.jpg", "is_closed": false, "url": "https://www.yelp.com/biz/rauls-striper-cafe-rio-vista?adjust_creative=IokN4du3-7NwKcCaUms5LA&utm_campaign=yelp_api_v3&utm_medium=api_v3_business_search&utm_source=IokN4du3-7NwKcCaUms5LA", "review_count": 46, "categories": [{"alias": "diners", "title": "Diners"}], "rating": 4.0, "coordinates": {"latitude": 38.1568072, "longitude": -121.6917746}, "transactions": [], "price": "$", "location": {"address1": "210 Main St", "address2": "", "address3": "", "city": "Rio Vista", "zip_code": "94571", "country": "US", "state": "CA", "display_address": ["210 Main St", "Rio Vista, CA 94571"]}, "phone": "+17073744861", "display_phone": "(707) 374-4861", "distance": 2197.666942797017}, {"id": "Ks4FPzzWn8UyB_IMOGhL5w", "alias": "agnellos-corner-deli-rio-vista", "name": "Agnello's Corner Deli", "image_url": "https://s3-media1.fl.yelpcdn.com/bphoto/-NAhlM0TxpBuoqxJtTsL6Q/o.jpg", "is_closed": false, "url": "https://www.yelp.com/biz/agnellos-corner-deli-rio-vista?adjust_creative=IokN4du3-7NwKcCaUms5LA&utm_campaign=yelp_api_v3&utm_medium=api_v3_business_search&utm_source=IokN4du3-7NwKcCaUms5LA", "review_count": 18, "categories": [{"alias": "delis", "title": "Delis"}], "rating": 4.5, "coordinates": {"latitude": 38.1580245550096, "longitude": -121.693190932274}, "transactions": [], "location": {"address1": "400 Main St", "address2": "", "address3": null, "city": "Rio Vista", "zip_code": "94571", "country": "US", "state": "CA", "display_address": ["400 Main St", "Rio Vista, CA 94571"]}, "phone": "", "display_phone": "", "distance": 2034.267690318733}, {"id": "ZnLyjtvZs5oe8LqLurlBWQ", "alias": "shanny-macs-cafe-rio-vista", "name": "Shanny mac's cafe", "image_url": "https://s3-media2.fl.yelpcdn.com/bphoto/0eqcrdg76xi5K8my5FN6EQ/o.jpg", "is_closed": false, "url": "https://www.yelp.com/biz/shanny-macs-cafe-rio-vista?adjust_creative=IokN4du3-7NwKcCaUms5LA&utm_campaign=yelp_api_v3&utm_medium=api_v3_business_search&utm_source=IokN4du3-7NwKcCaUms5LA", "review_count": 22, "categories": [{"alias": "breakfast_brunch", "title": "Breakfast & Brunch"}, {"alias": "foodtrucks", "title": "Food Trucks"}], "rating": 4.5, "coordinates": {"latitude": 38.161002, "longitude": -121.6896784}, "transactions": [], "price": "$", "location": {"address1": "210 State Hwy 12", "address2": null, "address3": "", "city": "Rio Vista", "zip_code": "94571", "country": "US", "state": "CA", "display_address": ["210 State Hwy 12", "Rio Vista, CA 94571"]}, "phone": "+17073745700", "display_phone": "(707) 374-5700", "distance": 1883.6284700117546}, {"id": "LapzEQYAWFXST7_XM-flRg", "alias": "hong-kong-seafood-restaurant-rio-vista-2", "name": "Hong Kong Seafood Restaurant", "image_url": "https://s3-media2.fl.yelpcdn.com/bphoto/rsJZGQf8xKkeG1P9LPBY7w/o.jpg", "is_closed": false, "url": "https://www.yelp.com/biz/hong-kong-seafood-restaurant-rio-vista-2?adjust_creative=IokN4du3-7NwKcCaUms5LA&utm_campaign=yelp_api_v3&utm_medium=api_v3_business_search&utm_source=IokN4du3-7NwKcCaUms5LA", "review_count": 22, "categories": [{"alias": "chinese", "title": "Chinese"}], "rating": 3.0, "coordinates": {"latitude": 38.156585, "longitude": -121.691964}, "transactions": [], "price": "$$", "location": {"address1": "217 Main St", "address2": "", "address3": "", "city": "Rio Vista", "zip_code": "94571", "country": "US", "state": "CA", "display_address": ["217 Main St", "Rio Vista, CA 94571"]}, "phone": "+17073745834", "display_phone": "(707) 374-5834", "distance": 2215.890101330291}, {"id": "0Don-S8_xG6MwY_sGLfwaw", "alias": "burgerlicious-rio-vista-2", "name": "Burgerlicious", "image_url": "https://s3-media4.fl.yelpcdn.com/bphoto/RTBYYDby-iJLI_MzQ9uC3w/o.jpg", "is_closed": false, "url": "https://www.yelp.com/biz/burgerlicious-rio-vista-2?adjust_creative=IokN4du3-7NwKcCaUms5LA&utm_campaign=yelp_api_v3&utm_medium=api_v3_business_search&utm_source=IokN4du3-7NwKcCaUms5LA", "review_count": 124, "categories": [{"alias": "tradamerican", "title": "American (Traditional)"}, {"alias": "burgers", "title": "Burgers"}], "rating": 3.0, "coordinates": {"latitude": 38.1607188128495, "longitude": -121.695544235408}, "transactions": [], "price": "$", "location": {"address1": "650 Hwy 12", "address2": "", "address3": "", "city": "Rio Vista", "zip_code": "94571", "country": "US", "state": "CA", "display_address": ["650 Hwy 12", "Rio Vista, CA 94571"]}, "phone": "+17073742020", "display_phone": "(707) 374-2020", "distance": 1682.0237645284087}, {"id": "sa_tVA_fbS0_AxVxeJVO-w", "alias": "long-island-larrys-hotdog-rio-vista", "name": "Long Island Larry's Hotdog", "image_url": "https://s3-media4.fl.yelpcdn.com/bphoto/MvpBNVm-eOLUB-dfl8VOQw/o.jpg", "is_closed": false, "url": "https://www.yelp.com/biz/long-island-larrys-hotdog-rio-vista?adjust_creative=IokN4du3-7NwKcCaUms5LA&utm_campaign=yelp_api_v3&utm_medium=api_v3_business_search&utm_source=IokN4du3-7NwKcCaUms5LA", "review_count": 24, "categories": [{"alias": "streetvendors", "title": "Street Vendors"}, {"alias": "hotdog", "title": "Hot Dogs"}], "rating": 4.5, "coordinates": {"latitude": 38.1604690551758, "longitude": -121.69620513916}, "transactions": [], "price": "$", "location": {"address1": "659 State Hwy 12", "address2": "", "address3": "", "city": "Rio Vista", "zip_code": "94571", "country": "US", "state": "CA", "display_address": ["659 State Hwy 12", "Rio Vista, CA 94571"]}, "phone": "+14082198534", "display_phone": "(408) 219-8534", "distance": 1690.9558251291844}, {"id": "nbrFqsDe6Wv-87xAhRmVfQ", "alias": "sir-flairs-rio-vista", "name": "Sir Flair's", "image_url": "https://s3-media1.fl.yelpcdn.com/bphoto/FDXtPDJDHFh5rCmter5C0Q/o.jpg", "is_closed": false, "url": "https://www.yelp.com/biz/sir-flairs-rio-vista?adjust_creative=IokN4du3-7NwKcCaUms5LA&utm_campaign=yelp_api_v3&utm_medium=api_v3_business_search&utm_source=IokN4du3-7NwKcCaUms5LA", "review_count": 6, "categories": [{"alias": "tradamerican", "title": "American (Traditional)"}], "rating": 2.0, "coordinates": {"latitude": 38.182533, "longitude": -121.717033}, "transactions": [], "location": {"address1": "1000 Summerset Dr", "address2": "", "address3": "", "city": "Rio Vista", "zip_code": "94571", "country": "US", "state": "CA", "display_address": ["1000 Summerset Dr", "Rio Vista, CA 94571"]}, "phone": "+17073742900", "display_phone": "(707) 374-2900", "distance": 1574.208689376264}, {"id": "ELrOS4jZNKAXR0JSgvkkSA", "alias": "pizza-factory-rio-vista-2", "name": "Pizza Factory", "image_url": "https://s3-media2.fl.yelpcdn.com/bphoto/F33iu9jLqNRYhHtW5SUfGA/o.jpg", "is_closed": false, "url": "https://www.yelp.com/biz/pizza-factory-rio-vista-2?adjust_creative=IokN4du3-7NwKcCaUms5LA&utm_campaign=yelp_api_v3&utm_medium=api_v3_business_search&utm_source=IokN4du3-7NwKcCaUms5LA", "review_count": 68, "categories": [{"alias": "pizza", "title": "Pizza"}, {"alias": "italian", "title": "Italian"}, {"alias": "chicken_wings", "title": "Chicken Wings"}], "rating": 3.0, "coordinates": {"latitude": 38.15643, "longitude": -121.69198}, "transactions": [], "price": "$$", "location": {"address1": "201 Main St", "address2": "", "address3": "", "city": "Rio Vista", "zip_code": "94571", "country": "US", "state": "CA", "display_address": ["201 Main St", "Rio Vista, CA 94571"]}, "phone": "+17073746868", "display_phone": "(707) 374-6868", "distance": 2240.1115796122835}, {"id": "lKTrgl7CYKnY2X02I74Kmg", "alias": "taqueria-mexico-restaurant-rio-vista", "name": "Taqueria Mexico Restaurant", "image_url": "https://s3-media1.fl.yelpcdn.com/bphoto/WWyPui1Tv9ld1mJ8gc6c_w/o.jpg", "is_closed": false, "url": "https://www.yelp.com/biz/taqueria-mexico-restaurant-rio-vista?adjust_creative=IokN4du3-7NwKcCaUms5LA&utm_campaign=yelp_api_v3&utm_medium=api_v3_business_search&utm_source=IokN4du3-7NwKcCaUms5LA", "review_count": 41, "categories": [{"alias": "mexican", "title": "Mexican"}], "rating": 3.0, "coordinates": {"latitude": 38.1560897827148, "longitude": -121.691581726074}, "transactions": [], "price": "$", "location": {"address1": "133 Main St", "address2": "", "address3": "", "city": "Rio Vista", "zip_code": "94571", "country": "US", "state": "CA", "display_address": ["133 Main St", "Rio Vista, CA 94571"]}, "phone": "+17073742680", "display_phone": "(707) 374-2680", "distance": 2283.443367305697}, {"id": "prlxvYZ02b41U9h3LnPJqw", "alias": "rio-vista-bakery-and-cafe-rio-vista", "name": "Rio Vista Bakery & Cafe", "image_url": "https://s3-media2.fl.yelpcdn.com/bphoto/pfrp-yq2osev66LfCs_Qjg/o.jpg", "is_closed": false, "url": "https://www.yelp.com/biz/rio-vista-bakery-and-cafe-rio-vista?adjust_creative=IokN4du3-7NwKcCaUms5LA&utm_campaign=yelp_api_v3&utm_medium=api_v3_business_search&utm_source=IokN4du3-7NwKcCaUms5LA", "review_count": 49, "categories": [{"alias": "bakeries", "title": "Bakeries"}, {"alias": "breakfast_brunch", "title": "Breakfast & Brunch"}, {"alias": "cafes", "title": "Cafes"}], "rating": 4.0, "coordinates": {"latitude": 38.1562981, "longitude": -121.6911263}, "transactions": [], "price": "$", "location": {"address1": "150 Main St", "address2": "", "address3": "", "city": "Rio Vista", "zip_code": "94571", "country": "US", "state": "CA", "display_address": ["150 Main St", "Rio Vista, CA 94571"]}, "phone": "+17073743844", "display_phone": "(707) 374-3844", "distance": 2267.637877758158}, {"id": "vtKjCPfeKpxVP3W86JK13Q", "alias": "taco-bell-rio-vista", "name": "Taco Bell", "image_url": "https://s3-media1.fl.yelpcdn.com/bphoto/BvWd1iUUDd1bqq2xetSo7w/o.jpg", "is_closed": false, "url": "https://www.yelp.com/biz/taco-bell-rio-vista?adjust_creative=IokN4du3-7NwKcCaUms5LA&utm_campaign=yelp_api_v3&utm_medium=api_v3_business_search&utm_source=IokN4du3-7NwKcCaUms5LA", "review_count": 20, "categories": [{"alias": "hotdogs", "title": "Fast Food"}, {"alias": "tacos", "title": "Tacos"}], "rating": 2.5, "coordinates": {"latitude": 38.162302, "longitude": -121.699175}, "transactions": [], "price": "$", "location": {"address1": "1005 Highway 12", "address2": "", "address3": "", "city": "Rio Vista", "zip_code": "94571", "country": "US", "state": "CA", "display_address": ["1005 Highway 12", "Rio Vista, CA 94571"]}, "phone": "+17073747515", "display_phone": "(707) 374-7515", "distance": 1434.0809244775678}, {"id": "7gT7ejsxE1FIb-0EqfQSSw", "alias": "mcdonalds-rio-vista", "name": "McDonald's", "image_url": "https://s3-media3.fl.yelpcdn.com/bphoto/2bqoti-eME4hZqFi2Qj4gA/o.jpg", "is_closed": false, "url": "https://www.yelp.com/biz/mcdonalds-rio-vista?adjust_creative=IokN4du3-7NwKcCaUms5LA&utm_campaign=yelp_api_v3&utm_medium=api_v3_business_search&utm_source=IokN4du3-7NwKcCaUms5LA", "review_count": 30, "categories": [{"alias": "burgers", "title": "Burgers"}, {"alias": "hotdogs", "title": "Fast Food"}, {"alias": "coffee", "title": "Coffee & Tea"}], "rating": 2.0, "coordinates": {"latitude": 38.160967, "longitude": -121.690678}, "transactions": [], "price": "$", "location": {"address1": "300 Hwy 12", "address2": "", "address3": "", "city": "Rio Vista", "zip_code": "94571", "country": "US", "state": "CA", "display_address": ["300 Hwy 12", "Rio Vista, CA 94571"]}, "phone": "+17073744430", "display_phone": "(707) 374-4430", "distance": 1839.4631052254051}, {"id": "sCVGtxLd7bsZzTypeLX6kA", "alias": "subway-restaurants-rio-vista-2", "name": "Subway Restaurants", "image_url": "https://s3-media2.fl.yelpcdn.com/bphoto/IsEVGN2bwqIr9oYvAS3Esg/o.jpg", "is_closed": false, "url": "https://www.yelp.com/biz/subway-restaurants-rio-vista-2?adjust_creative=IokN4du3-7NwKcCaUms5LA&utm_campaign=yelp_api_v3&utm_medium=api_v3_business_search&utm_source=IokN4du3-7NwKcCaUms5LA", "review_count": 23, "categories": [{"alias": "sandwiches", "title": "Sandwiches"}], "rating": 3.0, "coordinates": {"latitude": 38.1610145568848, "longitude": -121.69612121582}, "transactions": [], "price": "$", "location": {"address1": "660 State Highway 12", "address2": "", "address3": "", "city": "Rio Vista", "zip_code": "94571", "country": "US", "state": "CA", "display_address": ["660 State Highway 12", "Rio Vista, CA 94571"]}, "phone": "+17073744444", "display_phone": "(707) 374-4444", "distance": 1631.1773512198301}, {"id": "RsgxKM4y5V_po23Iy3lTww", "alias": "fiya-spice-caribbean-pittsburg", "name": "Fiya Spice Caribbean", "image_url": "https://s3-media1.fl.yelpcdn.com/bphoto/7NBUdJXMLVWdJqIumy-GBg/o.jpg", "is_closed": false, "url": "https://www.yelp.com/biz/fiya-spice-caribbean-pittsburg?adjust_creative=IokN4du3-7NwKcCaUms5LA&utm_campaign=yelp_api_v3&utm_medium=api_v3_business_search&utm_source=IokN4du3-7NwKcCaUms5LA", "review_count": 1, "categories": [{"alias": "foodtrucks", "title": "Food Trucks"}, {"alias": "caribbean", "title": "Caribbean"}, {"alias": "catering", "title": "Caterers"}], "rating": 5.0, "coordinates": {"latitude": 38.011279, "longitude": -121.876098}, "transactions": [], "location": {"address1": "", "address2": null, "address3": "", "city": "Pittsburg", "zip_code": "94565", "country": "US", "state": "CA", "display_address": ["Pittsburg, CA 94565"]}, "phone": "+15106863325", "display_phone": "(510) 686-3325", "distance": 23757.292916523038}, {"id": "xomxVUXe8Sy5R2nt7qBxxg", "alias": "fired-mobile-pizza-oven-stockton", "name": "FIRED Mobile Pizza Oven", "image_url": "https://s3-media4.fl.yelpcdn.com/bphoto/JV4MGBFFrJGZQbmtdoOLFQ/o.jpg", "is_closed": false, "url": "https://www.yelp.com/biz/fired-mobile-pizza-oven-stockton?adjust_creative=IokN4du3-7NwKcCaUms5LA&utm_campaign=yelp_api_v3&utm_medium=api_v3_business_search&utm_source=IokN4du3-7NwKcCaUms5LA", "review_count": 8, "categories": [{"alias": "pizza", "title": "Pizza"}, {"alias": "catering", "title": "Caterers"}, {"alias": "foodtrucks", "title": "Food Trucks"}], "rating": 5.0, "coordinates": {"latitude": 38.0521138, "longitude": -121.3484448}, "transactions": [], "location": {"address1": null, "address2": null, "address3": "", "city": "Stockton", "zip_code": "95209", "country": "US", "state": "CA", "display_address": ["Stockton, CA 95209"]}, "phone": "+12092424105", "display_phone": "(209) 242-4105", "distance": 33795.889432708966}, {"id": "kN2Q5z0kFXSyyVht1_jETA", "alias": "che-buono-sacramento-4", "name": "Che Buono", "image_url": "https://s3-media1.fl.yelpcdn.com/bphoto/LnHfAM-V8S9jM6s_rOFkQA/o.jpg", "is_closed": false, "url": "https://www.yelp.com/biz/che-buono-sacramento-4?adjust_creative=IokN4du3-7NwKcCaUms5LA&utm_campaign=yelp_api_v3&utm_medium=api_v3_business_search&utm_source=IokN4du3-7NwKcCaUms5LA", "review_count": 46, "categories": [{"alias": "foodtrucks", "title": "Food Trucks"}, {"alias": "italian", "title": "Italian"}, {"alias": "pizza", "title": "Pizza"}], "rating": 4.5, "coordinates": {"latitude": 38.5815719, "longitude": -121.4943996}, "transactions": [], "price": "$$", "location": {"address1": "", "address2": null, "address3": "", "city": "Sacramento", "zip_code": "95811", "country": "US", "state": "CA", "display_address": ["Sacramento, CA 95811"]}, "phone": "+19164306663", "display_phone": "(916) 430-6663", "distance": 48683.20759325641}, {"id": "4HaUjRfwmHUOoFAeKi84dw", "alias": "mudville-mcs-stockton", "name": "Mudville Mc's", "image_url": "https://s3-media4.fl.yelpcdn.com/bphoto/yOlLV3w6yY7iPmRFJQbA5A/o.jpg", "is_closed": false, "url": "https://www.yelp.com/biz/mudville-mcs-stockton?adjust_creative=IokN4du3-7NwKcCaUms5LA&utm_campaign=yelp_api_v3&utm_medium=api_v3_business_search&utm_source=IokN4du3-7NwKcCaUms5LA", "review_count": 3, "categories": [{"alias": "foodtrucks", "title": "Food Trucks"}, {"alias": "soulfood", "title": "Soul Food"}, {"alias": "spanish", "title": "Spanish"}], "rating": 3.0, "coordinates": {"latitude": 37.9772033691406, "longitude": -121.298080444336}, "transactions": [], "location": {"address1": "", "address2": "", "address3": "", "city": "Stockton", "zip_code": "95204", "country": "US", "state": "CA", "display_address": ["Stockton, CA 95204"]}, "phone": "+16572294627", "display_phone": "(657) 229-4627", "distance": 39876.96903833475}, {"id": "sR0Wy3LYGdYV9HLszRlMmw", "alias": "tacos-la-palmita-stockton", "name": "Tacos La Palmita", "image_url": "https://s3-media2.fl.yelpcdn.com/bphoto/pzYoRmZjUQqxZ7qOyU7hUQ/o.jpg", "is_closed": false, "url": "https://www.yelp.com/biz/tacos-la-palmita-stockton?adjust_creative=IokN4du3-7NwKcCaUms5LA&utm_campaign=yelp_api_v3&utm_medium=api_v3_business_search&utm_source=IokN4du3-7NwKcCaUms5LA", "review_count": 90, "categories": [{"alias": "tacos", "title": "Tacos"}, {"alias": "foodtrucks", "title": "Food Trucks"}], "rating": 4.5, "coordinates": {"latitude": 38.008129, "longitude": -121.320219}, "transactions": ["delivery", "pickup"], "price": "$", "location": {"address1": "6393 Pacific Ave", "address2": null, "address3": null, "city": "Stockton", "zip_code": "95207", "country": "US", "state": "CA", "display_address": ["6393 Pacific Ave", "Stockton, CA 95207"]}, "phone": "+12093026825", "display_phone": "(209) 302-6825", "distance": 38199.5382651278}, {"id": "SbjAjfh2riT7rWxo2OITJA", "alias": "candies-kitchen-sacramento", "name": "Candies Kitchen", "image_url": "https://s3-media1.fl.yelpcdn.com/bphoto/wZehoZn9-gQLuWPX4QIOLA/o.jpg", "is_closed": false, "url": "https://www.yelp.com/biz/candies-kitchen-sacramento?adjust_creative=IokN4du3-7NwKcCaUms5LA&utm_campaign=yelp_api_v3&utm_medium=api_v3_business_search&utm_source=IokN4du3-7NwKcCaUms5LA", "review_count": 2, "categories": [{"alias": "cajun", "title": "Cajun/Creole"}, {"alias": "soulfood", "title": "Soul Food"}, {"alias": "foodtrucks", "title": "Food Trucks"}], "rating": 3.5, "coordinates": {"latitude": 38.59429, "longitude": -121.48536}, "transactions": [], "location": {"address1": "1100 Richards Blvd", "address2": null, "address3": "", "city": "Sacramento", "zip_code": "95811", "country": "US", "state": "CA", "display_address": ["1100 Richards Blvd", "Sacramento, CA 95811"]}, "phone": "+19164399922", "display_phone": "(916) 439-9922", "distance": 50301.587787284705}, {"id": "Mij1ZvLLpqvNmJFWNz9IsQ", "alias": "paquitas-mexican-grill-sacramento-2", "name": "Paquitas Mexican Grill", "image_url": "https://s3-media2.fl.yelpcdn.com/bphoto/Onav96dKMe8cWeFXMNFcyQ/o.jpg", "is_closed": false, "url": "https://www.yelp.com/biz/paquitas-mexican-grill-sacramento-2?adjust_creative=IokN4du3-7NwKcCaUms5LA&utm_campaign=yelp_api_v3&utm_medium=api_v3_business_search&utm_source=IokN4du3-7NwKcCaUms5LA", "review_count": 73, "categories": [{"alias": "foodtrucks", "title": "Food Trucks"}, {"alias": "mexican", "title": "Mexican"}], "rating": 4.0, "coordinates": {"latitude": 38.549732, "longitude": -121.406281}, "transactions": [], "price": "$", "location": {"address1": "49 Bicentennial Cir", "address2": null, "address3": "", "city": "Sacramento", "zip_code": "95826", "country": "US", "state": "CA", "display_address": ["49 Bicentennial Cir", "Sacramento, CA 95826"]}, "phone": "+15308484666", "display_phone": "(530) 848-4666", "distance": 48984.1127005006}, {"id": "i6ZwMjYIbmFZ8EGYz6x5Bw", "alias": "phat-salads-and-wraps-napa", "name": "Phat Salads and Wraps", "image_url": "https://s3-media2.fl.yelpcdn.com/bphoto/FbrUwtrVIx2cLXiPdBhHkw/o.jpg", "is_closed": false, "url": "https://www.yelp.com/biz/phat-salads-and-wraps-napa?adjust_creative=IokN4du3-7NwKcCaUms5LA&utm_campaign=yelp_api_v3&utm_medium=api_v3_business_search&utm_source=IokN4du3-7NwKcCaUms5LA", "review_count": 48, "categories": [{"alias": "foodtrucks", "title": "Food Trucks"}, {"alias": "wraps", "title": "Wraps"}], "rating": 4.0, "coordinates": {"latitude": 38.3234491, "longitude": -122.3023962}, "transactions": [], "price": "$", "location": {"address1": "", "address2": "", "address3": "", "city": "Napa", "zip_code": "94558", "country": "US", "state": "CA", "display_address": ["Napa, CA 94558"]}, "phone": "+17073639658", "display_phone": "(707) 363-9658", "distance": 54986.611170873926}, {"id": "DC42MrpWtqEeWRmMsn6Z8w", "alias": "the-everest-momo-fremont-2", "name": "The Everest Momo", "image_url": "https://s3-media2.fl.yelpcdn.com/bphoto/T2f7tUQ1c104otx9oSdqYw/o.jpg", "is_closed": false, "url": "https://www.yelp.com/biz/the-everest-momo-fremont-2?adjust_creative=IokN4du3-7NwKcCaUms5LA&utm_campaign=yelp_api_v3&utm_medium=api_v3_business_search&utm_source=IokN4du3-7NwKcCaUms5LA", "review_count": 23, "categories": [{"alias": "foodtrucks", "title": "Food Trucks"}, {"alias": "indpak", "title": "Indian"}, {"alias": "himalayan", "title": "Himalayan/Nepalese"}], "rating": 4.5, "coordinates": {"latitude": 37.54643, "longitude": -121.98512}, "transactions": [], "price": "$", "location": {"address1": "39233 Fremont Blvd", "address2": null, "address3": null, "city": "Fremont", "zip_code": "94538", "country": "US", "state": "CA", "display_address": ["39233 Fremont Blvd", "Fremont, CA 94538"]}, "phone": "+14088406369", "display_phone": "(408) 840-6369", "distance": 74181.67997098832}, {"id": "uuouQQIFQ1B9mkmcxaAKFA", "alias": "tacos-el-rey-oakland", "name": "Tacos El Rey", "image_url": "https://s3-media2.fl.yelpcdn.com/bphoto/DblyFrtT9uyPCQAUfPbYbQ/o.jpg", "is_closed": false, "url": "https://www.yelp.com/biz/tacos-el-rey-oakland?adjust_creative=IokN4du3-7NwKcCaUms5LA&utm_campaign=yelp_api_v3&utm_medium=api_v3_business_search&utm_source=IokN4du3-7NwKcCaUms5LA", "review_count": 9, "categories": [{"alias": "foodtrucks", "title": "Food Trucks"}, {"alias": "mexican", "title": "Mexican"}], "rating": 4.0, "coordinates": {"latitude": 37.8294034, "longitude": -122.2875758}, "transactions": [], "price": "$", "location": {"address1": "40th & Horton", "address2": "", "address3": null, "city": "Oakland", "zip_code": "94608", "country": "US", "state": "CA", "display_address": ["40th & Horton", "Oakland, CA 94608"]}, "phone": "+15108130232", "display_phone": "(510) 813-0232", "distance": 64124.64459891508}, {"id": "jCcAuXhCpeJP2n-8ol7mxg", "alias": "kolobok-russian-soul-food-truck-oakland", "name": "Kolobok Russian Soul Food Truck", "image_url": "https://s3-media1.fl.yelpcdn.com/bphoto/k8s1Bfc05Iw7SJXE6VJ74Q/o.jpg", "is_closed": false, "url": "https://www.yelp.com/biz/kolobok-russian-soul-food-truck-oakland?adjust_creative=IokN4du3-7NwKcCaUms5LA&utm_campaign=yelp_api_v3&utm_medium=api_v3_business_search&utm_source=IokN4du3-7NwKcCaUms5LA", "review_count": 47, "categories": [{"alias": "foodtrucks", "title": "Food Trucks"}, {"alias": "russian", "title": "Russian"}], "rating": 4.5, "coordinates": {"latitude": 37.7883087690458, "longitude": -122.309032460882}, "transactions": [], "price": "$$", "location": {"address1": null, "address2": null, "address3": "", "city": "Oakland", "zip_code": "94577", "country": "US", "state": "CA", "display_address": ["Oakland, CA 94577"]}, "phone": "+15105996542", "display_phone": "(510) 599-6542", "distance": 68426.69208943543}, {"id": "7ETh5878KSnGQnLxLE_yaQ", "alias": "gyrostop-sacramento", "name": "GyroStop", "image_url": "https://s3-media1.fl.yelpcdn.com/bphoto/xQsct4YKnW0qSJOmK_gsxw/o.jpg", "is_closed": false, "url": "https://www.yelp.com/biz/gyrostop-sacramento?adjust_creative=IokN4du3-7NwKcCaUms5LA&utm_campaign=yelp_api_v3&utm_medium=api_v3_business_search&utm_source=IokN4du3-7NwKcCaUms5LA", "review_count": 74, "categories": [{"alias": "mediterranean", "title": "Mediterranean"}, {"alias": "foodtrucks", "title": "Food Trucks"}], "rating": 4.0, "coordinates": {"latitude": 38.6621589660645, "longitude": -121.336738586426}, "transactions": [], "price": "$$", "location": {"address1": "", "address2": "", "address3": "", "city": "Sacramento", "zip_code": "95841", "country": "US", "state": "CA", "display_address": ["Sacramento, CA 95841"]}, "phone": "+19163044976", "display_phone": "(916) 304-4976", "distance": 62231.31662523972}, {"id": "XTJJ_PUQoJKIh31ZIzsFzw", "alias": "cochinita-food-truck-san-francisco-6", "name": "Cochinita Food Truck", "image_url": "https://s3-media2.fl.yelpcdn.com/bphoto/w77SOd2jVJjOh1lwuYQ42w/o.jpg", "is_closed": false, "url": "https://www.yelp.com/biz/cochinita-food-truck-san-francisco-6?adjust_creative=IokN4du3-7NwKcCaUms5LA&utm_campaign=yelp_api_v3&utm_medium=api_v3_business_search&utm_source=IokN4du3-7NwKcCaUms5LA", "review_count": 49, "categories": [{"alias": "foodtrucks", "title": "Food Trucks"}, {"alias": "mexican", "title": "Mexican"}], "rating": 4.5, "coordinates": {"latitude": 37.770753, "longitude": -122.3916722}, "transactions": [], "price": "$", "location": {"address1": "601 Mission Blvd N", "address2": null, "address3": "", "city": "San Francisco", "zip_code": "94103", "country": "US", "state": "CA", "display_address": ["601 Mission Blvd N", "San Francisco, CA 94103"]}, "phone": "+14159883663", "display_phone": "(415) 988-3663", "distance": 75354.21095458626}, {"id": "8SNGFcMWZkvS4GWDUL8w1Q", "alias": "noon-o-kabob-san-jose-4", "name": "Noon O Kabob", "image_url": "https://s3-media2.fl.yelpcdn.com/bphoto/5GmY5FRw0m0XEWC5XXbVlA/o.jpg", "is_closed": false, "url": "https://www.yelp.com/biz/noon-o-kabob-san-jose-4?adjust_creative=IokN4du3-7NwKcCaUms5LA&utm_campaign=yelp_api_v3&utm_medium=api_v3_business_search&utm_source=IokN4du3-7NwKcCaUms5LA", "review_count": 29, "categories": [{"alias": "foodtrucks", "title": "Food Trucks"}, {"alias": "kebab", "title": "Kebab"}, {"alias": "persian", "title": "Persian/Iranian"}], "rating": 4.5, "coordinates": {"latitude": 37.3940232, "longitude": -122.0288052}, "transactions": [], "price": "$$", "location": {"address1": null, "address2": null, "address3": null, "city": "San Jose", "zip_code": "95101", "country": "US", "state": "CA", "display_address": ["San Jose, CA 95101"]}, "phone": "+14083346777", "display_phone": "(408) 334-6777", "distance": 91477.72732133504}, {"id": "C9uewBH5505NV0EWYBIJAA", "alias": "lady-and-l-aperitivo-san-jose", "name": "Lady & L'Aperitivo", "image_url": "https://s3-media4.fl.yelpcdn.com/bphoto/3nz0sRE9MlOq_4xVRQRt9w/o.jpg", "is_closed": false, "url": "https://www.yelp.com/biz/lady-and-l-aperitivo-san-jose?adjust_creative=IokN4du3-7NwKcCaUms5LA&utm_campaign=yelp_api_v3&utm_medium=api_v3_business_search&utm_source=IokN4du3-7NwKcCaUms5LA", "review_count": 1, "categories": [{"alias": "bakeries", "title": "Bakeries"}, {"alias": "desserts", "title": "Desserts"}, {"alias": "cheesesteaks", "title": "Cheesesteaks"}], "rating": 5.0, "coordinates": {"latitude": 37.2208938598633, "longitude": -121.861633300781}, "transactions": [], "location": {"address1": null, "address2": null, "address3": "", "city": "San Jose", "zip_code": "95120", "country": "US", "state": "CA", "display_address": ["San Jose, CA 95120"]}, "phone": "", "display_phone": "", "distance": 112496.25679619082}]}