{"location": "Rohnert Park, CA", "term": "restaurant", "radius": 2400, "businesses": [{"id": "dt5ZL5N6NlO6-cJE2RMfIg", "alias": "smokin-bowls-rohnert-park", "name": "Smokin Bowls", "image_url": "https://s3-media3.fl.yelpcdn.com/bphoto/ud-7ZgtTTXbCPEqsHw95Xw/o.jpg", "is_closed": false, "url": "https://www.yelp.com/biz/smokin-bowls-rohnert-park?adjust_creative=IokN4du3-7NwKcCaUms5LA&utm_campaign=yelp_api_v3&utm_medium=api_v3_business_search&utm_source=IokN4du3-7NwKcCaUms5LA", "review_count": 302, "categories": [{"alias": "comfortfood", "title": "Comfort Food"}, {"alias": "gluten_free", "title": "Gluten-Free"}], "rating": 4.5, "coordinates": {"latitude": 38.3351310465053, "longitude": -122.706113005962}, "transactions": [], "price": "$", "location": {"address1": "295 Southwest Blvd", "address2": "", "address3": null, "city": "Rohnert Park", "zip_code": "94928", "country": "US", "state": "CA", "display_address": ["295 Southwest Blvd", "Rohnert Park, CA 94928"]}, "phone": "+17076655265", "display_phone": "(707) 665-5265", "distance": 1555.7185278933011}, {"id": "8gE3bMk6zijh3zPCklPJvg", "alias": "sushiko-rohnert-park-3", "name": "Sushiko", "image_url": "https://s3-media2.fl.yelpcdn.com/bphoto/K_jZ5WNbsvbLhfzSYsj9jA/o.jpg", "is_closed": false, "url": "https://www.yelp.com/biz/sushiko-rohnert-park-3?adjust_creative=IokN4du3-7NwKcCaUms5LA&utm_campaign=yelp_api_v3&utm_medium=api_v3_business_search&utm_source=IokN4du3-7NwKcCaUms5LA", "review_count": 618, "categories": [{"alias": "sushi", "title": "Sushi Bars"}], "rating": 4.5, "coordinates": {"latitude": 38.34952, "longitude": -122.71127}, "transactions": [], "price": "$$", "location": {"address1": "6265 Commerce Blvd", "address2": "Ste 174", "address3": "", "city": "Rohnert Park", "zip_code": "94928", "country": "US", "state": "CA", "display_address": ["6265 Commerce Blvd", "Ste 174", "Rohnert Park, CA 94928"]}, "phone": "+17075852774", "display_phone": "(707) 585-2774", "distance": 606.7294818536374}, {"id": "lK4IeCLPar6hnyse5nz8lQ", "alias": "the-twins-restaurant-cotati", "name": "The Twins Restaurant", "image_url": "https://s3-media1.fl.yelpcdn.com/bphoto/394tHds-sdgQdZktdnnt7w/o.jpg", "is_closed": false, "url": "https://www.yelp.com/biz/the-twins-restaurant-cotati?adjust_creative=IokN4du3-7NwKcCaUms5LA&utm_campaign=yelp_api_v3&utm_medium=api_v3_business_search&utm_source=IokN4du3-7NwKcCaUms5LA", "review_count": 47, "categories": [{"alias": "tradamerican", "title": "American (Traditional)"}, {"alias": "breakfast_brunch", "title": "Breakfast & Brunch"}], "rating": 5.0, "coordinates": {"latitude": 38.32825, "longitude": -122.697405}, "transactions": [], "price": "$$", "location": {"address1": "572 E Cotati Ave", "address2": null, "address3": "", "city": "Cotati", "zip_code": "94931", "country": "US", "state": "CA", "display_address": ["572 E Cotati Ave", "Cotati, CA 94931"]}, "phone": "+17072423075", "display_phone": "(707) 242-3075", "distance": 2388.673610479549}, {"id": "BRjRqTXKP-xLpD4Sxx4xbw", "alias": "simmer-rohnert-park-3", "name": "Simmer", "image_url": "https://s3-media2.fl.yelpcdn.com/bphoto/hzHwAZ63NLZBO2UulU_uEQ/o.jpg", "is_closed": false, "url": "https://www.yelp.com/biz/simmer-rohnert-park-3?adjust_creative=IokN4du3-7NwKcCaUms5LA&utm_campaign=yelp_api_v3&utm_medium=api_v3_business_search&utm_source=IokN4du3-7NwKcCaUms5LA", "review_count": 153, "categories": [{"alias": "vietnamese", "title": "Vietnamese"}], "rating": 4.5, "coordinates": {"latitude": 38.346854, "longitude": -122.708391}, "transactions": [], "price": "$$", "location": {"address1": "6358 Commerce Blvd", "address2": null, "address3": "", "city": "Rohnert Park", "zip_code": "94928", "country": "US", "state": "CA", "display_address": ["6358 Commerce Blvd", "Rohnert Park, CA 94928"]}, "phone": "+17078437416", "display_phone": "(707) 843-7416", "distance": 448.7484183251151}, {"id": "rZ2jg4lv5CXB4HHE3mnpYg", "alias": "\u00e0zalo-rohnert-park", "name": "\u00c0zalo", "image_url": "https://s3-media3.fl.yelpcdn.com/bphoto/PRB4pfA2zpF0hqO8SHuyZg/o.jpg", "is_closed": false, "url": "https://www.yelp.com/biz/%C3%A0zalo-rohnert-park?adjust_creative=IokN4du3-7NwKcCaUms5LA&utm_campaign=yelp_api_v3&utm_medium=api_v3_business_search&utm_source=IokN4du3-7NwKcCaUms5LA", "review_count": 187, "categories": [{"alias": "mexican", "title": "Mexican"}, {"alias": "mideastern", "title": "Middle Eastern"}, {"alias": "burgers", "title": "Burgers"}], "rating": 5.0, "coordinates": {"latitude": 38.3520780859652, "longitude": -122.712179236114}, "transactions": [], "price": "$$", "location": {"address1": "5979 Commerce Blvd", "address2": "Ste 8", "address3": null, "city": "Rohnert Park", "zip_code": "94928", "country": "US", "state": "CA", "display_address": ["5979 Commerce Blvd", "Ste 8", "Rohnert Park, CA 94928"]}, "phone": "+17073037702", "display_phone": "(707) 303-7702", "distance": 756.1076144886865}, {"id": "poWgny8OxALJ0e8ZvK1_oQ", "alias": "cafe-mimosa-rohnert-park-3", "name": "Cafe Mimosa", "image_url": "https://s3-media3.fl.yelpcdn.com/bphoto/hMlqge_QufZasOdR_HIFDw/o.jpg", "is_closed": false, "url": "https://www.yelp.com/biz/cafe-mimosa-rohnert-park-3?adjust_creative=IokN4du3-7NwKcCaUms5LA&utm_campaign=yelp_api_v3&utm_medium=api_v3_business_search&utm_source=IokN4du3-7NwKcCaUms5LA", "review_count": 210, "categories": [{"alias": "breakfast_brunch", "title": "Breakfast & Brunch"}], "rating": 4.5, "coordinates": {"latitude": 38.34868283, "longitude": -122.720714}, "transactions": [], "price": "$$", "location": {"address1": "451 Rohnert Park Expy", "address2": null, "address3": "", "city": "Rohnert Park", "zip_code": "94928", "country": "US", "state": "CA", "display_address": ["451 Rohnert Park Expy", "Rohnert Park, CA 94928"]}, "phone": "+17075953764", "display_phone": "(707) 595-3764", "distance": 1436.4180603158698}, {"id": "nq_hOFGmTuxEK3U5T1z5CQ", "alias": "bear-republic-brewing-co-rohnert-park-2", "name": "Bear Republic Brewing Co.", "image_url": "https://s3-media2.fl.yelpcdn.com/bphoto/0QrQraA85fgWcQGbeD6b9Q/o.jpg", "is_closed": false, "url": "https://www.yelp.com/biz/bear-republic-brewing-co-rohnert-park-2?adjust_creative=IokN4du3-7NwKcCaUms5LA&utm_campaign=yelp_api_v3&utm_medium=api_v3_business_search&utm_source=IokN4du3-7NwKcCaUms5LA", "review_count": 424, "categories": [{"alias": "pubs", "title": "Pubs"}, {"alias": "tradamerican", "title": "American (Traditional)"}, {"alias": "breweries", "title": "Breweries"}], "rating": 3.5, "coordinates": {"latitude": 38.36472, "longitude": -122.71017}, "transactions": [], "price": "$$", "location": {"address1": "5000 Roberts Lake Rd", "address2": null, "address3": "", "city": "Rohnert Park", "zip_code": "94928", "country": "US", "state": "CA", "display_address": ["5000 Roberts Lake Rd", "Rohnert Park, CA 94928"]}, "phone": "+17075852722", "display_phone": "(707) 585-2722", "distance": 1833.5808870983503}, {"id": "_gOKWWR-m3glvjEQuuomkA", "alias": "don-julios-rincon-latin-grill-and-pupusas-rohnert-park", "name": "Don Julio's Rincon Latin Grill and Pupusas", "image_url": "https://s3-media2.fl.yelpcdn.com/bphoto/ye2g4o4FAFpjE1J8NqCRXg/o.jpg", "is_closed": false, "url": "https://www.yelp.com/biz/don-julios-rincon-latin-grill-and-pupusas-rohnert-park?adjust_creative=IokN4du3-7NwKcCaUms5LA&utm_campaign=yelp_api_v3&utm_medium=api_v3_business_search&utm_source=IokN4du3-7NwKcCaUms5LA", "review_count": 601, "categories": [{"alias": "salvadoran", "title": "Salvadoran"}, {"alias": "mexican", "title": "Mexican"}], "rating": 4.5, "coordinates": {"latitude": 38.3358972, "longitude": -122.7073831}, "transactions": [], "price": "$$", "location": {"address1": "217 Southwest Blvd", "address2": null, "address3": "", "city": "Rohnert Park", "zip_code": "94928", "country": "US", "state": "CA", "display_address": ["217 Southwest Blvd", "Rohnert Park, CA 94928"]}, "phone": "+17072423160", "display_phone": "(707) 242-3160", "distance": 1489.676696462279}, {"id": "ZftiYbvlbSeuWurSP63jIQ", "alias": "grav-south-brew-cotati-2", "name": "Grav South Brew", "image_url": "https://s3-media3.fl.yelpcdn.com/bphoto/ocFxC-295jmdOH5rmAVhzg/o.jpg", "is_closed": false, "url": "https://www.yelp.com/biz/grav-south-brew-cotati-2?adjust_creative=IokN4du3-7NwKcCaUms5LA&utm_campaign=yelp_api_v3&utm_medium=api_v3_business_search&utm_source=IokN4du3-7NwKcCaUms5LA", "review_count": 126, "categories": [{"alias": "breweries", "title": "Breweries"}, {"alias": "beerbar", "title": "Beer Bar"}, {"alias": "tradamerican", "title": "American (Traditional)"}], "rating": 4.5, "coordinates": {"latitude": 38.332395, "longitude": -122.714007}, "transactions": [], "price": "$$", "location": {"address1": "7950 Redwood Dr", "address2": "Ste 15", "address3": null, "city": "Cotati", "zip_code": "94931", "country": "US", "state": "CA", "display_address": ["7950 Redwood Dr", "Ste 15", "Cotati, CA 94931"]}, "phone": "+17077534198", "display_phone": "(707) 753-4198", "distance": 2033.1097105635624}, {"id": "EwQKjDjOsPmBRDemUQSJIw", "alias": "hana-japanese-restaurant-rohnert-park", "name": "Hana Japanese Restaurant", "image_url": "https://s3-media1.fl.yelpcdn.com/bphoto/WKR4Cv7jffcgBjq-HdiNmw/o.jpg", "is_closed": false, "url": "https://www.yelp.com/biz/hana-japanese-restaurant-rohnert-park?adjust_creative=IokN4du3-7NwKcCaUms5LA&utm_campaign=yelp_api_v3&utm_medium=api_v3_business_search&utm_source=IokN4du3-7NwKcCaUms5LA", "review_count": 579, "categories": [{"alias": "japanese", "title": "Japanese"}, {"alias": "sushi", "title": "Sushi Bars"}], "rating": 4.0, "coordinates": {"latitude": 38.3641568126003, "longitude": -122.709838805155}, "transactions": [], "price": "$$$", "location": {"address1": "101 Golf Course Dr", "address2": "", "address3": "", "city": "Rohnert Park", "zip_code": "94928", "country": "US", "state": "CA", "display_address": ["101 Golf Course Dr", "Rohnert Park, CA 94928"]}, "phone": "+17075860270", "display_phone": "(707) 586-0270", "distance": 1744.3404556291641}, {"id": "JasUD2NZ9Kdd65u8yIXBwA", "alias": "kyoto-restaurant-rohnert-park", "name": "Kyoto Restaurant", "image_url": "https://s3-media2.fl.yelpcdn.com/bphoto/DiUeSOPtDEF3Bpjb0XSNcg/o.jpg", "is_closed": false, "url": "https://www.yelp.com/biz/kyoto-restaurant-rohnert-park?adjust_creative=IokN4du3-7NwKcCaUms5LA&utm_campaign=yelp_api_v3&utm_medium=api_v3_business_search&utm_source=IokN4du3-7NwKcCaUms5LA", "review_count": 288, "categories": [{"alias": "japanese", "title": "Japanese"}], "rating": 4.0, "coordinates": {"latitude": 38.3496751, "longitude": -122.7092335}, "transactions": [], "price": "$$", "location": {"address1": "5 Padre Pkwy", "address2": "", "address3": "", "city": "Rohnert Park", "zip_code": "94928", "country": "US", "state": "CA", "display_address": ["5 Padre Pkwy", "Rohnert Park, CA 94928"]}, "phone": "+17075844204", "display_phone": "(707) 584-4204", "distance": 333.13131420469216}, {"id": "3l3yCUpVTGJE6kHMOolehw", "alias": "quick-sushi-rohnert-park", "name": "Quick Sushi", "image_url": "https://s3-media4.fl.yelpcdn.com/bphoto/C3m_6FXcacj-lpDdR0E3Kw/o.jpg", "is_closed": false, "url": "https://www.yelp.com/biz/quick-sushi-rohnert-park?adjust_creative=IokN4du3-7NwKcCaUms5LA&utm_campaign=yelp_api_v3&utm_medium=api_v3_business_search&utm_source=IokN4du3-7NwKcCaUms5LA", "review_count": 17, "categories": [{"alias": "sushi", "title": "Sushi Bars"}], "rating": 4.5, "coordinates": {"latitude": 38.34856583, "longitude": -122.72062983}, "transactions": [], "location": {"address1": "449 Rohnert Park Expy W", "address2": null, "address3": "", "city": "Rohnert Park", "zip_code": "94928", "country": "US", "state": "CA", "display_address": ["449 Rohnert Park Expy W", "Rohnert Park, CA 94928"]}, "phone": "+17078062666", "display_phone": "(707) 806-2666", "distance": 1399.8662713271387}, {"id": "-wLsdTaqj-mv3IevjjTlWQ", "alias": "amy-s-drive-thru-rohnert-park", "name": "Amy\u2019s Drive Thru", "image_url": "https://s3-media2.fl.yelpcdn.com/bphoto/Q6O7nTOHU0EF32y4NxyCvw/o.jpg", "is_closed": false, "url": "https://www.yelp.com/biz/amy-s-drive-thru-rohnert-park?adjust_creative=IokN4du3-7NwKcCaUms5LA&utm_campaign=yelp_api_v3&utm_medium=api_v3_business_search&utm_source=IokN4du3-7NwKcCaUms5LA", "review_count": 1270, "categories": [{"alias": "gluten_free", "title": "Gluten-Free"}, {"alias": "vegan", "title": "Vegan"}, {"alias": "pizza", "title": "Pizza"}], "rating": 4.0, "coordinates": {"latitude": 38.362857525789, "longitude": -122.715517576838}, "transactions": [], "price": "$", "location": {"address1": "58 Golf Course Dr W", "address2": null, "address3": "", "city": "Rohnert Park", "zip_code": "95407", "country": "US", "state": "CA", "display_address": ["58 Golf Course Dr W", "Rohnert Park, CA 95407"]}, "phone": "+17077553629", "display_phone": "(707) 755-3629", "distance": 1814.501935364858}, {"id": "7uQvBjaeO-lsgzNVIE2GMw", "alias": "acme-burger-cotati-2", "name": "Acme Burger", "image_url": "https://s3-media1.fl.yelpcdn.com/bphoto/53W6DAYdqZQa7vLadZjksQ/o.jpg", "is_closed": false, "url": "https://www.yelp.com/biz/acme-burger-cotati-2?adjust_creative=IokN4du3-7NwKcCaUms5LA&utm_campaign=yelp_api_v3&utm_medium=api_v3_business_search&utm_source=IokN4du3-7NwKcCaUms5LA", "review_count": 225, "categories": [{"alias": "burgers", "title": "Burgers"}, {"alias": "tradamerican", "title": "American (Traditional)"}, {"alias": "sandwiches", "title": "Sandwiches"}], "rating": 4.0, "coordinates": {"latitude": 38.32809833, "longitude": -122.69776167}, "transactions": ["pickup"], "price": "$$", "location": {"address1": "550 E Cotati Ave", "address2": null, "address3": "", "city": "Cotati", "zip_code": "94931", "country": "US", "state": "CA", "display_address": ["550 E Cotati Ave", "Cotati, CA 94931"]}, "phone": "+17076655620", "display_phone": "(707) 665-5620", "distance": 2398.216504791171}, {"id": "uPMcN06N9kTjepOIy4HJ0Q", "alias": "wing-man-cotati", "name": "Wing Man", "image_url": "https://s3-media1.fl.yelpcdn.com/bphoto/k1kCNwxQGdoXDmC5DcCZzQ/o.jpg", "is_closed": false, "url": "https://www.yelp.com/biz/wing-man-cotati?adjust_creative=IokN4du3-7NwKcCaUms5LA&utm_campaign=yelp_api_v3&utm_medium=api_v3_business_search&utm_source=IokN4du3-7NwKcCaUms5LA", "review_count": 85, "categories": [{"alias": "foodtrucks", "title": "Food Trucks"}, {"alias": "chicken_wings", "title": "Chicken Wings"}], "rating": 4.5, "coordinates": {"latitude": 38.327087, "longitude": -122.705307}, "transactions": ["delivery", "pickup"], "price": "$$", "location": {"address1": "101 East Cotati Ave", "address2": null, "address3": null, "city": "Cotati", "zip_code": "94931", "country": "US", "state": "CA", "display_address": ["101 East Cotati Ave", "Cotati, CA 94931"]}, "phone": "+17077949464", "display_phone": "(707) 794-9464", "distance": 2442.9817025068455}, {"id": "XRnceu7ViCc9t6zRb_H2KQ", "alias": "cape-cod-fish-n-chips-cotati", "name": "Cape Cod Fish N' Chips", "image_url": "https://s3-media3.fl.yelpcdn.com/bphoto/TGpHuCkNtLVzJD6Hs6e-Lg/o.jpg", "is_closed": false, "url": "https://www.yelp.com/biz/cape-cod-fish-n-chips-cotati?adjust_creative=IokN4du3-7NwKcCaUms5LA&utm_campaign=yelp_api_v3&utm_medium=api_v3_business_search&utm_source=IokN4du3-7NwKcCaUms5LA", "review_count": 224, "categories": [{"alias": "seafood", "title": "Seafood"}, {"alias": "fishnchips", "title": "Fish & Chips"}], "rating": 4.0, "coordinates": {"latitude": 38.333897, "longitude": -122.712396}, "transactions": [], "price": "$$", "location": {"address1": "7530 Commerce Blvd", "address2": "Ste C", "address3": "", "city": "Cotati", "zip_code": "94931", "country": "US", "state": "CA", "display_address": ["7530 Commerce Blvd", "Ste C", "Cotati, CA 94931"]}, "phone": "+17077920982", "display_phone": "(707) 792-0982", "distance": 1824.0253958629073}, {"id": "tMhK2sN1_2ywH8CfSgTfXw", "alias": "spring-thai-cotati", "name": "Spring Thai", "image_url": "https://s3-media4.fl.yelpcdn.com/bphoto/GMMr32Rmrx932FOjgKe2_g/o.jpg", "is_closed": false, "url": "https://www.yelp.com/biz/spring-thai-cotati?adjust_creative=IokN4du3-7NwKcCaUms5LA&utm_campaign=yelp_api_v3&utm_medium=api_v3_business_search&utm_source=IokN4du3-7NwKcCaUms5LA", "review_count": 177, "categories": [{"alias": "thai", "title": "Thai"}, {"alias": "asianfusion", "title": "Asian Fusion"}], "rating": 4.0, "coordinates": {"latitude": 38.3278185540848, "longitude": -122.698554809693}, "transactions": [], "price": "$$", "location": {"address1": "538 E Cotati Ave", "address2": "", "address3": null, "city": "Cotati", "zip_code": "94931", "country": "US", "state": "CA", "display_address": ["538 E Cotati Ave", "Cotati, CA 94931"]}, "phone": "+17076655180", "display_phone": "(707) 665-5180", "distance": 2416.318487760219}, {"id": "EoOD8eTirQ65ahUkkxBx6Q", "alias": "la-hoya-rohnert-park-2", "name": "La Hoya", "image_url": "https://s3-media2.fl.yelpcdn.com/bphoto/Qn2iQITVVR8UkjybV0cw0A/o.jpg", "is_closed": false, "url": "https://www.yelp.com/biz/la-hoya-rohnert-park-2?adjust_creative=IokN4du3-7NwKcCaUms5LA&utm_campaign=yelp_api_v3&utm_medium=api_v3_business_search&utm_source=IokN4du3-7NwKcCaUms5LA", "review_count": 21, "categories": [{"alias": "newmexican", "title": "New Mexican Cuisine"}], "rating": 4.0, "coordinates": {"latitude": 38.35211, "longitude": -122.71226}, "transactions": ["delivery", "pickup"], "location": {"address1": "5979 Commerce Blvd", "address2": "Ste 3 & 4", "address3": "", "city": "Rohnert Park", "zip_code": "94928", "country": "US", "state": "CA", "display_address": ["5979 Commerce Blvd", "Ste 3 & 4", "Rohnert Park, CA 94928"]}, "phone": "+17072069640", "display_phone": "(707) 206-9640", "distance": 765.4285959730307}, {"id": "5UgdrIrJWfac9REkniCyHg", "alias": "mai-vietnamese-cuisine-cotati", "name": "Mai Vietnamese Cuisine", "image_url": "https://s3-media3.fl.yelpcdn.com/bphoto/yllQi3ki7MIF-Apw9EJ5rA/o.jpg", "is_closed": false, "url": "https://www.yelp.com/biz/mai-vietnamese-cuisine-cotati?adjust_creative=IokN4du3-7NwKcCaUms5LA&utm_campaign=yelp_api_v3&utm_medium=api_v3_business_search&utm_source=IokN4du3-7NwKcCaUms5LA", "review_count": 354, "categories": [{"alias": "vietnamese", "title": "Vietnamese"}], "rating": 4.0, "coordinates": {"latitude": 38.331109, "longitude": -122.716399}, "transactions": [], "price": "$$", "location": {"address1": "8492 Gravenstein Hwy", "address2": "", "address3": "", "city": "Cotati", "zip_code": "94931", "country": "US", "state": "CA", "display_address": ["8492 Gravenstein Hwy", "Cotati, CA 94931"]}, "phone": "+17076659628", "display_phone": "(707) 665-9628", "distance": 2253.136909491086}, {"id": "Um43vrVFwEGo7F1Gc3Y1hQ", "alias": "china-village-cotati", "name": "China Village", "image_url": "https://s3-media2.fl.yelpcdn.com/bphoto/Ri3XnMU3wH5Nfv-u1Tdbpg/o.jpg", "is_closed": false, "url": "https://www.yelp.com/biz/china-village-cotati?adjust_creative=IokN4du3-7NwKcCaUms5LA&utm_campaign=yelp_api_v3&utm_medium=api_v3_business_search&utm_source=IokN4du3-7NwKcCaUms5LA", "review_count": 200, "categories": [{"alias": "chinese", "title": "Chinese"}], "rating": 4.0, "coordinates": {"latitude": 38.3319, "longitude": -122.71548}, "transactions": ["pickup"], "price": "$$", "location": {"address1": "8501 Gravenstein Hwy", "address2": null, "address3": "", "city": "Cotati", "zip_code": "94931", "country": "US", "state": "CA", "display_address": ["8501 Gravenstein Hwy", "Cotati, CA 94931"]}, "phone": "+17077958810", "display_phone": "(707) 795-8810", "distance": 2128.5878761971803}, {"id": "hSimZzA2H382xoqisaOCvQ", "alias": "saigon-cafe-cotati-2", "name": "Saigon Cafe", "image_url": "https://s3-media1.fl.yelpcdn.com/bphoto/AjAtvgSMKlM__bGcYoUs6w/o.jpg", "is_closed": false, "url": "https://www.yelp.com/biz/saigon-cafe-cotati-2?adjust_creative=IokN4du3-7NwKcCaUms5LA&utm_campaign=yelp_api_v3&utm_medium=api_v3_business_search&utm_source=IokN4du3-7NwKcCaUms5LA", "review_count": 10, "categories": [{"alias": "vietnamese", "title": "Vietnamese"}], "rating": 4.5, "coordinates": {"latitude": 38.328097, "longitude": -122.697972}, "transactions": [], "location": {"address1": "548  E Cotati Ave", "address2": "", "address3": null, "city": "Cotati", "zip_code": "94931", "country": "US", "state": "CA", "display_address": ["548  E Cotati Ave", "Cotati, CA 94931"]}, "phone": "+17076645925", "display_phone": "(707) 664-5925", "distance": 2397.459136747681}, {"id": "91K6Q7-k3Nnt-SntulXRSA", "alias": "sonoma-sourdough-sandwiches-rohnert-park-2", "name": "Sonoma Sourdough Sandwiches", "image_url": "https://s3-media3.fl.yelpcdn.com/bphoto/MoKKDxq09gHcsvkNLwxYng/o.jpg", "is_closed": false, "url": "https://www.yelp.com/biz/sonoma-sourdough-sandwiches-rohnert-park-2?adjust_creative=IokN4du3-7NwKcCaUms5LA&utm_campaign=yelp_api_v3&utm_medium=api_v3_business_search&utm_source=IokN4du3-7NwKcCaUms5LA", "review_count": 162, "categories": [{"alias": "delis", "title": "Delis"}, {"alias": "sandwiches", "title": "Sandwiches"}], "rating": 4.5, "coordinates": {"latitude": 38.35808, "longitude": -122.71056}, "transactions": [], "price": "$$", "location": {"address1": "5440 State Farm Dr", "address2": "", "address3": "", "city": "Rohnert Park", "zip_code": "94928", "country": "US", "state": "CA", "display_address": ["5440 State Farm Dr", "Rohnert Park, CA 94928"]}, "phone": "+17075859711", "display_phone": "(707) 585-9711", "distance": 1118.876488344019}, {"id": "JqWhT_nucSN9nr_XJ-4Edw", "alias": "sams-mediterranean-cafe-and-deli-rohnert-park-5", "name": "Sam's Mediterranean Cafe & Deli", "image_url": "https://s3-media1.fl.yelpcdn.com/bphoto/O3ZsLDKaC_r2Z0YnBuzBxA/o.jpg", "is_closed": false, "url": "https://www.yelp.com/biz/sams-mediterranean-cafe-and-deli-rohnert-park-5?adjust_creative=IokN4du3-7NwKcCaUms5LA&utm_campaign=yelp_api_v3&utm_medium=api_v3_business_search&utm_source=IokN4du3-7NwKcCaUms5LA", "review_count": 150, "categories": [{"alias": "mediterranean", "title": "Mediterranean"}, {"alias": "sandwiches", "title": "Sandwiches"}, {"alias": "delis", "title": "Delis"}], "rating": 4.5, "coordinates": {"latitude": 38.35521, "longitude": -122.72537}, "transactions": ["delivery", "pickup"], "price": "$", "location": {"address1": "613 Martin Ave", "address2": "Ste 111", "address3": "", "city": "Rohnert Park", "zip_code": "94928", "country": "US", "state": "CA", "display_address": ["613 Martin Ave", "Ste 111", "Rohnert Park, CA 94928"]}, "phone": "+17075840220", "display_phone": "(707) 584-0220", "distance": 1948.4505280549772}, {"id": "wLs6sb7rsgpCWLecO8VB2w", "alias": "raleys-rohnert-park", "name": "Raley's", "image_url": "https://s3-media3.fl.yelpcdn.com/bphoto/sb-v-A1YGvtTpThZxisFlQ/o.jpg", "is_closed": false, "url": "https://www.yelp.com/biz/raleys-rohnert-park?adjust_creative=IokN4du3-7NwKcCaUms5LA&utm_campaign=yelp_api_v3&utm_medium=api_v3_business_search&utm_source=IokN4du3-7NwKcCaUms5LA", "review_count": 35, "categories": [{"alias": "grocery", "title": "Grocery"}, {"alias": "beer_and_wine", "title": "Beer, Wine & Spirits"}, {"alias": "delis", "title": "Delis"}], "rating": 3.0, "coordinates": {"latitude": 38.3467339, "longitude": -122.7072374}, "transactions": [], "price": "$$", "location": {"address1": "100 Raley's Town Ctr", "address2": "", "address3": "", "city": "Rohnert Park", "zip_code": "94928", "country": "US", "state": "CA", "display_address": ["100 Raley's Town Ctr", "Rohnert Park, CA 94928"]}, "phone": "+17075853222", "display_phone": "(707) 585-3222", "distance": 357.15775408449105}, {"id": "kIULGccC_3Wbw36wbXSVcw", "alias": "tonys-of-north-beach-rohnert-park-2", "name": "Tony's of North Beach", "image_url": "https://s3-media3.fl.yelpcdn.com/bphoto/MF0BAKNEcFtMgq6DxzQT9g/o.jpg", "is_closed": false, "url": "https://www.yelp.com/biz/tonys-of-north-beach-rohnert-park-2?adjust_creative=IokN4du3-7NwKcCaUms5LA&utm_campaign=yelp_api_v3&utm_medium=api_v3_business_search&utm_source=IokN4du3-7NwKcCaUms5LA", "review_count": 399, "categories": [{"alias": "pizza", "title": "Pizza"}, {"alias": "italian", "title": "Italian"}], "rating": 3.5, "coordinates": {"latitude": 38.360441, "longitude": -122.722796}, "transactions": [], "price": "$$", "location": {"address1": "288 Golf Course Dr", "address2": "", "address3": "Graton Casino", "city": "Rohnert Park", "zip_code": "94928", "country": "US", "state": "CA", "display_address": ["288 Golf Course Dr", "Graton Casino", "Rohnert Park, CA 94928"]}, "phone": "+17075887741", "display_phone": "(707) 588-7741", "distance": 2101.793616860884}, {"id": "DB6soX0LGCgO5Bg50bHqSQ", "alias": "el-rancho-taqueria-rohnert-park", "name": "El Rancho Taqueria", "image_url": "https://s3-media4.fl.yelpcdn.com/bphoto/N61T0p285ma7UHmeWYHfow/o.jpg", "is_closed": false, "url": "https://www.yelp.com/biz/el-rancho-taqueria-rohnert-park?adjust_creative=IokN4du3-7NwKcCaUms5LA&utm_campaign=yelp_api_v3&utm_medium=api_v3_business_search&utm_source=IokN4du3-7NwKcCaUms5LA", "review_count": 248, "categories": [{"alias": "mexican", "title": "Mexican"}], "rating": 4.5, "coordinates": {"latitude": 38.33905, "longitude": -122.687033}, "transactions": [], "price": "$", "location": {"address1": "1451 Southwest Blvd", "address2": "Ste 106", "address3": "", "city": "Rohnert Park", "zip_code": "94928", "country": "US", "state": "CA", "display_address": ["1451 Southwest Blvd", "Ste 106", "Rohnert Park, CA 94928"]}, "phone": "+17077958537", "display_phone": "(707) 795-8537", "distance": 1880.2038240592797}, {"id": "B1ikamd9AA05d8cg4Ke6tA", "alias": "hunan-kitchen-rohnert-park", "name": "Hunan Kitchen", "image_url": "https://s3-media2.fl.yelpcdn.com/bphoto/2EgxM-IHQKW36rSegN8ALQ/o.jpg", "is_closed": false, "url": "https://www.yelp.com/biz/hunan-kitchen-rohnert-park?adjust_creative=IokN4du3-7NwKcCaUms5LA&utm_campaign=yelp_api_v3&utm_medium=api_v3_business_search&utm_source=IokN4du3-7NwKcCaUms5LA", "review_count": 104, "categories": [{"alias": "cantonese", "title": "Cantonese"}], "rating": 4.0, "coordinates": {"latitude": 38.3436813354492, "longitude": -122.710884094238}, "transactions": [], "price": "$", "location": {"address1": "6650 Commerce Blvd", "address2": "Ste 19", "address3": "", "city": "Rohnert Park", "zip_code": "94928", "country": "US", "state": "CA", "display_address": ["6650 Commerce Blvd", "Ste 19", "Rohnert Park, CA 94928"]}, "phone": "+17075888828", "display_phone": "(707) 588-8828", "distance": 817.1877982248214}, {"id": "bSz4Qy7XlnfmDYtV4Z49Bg", "alias": "630-park-steakhouse-rohnert-park", "name": "630 Park Steakhouse", "image_url": "https://s3-media3.fl.yelpcdn.com/bphoto/abj-vS5Et6bgl3n0Lsio8g/o.jpg", "is_closed": false, "url": "https://www.yelp.com/biz/630-park-steakhouse-rohnert-park?adjust_creative=IokN4du3-7NwKcCaUms5LA&utm_campaign=yelp_api_v3&utm_medium=api_v3_business_search&utm_source=IokN4du3-7NwKcCaUms5LA", "review_count": 289, "categories": [{"alias": "steak", "title": "Steakhouses"}], "rating": 3.0, "coordinates": {"latitude": 38.3612776346995, "longitude": -122.722452085012}, "transactions": [], "price": "$$$", "location": {"address1": "Graton Casino", "address2": "288 Golf Course Dr", "address3": "", "city": "Rohnert Park", "zip_code": "94928", "country": "US", "state": "CA", "display_address": ["Graton Casino", "288 Golf Course Dr", "Rohnert Park, CA 94928"]}, "phone": "+17075887115", "display_phone": "(707) 588-7115", "distance": 2078.709014226433}, {"id": "SSnG1B__2aGzRNvJEh09nw", "alias": "jaded-toad-bbq-and-grill-cotati-cotati", "name": "Jaded Toad BBQ & Grill - Cotati", "image_url": "https://s3-media4.fl.yelpcdn.com/bphoto/O3yVuwZRLPuonlE1lQwHeQ/o.jpg", "is_closed": false, "url": "https://www.yelp.com/biz/jaded-toad-bbq-and-grill-cotati-cotati?adjust_creative=IokN4du3-7NwKcCaUms5LA&utm_campaign=yelp_api_v3&utm_medium=api_v3_business_search&utm_source=IokN4du3-7NwKcCaUms5LA", "review_count": 353, "categories": [{"alias": "bbq", "title": "Barbeque"}, {"alias": "beergardens", "title": "Beer Gardens"}, {"alias": "newamerican", "title": "American (New)"}], "rating": 3.0, "coordinates": {"latitude": 38.3285399, "longitude": -122.6992553}, "transactions": [], "price": "$$", "location": {"address1": "500 E Cotati Ave", "address2": "", "address3": "", "city": "Cotati", "zip_code": "94931", "country": "US", "state": "CA", "display_address": ["500 E Cotati Ave", "Cotati, CA 94931"]}, "phone": "+17072423383", "display_phone": "(707) 242-3383", "distance": 2351.134387649648}, {"id": "XBxXpcgm-SgaROS7tWpNIw", "alias": "amys-chinese-kitchen-cotati", "name": "Amy's Chinese Kitchen", "image_url": "https://s3-media1.fl.yelpcdn.com/bphoto/bXFtXzlAZP9ZUnVyd-KoCg/o.jpg", "is_closed": false, "url": "https://www.yelp.com/biz/amys-chinese-kitchen-cotati?adjust_creative=IokN4du3-7NwKcCaUms5LA&utm_campaign=yelp_api_v3&utm_medium=api_v3_business_search&utm_source=IokN4du3-7NwKcCaUms5LA", "review_count": 146, "categories": [{"alias": "chinese", "title": "Chinese"}, {"alias": "asianfusion", "title": "Asian Fusion"}], "rating": 4.0, "coordinates": {"latitude": 38.3312318, "longitude": -122.7114461}, "transactions": ["pickup"], "price": "$$", "location": {"address1": "8577 Gravenstein Hwy", "address2": "", "address3": "", "city": "Cotati", "zip_code": "94931", "country": "US", "state": "CA", "display_address": ["8577 Gravenstein Hwy", "Cotati, CA 94931"]}, "phone": "+17077949828", "display_phone": "(707) 794-9828", "distance": 2046.7915553021692}, {"id": "1fFOWkGcNXZ4_LdY9Y9unQ", "alias": "mary-s-pizza-shack-rohnert-park-rohnert-park", "name": "Mary\u2019s Pizza Shack - Rohnert Park", "image_url": "https://s3-media2.fl.yelpcdn.com/bphoto/sNAjuav4Njrs5U2uuiYHqg/o.jpg", "is_closed": false, "url": "https://www.yelp.com/biz/mary-s-pizza-shack-rohnert-park-rohnert-park?adjust_creative=IokN4du3-7NwKcCaUms5LA&utm_campaign=yelp_api_v3&utm_medium=api_v3_business_search&utm_source=IokN4du3-7NwKcCaUms5LA", "review_count": 301, "categories": [{"alias": "pizza", "title": "Pizza"}, {"alias": "italian", "title": "Italian"}], "rating": 3.5, "coordinates": {"latitude": 38.36386, "longitude": -122.71005}, "transactions": [], "price": "$$", "location": {"address1": "101 Golf Course Dr", "address2": "", "address3": null, "city": "Rohnert Park", "zip_code": "94928", "country": "US", "state": "CA", "display_address": ["101 Golf Course Dr", "Rohnert Park, CA 94928"]}, "phone": "+17075853500", "display_phone": "(707) 585-3500", "distance": 1641.993516348129}, {"id": "LR9g2-Oxu4OKIzx5cYoEKA", "alias": "arts-place-rohnert-park", "name": "Art's Place", "image_url": "https://s3-media2.fl.yelpcdn.com/bphoto/6Z8bSOa4jBVcuEnqDs_ZLw/o.jpg", "is_closed": false, "url": "https://www.yelp.com/biz/arts-place-rohnert-park?adjust_creative=IokN4du3-7NwKcCaUms5LA&utm_campaign=yelp_api_v3&utm_medium=api_v3_business_search&utm_source=IokN4du3-7NwKcCaUms5LA", "review_count": 273, "categories": [{"alias": "newamerican", "title": "American (New)"}, {"alias": "italian", "title": "Italian"}, {"alias": "pizza", "title": "Pizza"}], "rating": 3.5, "coordinates": {"latitude": 38.3478629033377, "longitude": -122.723207917084}, "transactions": [], "price": "$$", "location": {"address1": "563 Rohnert Park Expy", "address2": "", "address3": "", "city": "Rohnert Park", "zip_code": "94928", "country": "US", "state": "CA", "display_address": ["563 Rohnert Park Expy", "Rohnert Park, CA 94928"]}, "phone": "+17075882787", "display_phone": "(707) 588-2787", "distance": 1644.5978284307932}, {"id": "FWJ-TkfpAy07v7UF-z85UA", "alias": "mi-ranchito-cotati", "name": "Mi Ranchito", "image_url": "https://s3-media3.fl.yelpcdn.com/bphoto/gt6a1bInRbMg9Qeij-pG6A/o.jpg", "is_closed": false, "url": "https://www.yelp.com/biz/mi-ranchito-cotati?adjust_creative=IokN4du3-7NwKcCaUms5LA&utm_campaign=yelp_api_v3&utm_medium=api_v3_business_search&utm_source=IokN4du3-7NwKcCaUms5LA", "review_count": 317, "categories": [{"alias": "mexican", "title": "Mexican"}], "rating": 3.5, "coordinates": {"latitude": 38.33293, "longitude": -122.71084}, "transactions": [], "price": "$$", "location": {"address1": "7600 Commerce Blvd", "address2": "", "address3": "", "city": "Cotati", "zip_code": "94931", "country": "US", "state": "CA", "display_address": ["7600 Commerce Blvd", "Cotati, CA 94931"]}, "phone": "+17077957600", "display_phone": "(707) 795-7600", "distance": 1902.8261321607106}, {"id": "3cfUSSuQ9VGrpCJWwhNBDQ", "alias": "9-islands-bakery-cafe-rohnert-park", "name": "9 Islands Bakery Cafe", "image_url": "https://s3-media1.fl.yelpcdn.com/bphoto/_YkJA1CXRrZrdJLtSPYweA/o.jpg", "is_closed": false, "url": "https://www.yelp.com/biz/9-islands-bakery-cafe-rohnert-park?adjust_creative=IokN4du3-7NwKcCaUms5LA&utm_campaign=yelp_api_v3&utm_medium=api_v3_business_search&utm_source=IokN4du3-7NwKcCaUms5LA", "review_count": 35, "categories": [{"alias": "bakeries", "title": "Bakeries"}, {"alias": "portuguese", "title": "Portuguese"}], "rating": 4.0, "coordinates": {"latitude": 38.3500556945801, "longitude": -122.708778381348}, "transactions": [], "price": "$", "location": {"address1": "1 Padre Pkwy", "address2": "Ste D", "address3": "", "city": "Rohnert Park", "zip_code": "94928", "country": "US", "state": "CA", "display_address": ["1 Padre Pkwy", "Ste D", "Rohnert Park, CA 94928"]}, "phone": "+17075861620", "display_phone": "(707) 586-1620", "distance": 420.9919889062633}, {"id": "w7OqID3ikGD8s4HeZ3pOWw", "alias": "thirstea-rohnert-park-2", "name": "ThirsTea", "image_url": "https://s3-media2.fl.yelpcdn.com/bphoto/BmYwD5xQkFMlJOA1p6oAWw/o.jpg", "is_closed": false, "url": "https://www.yelp.com/biz/thirstea-rohnert-park-2?adjust_creative=IokN4du3-7NwKcCaUms5LA&utm_campaign=yelp_api_v3&utm_medium=api_v3_business_search&utm_source=IokN4du3-7NwKcCaUms5LA", "review_count": 116, "categories": [{"alias": "desserts", "title": "Desserts"}, {"alias": "coffee", "title": "Coffee & Tea"}, {"alias": "sandwiches", "title": "Sandwiches"}], "rating": 4.0, "coordinates": {"latitude": 38.3452752, "longitude": -122.7117498}, "transactions": [], "price": "$", "location": {"address1": "6585 Commerce Blvd", "address2": "Ste H", "address3": "", "city": "Rohnert Park", "zip_code": "94928", "country": "US", "state": "CA", "display_address": ["6585 Commerce Blvd", "Ste H", "Rohnert Park, CA 94928"]}, "phone": "+17073037868", "display_phone": "(707) 303-7868", "distance": 635.8623159441154}, {"id": "j2i2HS4ia3DDsUhDA77cPg", "alias": "olive-garden-italian-restaurant-rohnert-park-2", "name": "Olive Garden Italian Restaurant", "image_url": "https://s3-media3.fl.yelpcdn.com/bphoto/mWSX0dOO4ySTO1zk023XpQ/o.jpg", "is_closed": false, "url": "https://www.yelp.com/biz/olive-garden-italian-restaurant-rohnert-park-2?adjust_creative=IokN4du3-7NwKcCaUms5LA&utm_campaign=yelp_api_v3&utm_medium=api_v3_business_search&utm_source=IokN4du3-7NwKcCaUms5LA", "review_count": 263, "categories": [{"alias": "italian", "title": "Italian"}, {"alias": "salad", "title": "Salad"}, {"alias": "soup", "title": "Soup"}], "rating": 3.0, "coordinates": {"latitude": 38.347644, "longitude": -122.715393}, "transactions": [], "price": "$$", "location": {"address1": "6430 Redwood Dr", "address2": "", "address3": "", "city": "Rohnert Park", "zip_code": "94928", "country": "US", "state": "CA", "display_address": ["6430 Redwood Dr", "Rohnert Park, CA 94928"]}, "phone": "+17075863607", "display_phone": "(707) 586-3607", "distance": 970.7210223445925}, {"id": "ZZpyg83knJrLfihoS3xYQQ", "alias": "dynasty-chinese-restaurant-rohnert-park-2", "name": "Dynasty Chinese Restaurant", "image_url": "https://s3-media2.fl.yelpcdn.com/bphoto/tnZm0cYyOvX1RU_C6r7GwQ/o.jpg", "is_closed": false, "url": "https://www.yelp.com/biz/dynasty-chinese-restaurant-rohnert-park-2?adjust_creative=IokN4du3-7NwKcCaUms5LA&utm_campaign=yelp_api_v3&utm_medium=api_v3_business_search&utm_source=IokN4du3-7NwKcCaUms5LA", "review_count": 119, "categories": [{"alias": "chinese", "title": "Chinese"}], "rating": 3.5, "coordinates": {"latitude": 38.34509, "longitude": -122.70926}, "transactions": ["delivery", "pickup"], "price": "$$", "location": {"address1": "6555 Hunter Dr", "address2": "Ste 2", "address3": "", "city": "Rohnert Park", "zip_code": "94928", "country": "US", "state": "CA", "display_address": ["6555 Hunter Dr", "Ste 2", "Rohnert Park, CA 94928"]}, "phone": "+17075840106", "display_phone": "(707) 584-0106", "distance": 610.5166203341894}, {"id": "KdsVkh3MyuESIpTMz0esUw", "alias": "hooters-rohnert-park-2", "name": "Hooters", "image_url": "https://s3-media1.fl.yelpcdn.com/bphoto/Wn6CaAWiv_uCwpCnUzGfvA/o.jpg", "is_closed": false, "url": "https://www.yelp.com/biz/hooters-rohnert-park-2?adjust_creative=IokN4du3-7NwKcCaUms5LA&utm_campaign=yelp_api_v3&utm_medium=api_v3_business_search&utm_source=IokN4du3-7NwKcCaUms5LA", "review_count": 167, "categories": [{"alias": "sportsbars", "title": "Sports Bars"}, {"alias": "tradamerican", "title": "American (Traditional)"}, {"alias": "chicken_wings", "title": "Chicken Wings"}], "rating": 3.0, "coordinates": {"latitude": 38.3499341, "longitude": -122.7174757}, "transactions": ["delivery", "pickup"], "price": "$$", "location": {"address1": "6099 Rohnert Park", "address2": "", "address3": "", "city": "Rohnert Park", "zip_code": "94928", "country": "US", "state": "CA", "display_address": ["6099 Rohnert Park", "Rohnert Park, CA 94928"]}, "phone": "+17075859464", "display_phone": "(707) 585-9464", "distance": 1143.4825774026683}, {"id": "w62JWfSrSbYEkgFe9Btsbw", "alias": "paradise-sushi-and-grill-rohnert-park", "name": "Paradise Sushi & Grill", "image_url": "https://s3-media3.fl.yelpcdn.com/bphoto/WbaLfZ59ebryBZcza07Tug/o.jpg", "is_closed": false, "url": "https://www.yelp.com/biz/paradise-sushi-and-grill-rohnert-park?adjust_creative=IokN4du3-7NwKcCaUms5LA&utm_campaign=yelp_api_v3&utm_medium=api_v3_business_search&utm_source=IokN4du3-7NwKcCaUms5LA", "review_count": 227, "categories": [{"alias": "sushi", "title": "Sushi Bars"}], "rating": 3.5, "coordinates": {"latitude": 38.3492065947037, "longitude": -122.719471426303}, "transactions": [], "price": "$$", "location": {"address1": "370 Rohnert Park Expy", "address2": "", "address3": "", "city": "Rohnert Park", "zip_code": "94928", "country": "US", "state": "CA", "display_address": ["370 Rohnert Park Expy", "Rohnert Park, CA 94928"]}, "phone": "+17075888068", "display_phone": "(707) 588-8068", "distance": 1313.471040759779}, {"id": "-SmpJQ2AddqxmnneToMpuw", "alias": "boathouse-rohnert-park", "name": "Boathouse", "image_url": "https://s3-media3.fl.yelpcdn.com/bphoto/l-L3uGP9ZGYY6vdTCuoB9Q/o.jpg", "is_closed": false, "url": "https://www.yelp.com/biz/boathouse-rohnert-park?adjust_creative=IokN4du3-7NwKcCaUms5LA&utm_campaign=yelp_api_v3&utm_medium=api_v3_business_search&utm_source=IokN4du3-7NwKcCaUms5LA", "review_count": 88, "categories": [{"alias": "japanese", "title": "Japanese"}, {"alias": "sushi", "title": "Sushi Bars"}, {"alias": "asianfusion", "title": "Asian Fusion"}], "rating": 3.0, "coordinates": {"latitude": 38.360578, "longitude": -122.722884}, "transactions": ["pickup"], "price": "$$", "location": {"address1": "288 Golf Course Dr W", "address2": "", "address3": null, "city": "Rohnert Park", "zip_code": "94928", "country": "US", "state": "CA", "display_address": ["288 Golf Course Dr W", "Rohnert Park, CA 94928"]}, "phone": "+17075889440", "display_phone": "(707) 588-9440", "distance": 2058.0604043901094}, {"id": "_tp8pCRpgc4selJJCfqp0g", "alias": "tonayan-rohnert-park", "name": "Tonayan", "image_url": "https://s3-media3.fl.yelpcdn.com/bphoto/VVthV8Mz7sq3_HuRL5IJCA/o.jpg", "is_closed": false, "url": "https://www.yelp.com/biz/tonayan-rohnert-park?adjust_creative=IokN4du3-7NwKcCaUms5LA&utm_campaign=yelp_api_v3&utm_medium=api_v3_business_search&utm_source=IokN4du3-7NwKcCaUms5LA", "review_count": 114, "categories": [{"alias": "mexican", "title": "Mexican"}], "rating": 3.5, "coordinates": {"latitude": 38.346789, "longitude": -122.705594}, "transactions": ["delivery"], "price": "$$", "location": {"address1": "500 Raleys Towne Ctr", "address2": "", "address3": "", "city": "Rohnert Park", "zip_code": "94928", "country": "US", "state": "CA", "display_address": ["500 Raleys Towne Ctr", "Rohnert Park, CA 94928"]}, "phone": "+17075880893", "display_phone": "(707) 588-0893", "distance": 272.6039064271849}, {"id": "DH11r1Y9SAsyvz5mYx17jg", "alias": "daily-grill-rohnert-park", "name": "Daily Grill", "image_url": "https://s3-media4.fl.yelpcdn.com/bphoto/lphVpNfFt_BWw1SO5VR62w/o.jpg", "is_closed": false, "url": "https://www.yelp.com/biz/daily-grill-rohnert-park?adjust_creative=IokN4du3-7NwKcCaUms5LA&utm_campaign=yelp_api_v3&utm_medium=api_v3_business_search&utm_source=IokN4du3-7NwKcCaUms5LA", "review_count": 308, "categories": [{"alias": "breakfast_brunch", "title": "Breakfast & Brunch"}, {"alias": "tradamerican", "title": "American (Traditional)"}, {"alias": "cocktailbars", "title": "Cocktail Bars"}], "rating": 3.0, "coordinates": {"latitude": 38.3602191120732, "longitude": -122.722827774206}, "transactions": ["delivery", "pickup"], "price": "$$", "location": {"address1": "630 Park Ct", "address2": "", "address3": "", "city": "Rohnert Park", "zip_code": "94928", "country": "US", "state": "CA", "display_address": ["630 Park Ct", "Rohnert Park, CA 94928"]}, "phone": "+17075857505", "display_phone": "(707) 585-7505", "distance": 2029.583830454601}, {"id": "xHOqWFlUTz-ckUIzeLFuig", "alias": "ronnies-rohnert-park-3", "name": "Ronnie's", "image_url": "https://s3-media3.fl.yelpcdn.com/bphoto/fY5x1FNptXg6J_pV2GlpgQ/o.jpg", "is_closed": false, "url": "https://www.yelp.com/biz/ronnies-rohnert-park-3?adjust_creative=IokN4du3-7NwKcCaUms5LA&utm_campaign=yelp_api_v3&utm_medium=api_v3_business_search&utm_source=IokN4du3-7NwKcCaUms5LA", "review_count": 65, "categories": [{"alias": "bars", "title": "Bars"}, {"alias": "sandwiches", "title": "Sandwiches"}, {"alias": "newamerican", "title": "American (New)"}], "rating": 4.5, "coordinates": {"latitude": 38.335234, "longitude": -122.6858961}, "transactions": ["delivery", "pickup"], "price": "$$", "location": {"address1": "1460 E Cotati Ave", "address2": null, "address3": "", "city": "Rohnert Park", "zip_code": "94928", "country": "US", "state": "CA", "display_address": ["1460 E Cotati Ave", "Rohnert Park, CA 94928"]}, "phone": "+17077954447", "display_phone": "(707) 795-4447", "distance": 2229.3741560420453}, {"id": "DTsO0OjKqEEzEIfPNx5Gjg", "alias": "chick-fil-a-rohnert-park", "name": "Chick-fil-A", "image_url": "https://s3-media3.fl.yelpcdn.com/bphoto/4rtrqLB5sjbPxZ-OjszRzA/o.jpg", "is_closed": false, "url": "https://www.yelp.com/biz/chick-fil-a-rohnert-park?adjust_creative=IokN4du3-7NwKcCaUms5LA&utm_campaign=yelp_api_v3&utm_medium=api_v3_business_search&utm_source=IokN4du3-7NwKcCaUms5LA", "review_count": 216, "categories": [{"alias": "hotdogs", "title": "Fast Food"}], "rating": 4.0, "coordinates": {"latitude": 38.3627482, "longitude": -122.7138776}, "transactions": [], "price": "$", "location": {"address1": "5080 Redwood Dr", "address2": null, "address3": "", "city": "Rohnert Park", "zip_code": "94928", "country": "US", "state": "CA", "display_address": ["5080 Redwood Dr", "Rohnert Park, CA 94928"]}, "phone": "+17075857462", "display_phone": "(707) 585-7462", "distance": 1731.6823857151803}, {"id": "EGbg9c25dz-4zr1sRo0twA", "alias": "quincys-pub-and-cafe-rohnert-park", "name": "Quincy's Pub & Cafe", "image_url": "https://s3-media3.fl.yelpcdn.com/bphoto/nN_uXz5cvcNkka3dRqWKmQ/o.jpg", "is_closed": false, "url": "https://www.yelp.com/biz/quincys-pub-and-cafe-rohnert-park?adjust_creative=IokN4du3-7NwKcCaUms5LA&utm_campaign=yelp_api_v3&utm_medium=api_v3_business_search&utm_source=IokN4du3-7NwKcCaUms5LA", "review_count": 66, "categories": [{"alias": "salad", "title": "Salad"}, {"alias": "pubs", "title": "Pubs"}, {"alias": "karaoke", "title": "Karaoke"}], "rating": 3.5, "coordinates": {"latitude": 38.344932, "longitude": -122.711097}, "transactions": [], "price": "$$", "location": {"address1": "6590 Commerce Blvd", "address2": "", "address3": "", "city": "Rohnert Park", "zip_code": "94928", "country": "US", "state": "CA", "display_address": ["6590 Commerce Blvd", "Rohnert Park, CA 94928"]}, "phone": "+17075851079", "display_phone": "(707) 585-1079", "distance": 742.0986037709007}, {"id": "p3u6HdtETW1E6QN6x9B_7A", "alias": "cotijas-restaurant-cotati-2", "name": "Cotija's Restaurant", "image_url": "https://s3-media2.fl.yelpcdn.com/bphoto/PogYCcNWsprB9-1SdkG_Lg/o.jpg", "is_closed": false, "url": "https://www.yelp.com/biz/cotijas-restaurant-cotati-2?adjust_creative=IokN4du3-7NwKcCaUms5LA&utm_campaign=yelp_api_v3&utm_medium=api_v3_business_search&utm_source=IokN4du3-7NwKcCaUms5LA", "review_count": 57, "categories": [{"alias": "mexican", "title": "Mexican"}], "rating": 4.0, "coordinates": {"latitude": 38.3284914630242, "longitude": -122.708953209221}, "transactions": [], "price": "$", "location": {"address1": "7981 Old Redwood Hwy", "address2": "Ste D", "address3": "", "city": "Cotati", "zip_code": "94931", "country": "US", "state": "CA", "display_address": ["7981 Old Redwood Hwy", "Ste D", "Cotati, CA 94931"]}, "phone": "+17072423370", "display_phone": "(707) 242-3370", "distance": 2320.9699518652524}, {"id": "7gYOSGx4klEhhd32IT4laA", "alias": "outback-steakhouse-rohnert-park", "name": "Outback Steakhouse", "image_url": "https://s3-media2.fl.yelpcdn.com/bphoto/kJt5gPU-Kq4J6oaCgSLN4g/o.jpg", "is_closed": false, "url": "https://www.yelp.com/biz/outback-steakhouse-rohnert-park?adjust_creative=IokN4du3-7NwKcCaUms5LA&utm_campaign=yelp_api_v3&utm_medium=api_v3_business_search&utm_source=IokN4du3-7NwKcCaUms5LA", "review_count": 320, "categories": [{"alias": "steak", "title": "Steakhouses"}], "rating": 3.0, "coordinates": {"latitude": 38.3686099, "longitude": -122.71509}, "transactions": [], "price": "$$", "location": {"address1": "4619 Redwood Dr", "address2": "", "address3": "", "city": "Rohnert Park", "zip_code": "94928", "country": "US", "state": "CA", "display_address": ["4619 Redwood Dr", "Rohnert Park, CA 94928"]}, "phone": "+17075847161", "display_phone": "(707) 584-7161", "distance": 2354.5184998067057}, {"id": "Pq88FV2BKlPYIADhoEHf6A", "alias": "red-lobster-rohnert-park", "name": "Red Lobster", "image_url": "https://s3-media1.fl.yelpcdn.com/bphoto/Ct9uulwIi0IPZMRQyIpg-Q/o.jpg", "is_closed": false, "url": "https://www.yelp.com/biz/red-lobster-rohnert-park?adjust_creative=IokN4du3-7NwKcCaUms5LA&utm_campaign=yelp_api_v3&utm_medium=api_v3_business_search&utm_source=IokN4du3-7NwKcCaUms5LA", "review_count": 170, "categories": [{"alias": "seafood", "title": "Seafood"}, {"alias": "tradamerican", "title": "American (Traditional)"}], "rating": 3.0, "coordinates": {"latitude": 38.347311, "longitude": -122.7151}, "transactions": ["delivery"], "price": "$$", "location": {"address1": "6440 Redwood Dr", "address2": "", "address3": "", "city": "Rohnert Park", "zip_code": "94928", "country": "US", "state": "CA", "display_address": ["6440 Redwood Dr", "Rohnert Park, CA 94928"]}, "phone": "+17075863640", "display_phone": "(707) 586-3640", "distance": 952.2021623232773}, {"id": "PVWM3z4CdX78JYj3LizcyA", "alias": "lynns-thai-restaurant-cotati", "name": "Lynn's Thai Restaurant", "image_url": "https://s3-media1.fl.yelpcdn.com/bphoto/33N9o4NairJXossqSrRVUg/o.jpg", "is_closed": false, "url": "https://www.yelp.com/biz/lynns-thai-restaurant-cotati?adjust_creative=IokN4du3-7NwKcCaUms5LA&utm_campaign=yelp_api_v3&utm_medium=api_v3_business_search&utm_source=IokN4du3-7NwKcCaUms5LA", "review_count": 163, "categories": [{"alias": "thai", "title": "Thai"}], "rating": 4.0, "coordinates": {"latitude": 38.3311806241767, "longitude": -122.71640735582}, "transactions": ["delivery", "pickup"], "price": "$$", "location": {"address1": "8492 Gravenstein Hwy", "address2": "Ste M", "address3": "", "city": "Cotati", "zip_code": "94931", "country": "US", "state": "CA", "display_address": ["8492 Gravenstein Hwy", "Ste M", "Cotati, CA 94931"]}, "phone": "+17077939300", "display_phone": "(707) 793-9300", "distance": 2246.4242528987365}, {"id": "QeMfUe099o3XES7lkY1MAA", "alias": "china-delight-rohnert-park", "name": "China Delight", "image_url": "https://s3-media4.fl.yelpcdn.com/bphoto/G97PsDQYyiJg9hBaB7iKhQ/o.jpg", "is_closed": false, "url": "https://www.yelp.com/biz/china-delight-rohnert-park?adjust_creative=IokN4du3-7NwKcCaUms5LA&utm_campaign=yelp_api_v3&utm_medium=api_v3_business_search&utm_source=IokN4du3-7NwKcCaUms5LA", "review_count": 129, "categories": [{"alias": "cantonese", "title": "Cantonese"}], "rating": 3.5, "coordinates": {"latitude": 38.362337, "longitude": -122.692312}, "transactions": [], "price": "$$", "location": {"address1": "941 Golf Course Dr", "address2": "", "address3": "", "city": "Rohnert Park", "zip_code": "94928", "country": "US", "state": "CA", "display_address": ["941 Golf Course Dr", "Rohnert Park, CA 94928"]}, "phone": "+17075843838", "display_phone": "(707) 584-3838", "distance": 1814.6875218059072}, {"id": "nLOb71LZzdGLdKR0478O_g", "alias": "mikes-at-the-crossroads-cotati", "name": "Mike's at the Crossroads", "image_url": "https://s3-media2.fl.yelpcdn.com/bphoto/Ew1X3buWK_GRAUCMxHybaQ/o.jpg", "is_closed": false, "url": "https://www.yelp.com/biz/mikes-at-the-crossroads-cotati?adjust_creative=IokN4du3-7NwKcCaUms5LA&utm_campaign=yelp_api_v3&utm_medium=api_v3_business_search&utm_source=IokN4du3-7NwKcCaUms5LA", "review_count": 313, "categories": [{"alias": "tradamerican", "title": "American (Traditional)"}, {"alias": "burgers", "title": "Burgers"}], "rating": 3.5, "coordinates": {"latitude": 38.3316078186035, "longitude": -122.711784362793}, "transactions": [], "price": "$$", "location": {"address1": "7665 Old Redwood Hwy", "address2": "", "address3": "", "city": "Cotati", "zip_code": "94931", "country": "US", "state": "CA", "display_address": ["7665 Old Redwood Hwy", "Cotati, CA 94931"]}, "phone": "+17076659999", "display_phone": "(707) 665-9999", "distance": 2021.8229517537056}, {"id": "d7SXy9PJPhni0mHfCrvp6A", "alias": "peppers-cafe-rohnert-park-2", "name": "Pepper's Cafe", "image_url": "https://s3-media1.fl.yelpcdn.com/bphoto/aHSWXOWCKoTOonBnIz--Xg/o.jpg", "is_closed": false, "url": "https://www.yelp.com/biz/peppers-cafe-rohnert-park-2?adjust_creative=IokN4du3-7NwKcCaUms5LA&utm_campaign=yelp_api_v3&utm_medium=api_v3_business_search&utm_source=IokN4du3-7NwKcCaUms5LA", "review_count": 146, "categories": [{"alias": "cafes", "title": "Cafes"}, {"alias": "breakfast_brunch", "title": "Breakfast & Brunch"}], "rating": 4.0, "coordinates": {"latitude": 38.3385124, "longitude": -122.6867333}, "transactions": [], "price": "$$", "location": {"address1": "1451 Southwest Blvd", "address2": "Ste 123", "address3": "", "city": "Rohnert Park", "zip_code": "94928", "country": "US", "state": "CA", "display_address": ["1451 Southwest Blvd", "Ste 123", "Rohnert Park, CA 94928"]}, "phone": "+17076645601", "display_phone": "(707) 664-5601", "distance": 1936.9331149558898}, {"id": "QmQAH4vDByScjqeO0_InXg", "alias": "big-daddys-diner-rohnert-park", "name": "Big Daddy's Diner", "image_url": "https://s3-media4.fl.yelpcdn.com/bphoto/6okzcsqK2qYU7EaPeOJYzA/o.jpg", "is_closed": false, "url": "https://www.yelp.com/biz/big-daddys-diner-rohnert-park?adjust_creative=IokN4du3-7NwKcCaUms5LA&utm_campaign=yelp_api_v3&utm_medium=api_v3_business_search&utm_source=IokN4du3-7NwKcCaUms5LA", "review_count": 178, "categories": [{"alias": "diners", "title": "Diners"}, {"alias": "tradamerican", "title": "American (Traditional)"}], "rating": 3.5, "coordinates": {"latitude": 38.361761223777, "longitude": -122.69394989418}, "transactions": [], "price": "$$", "location": {"address1": "913 Golf Course Dr", "address2": "", "address3": "", "city": "Rohnert Park", "zip_code": "94928", "country": "US", "state": "CA", "display_address": ["913 Golf Course Dr", "Rohnert Park, CA 94928"]}, "phone": "+17075852944", "display_phone": "(707) 585-2944", "distance": 1681.4270030858834}, {"id": "snC-Z1JJ5480P3z3lsNofw", "alias": "mountain-mikes-pizza-rohnert-park-4", "name": "Mountain Mike's Pizza", "image_url": "https://s3-media2.fl.yelpcdn.com/bphoto/WNejK6Rvg7U38EKLdCGbmg/o.jpg", "is_closed": false, "url": "https://www.yelp.com/biz/mountain-mikes-pizza-rohnert-park-4?adjust_creative=IokN4du3-7NwKcCaUms5LA&utm_campaign=yelp_api_v3&utm_medium=api_v3_business_search&utm_source=IokN4du3-7NwKcCaUms5LA", "review_count": 58, "categories": [{"alias": "pizza", "title": "Pizza"}, {"alias": "sportsbars", "title": "Sports Bars"}, {"alias": "venues", "title": "Venues & Event Spaces"}], "rating": 3.5, "coordinates": {"latitude": 38.3481086, "longitude": -122.7085888}, "transactions": ["delivery", "pickup"], "price": "$$", "location": {"address1": "6314 Commerce Blvd", "address2": null, "address3": null, "city": "Rohnert Park", "zip_code": "94928", "country": "US", "state": "CA", "display_address": ["6314 Commerce Blvd", "Rohnert Park, CA 94928"]}, "phone": "+17073037474", "display_phone": "(707) 303-7474", "distance": 379.3509914804749}, {"id": "YMfz-u6Dp-ViiTd31seC9A", "alias": "ludukas-cafe-rohnert-park", "name": "Ludukas Cafe", "image_url": "https://s3-media4.fl.yelpcdn.com/bphoto/7mS0U2zYi-53aF91vmP7Qg/o.jpg", "is_closed": false, "url": "https://www.yelp.com/biz/ludukas-cafe-rohnert-park?adjust_creative=IokN4du3-7NwKcCaUms5LA&utm_campaign=yelp_api_v3&utm_medium=api_v3_business_search&utm_source=IokN4du3-7NwKcCaUms5LA", "review_count": 63, "categories": [{"alias": "cafes", "title": "Cafes"}, {"alias": "mexican", "title": "Mexican"}], "rating": 4.5, "coordinates": {"latitude": 38.3368603, "longitude": -122.6855873}, "transactions": ["pickup", "delivery"], "price": "$", "location": {"address1": "7285A Snyder Ln", "address2": null, "address3": "", "city": "Rohnert Park", "zip_code": "94928", "country": "US", "state": "CA", "display_address": ["7285A Snyder Ln", "Rohnert Park, CA 94928"]}, "phone": "+17076645919", "display_phone": "(707) 664-5919", "distance": 2006.5580219251935}, {"id": "xsXg5cmkp7PFWHnTMv7cSA", "alias": "taqueria-sol-azteca-rohnert-park", "name": "Taqueria Sol Azteca", "image_url": "https://s3-media1.fl.yelpcdn.com/bphoto/UmsGkyGiKGZK_36KY0LCFg/o.jpg", "is_closed": false, "url": "https://www.yelp.com/biz/taqueria-sol-azteca-rohnert-park?adjust_creative=IokN4du3-7NwKcCaUms5LA&utm_campaign=yelp_api_v3&utm_medium=api_v3_business_search&utm_source=IokN4du3-7NwKcCaUms5LA", "review_count": 174, "categories": [{"alias": "mexican", "title": "Mexican"}], "rating": 4.0, "coordinates": {"latitude": 38.334411, "longitude": -122.6886652}, "transactions": [], "price": "$", "location": {"address1": "1435 E Cotati Ave", "address2": "Ste C", "address3": "", "city": "Rohnert Park", "zip_code": "94928", "country": "US", "state": "CA", "display_address": ["1435 E Cotati Ave", "Ste C", "Rohnert Park, CA 94928"]}, "phone": "+17077921859", "display_phone": "(707) 792-1859", "distance": 2130.3231391657246}, {"id": "9FiICPgMTBFOXrX8a2eeuw", "alias": "marvins-restaurant-cotati", "name": "Marvin's Restaurant", "image_url": "https://s3-media3.fl.yelpcdn.com/bphoto/GRghghvNbcZHvfSod1FGag/o.jpg", "is_closed": false, "url": "https://www.yelp.com/biz/marvins-restaurant-cotati?adjust_creative=IokN4du3-7NwKcCaUms5LA&utm_campaign=yelp_api_v3&utm_medium=api_v3_business_search&utm_source=IokN4du3-7NwKcCaUms5LA", "review_count": 162, "categories": [{"alias": "bakeries", "title": "Bakeries"}, {"alias": "tradamerican", "title": "American (Traditional)"}], "rating": 4.0, "coordinates": {"latitude": 38.3284798, "longitude": -122.7082768}, "transactions": [], "price": "$$", "location": {"address1": "7991 Old Redwood Hwy", "address2": "", "address3": "", "city": "Cotati", "zip_code": "94931", "country": "US", "state": "CA", "display_address": ["7991 Old Redwood Hwy", "Cotati, CA 94931"]}, "phone": "+17076641720", "display_phone": "(707) 664-1720", "distance": 2331.494072061074}, {"id": "TQckYKKKsXCM9krcRu4rQg", "alias": "bacchus-restaurant-and-wine-bar-rohnert-park", "name": "Bacchus", "image_url": "https://s3-media1.fl.yelpcdn.com/bphoto/bELDPg4RRJWUBxkpEPsDNA/o.jpg", "is_closed": false, "url": "https://www.yelp.com/biz/bacchus-restaurant-and-wine-bar-rohnert-park?adjust_creative=IokN4du3-7NwKcCaUms5LA&utm_campaign=yelp_api_v3&utm_medium=api_v3_business_search&utm_source=IokN4du3-7NwKcCaUms5LA", "review_count": 84, "categories": [{"alias": "newamerican", "title": "American (New)"}, {"alias": "wine_bars", "title": "Wine Bars"}, {"alias": "steak", "title": "Steakhouses"}], "rating": 3.0, "coordinates": {"latitude": 38.3655, "longitude": -122.70781}, "transactions": [], "price": "$$", "location": {"address1": "1 Doubletree Dr", "address2": "", "address3": "", "city": "Rohnert Park", "zip_code": "94928", "country": "US", "state": "CA", "display_address": ["1 Doubletree Dr", "Rohnert Park, CA 94928"]}, "phone": "+17075845466", "display_phone": "(707) 584-5466", "distance": 1841.871759896328}, {"id": "Sf9qjFBUZGY5HxUyVWI1fA", "alias": "sonoma-sourdough-sandwiches-rohnert-park", "name": "Sonoma Sourdough Sandwiches", "image_url": "https://s3-media3.fl.yelpcdn.com/bphoto/DJHcYxaqPnnUyDdHhTnqJQ/o.jpg", "is_closed": false, "url": "https://www.yelp.com/biz/sonoma-sourdough-sandwiches-rohnert-park?adjust_creative=IokN4du3-7NwKcCaUms5LA&utm_campaign=yelp_api_v3&utm_medium=api_v3_business_search&utm_source=IokN4du3-7NwKcCaUms5LA", "review_count": 58, "categories": [{"alias": "sandwiches", "title": "Sandwiches"}], "rating": 4.0, "coordinates": {"latitude": 38.3383771078364, "longitude": -122.685839229911}, "transactions": [], "price": "$", "location": {"address1": "7285 Snyder Ln", "address2": "Ste B", "address3": null, "city": "Rohnert Park", "zip_code": "94928", "country": "US", "state": "CA", "display_address": ["7285 Snyder Ln", "Ste B", "Rohnert Park, CA 94928"]}, "phone": "+17079920431", "display_phone": "(707) 992-0431", "distance": 2008.4103913130882}, {"id": "xPc1g2HJmAcemEeZlqqg_w", "alias": "mi-pueblo-cotati", "name": "Mi Pueblo", "image_url": "https://s3-media1.fl.yelpcdn.com/bphoto/0rPjZDjzj-xZNTwPGAq8Cw/o.jpg", "is_closed": false, "url": "https://www.yelp.com/biz/mi-pueblo-cotati?adjust_creative=IokN4du3-7NwKcCaUms5LA&utm_campaign=yelp_api_v3&utm_medium=api_v3_business_search&utm_source=IokN4du3-7NwKcCaUms5LA", "review_count": 198, "categories": [{"alias": "mexican", "title": "Mexican"}, {"alias": "seafood", "title": "Seafood"}, {"alias": "steak", "title": "Steakhouses"}], "rating": 3.5, "coordinates": {"latitude": 38.3348632748173, "longitude": -122.712258598879}, "transactions": [], "price": "$$", "location": {"address1": "7384 Commerce Blvd", "address2": "", "address3": "", "city": "Cotati", "zip_code": "94928", "country": "US", "state": "CA", "display_address": ["7384 Commerce Blvd", "Cotati, CA 94928"]}, "phone": "+17077924380", "display_phone": "(707) 792-4380", "distance": 1720.404238225394}, {"id": "I-Q5Y2PBjBdva8zkdJFGCg", "alias": "boathouse-asian-noodles-rohnert-park-5", "name": "Boathouse Asian Noodles", "image_url": "https://s3-media3.fl.yelpcdn.com/bphoto/Sm54usZNFppiX2K8VdzTDg/o.jpg", "is_closed": false, "url": "https://www.yelp.com/biz/boathouse-asian-noodles-rohnert-park-5?adjust_creative=IokN4du3-7NwKcCaUms5LA&utm_campaign=yelp_api_v3&utm_medium=api_v3_business_search&utm_source=IokN4du3-7NwKcCaUms5LA", "review_count": 53, "categories": [{"alias": "cantonese", "title": "Cantonese"}, {"alias": "noodles", "title": "Noodles"}], "rating": 2.0, "coordinates": {"latitude": 38.360426, "longitude": -122.723947}, "transactions": [], "price": "$$", "location": {"address1": "288 Golf Course Dr", "address2": "", "address3": "Graton Casino", "city": "Rohnert Park", "zip_code": "94928", "country": "US", "state": "CA", "display_address": ["288 Golf Course Dr", "Graton Casino", "Rohnert Park, CA 94928"]}, "phone": "+17075857625", "display_phone": "(707) 585-7625", "distance": 2121.276262824162}, {"id": "OxaMHDFH5QiSW1wenE1uhQ", "alias": "honey-badger-coffee-house-rohnert-park", "name": "Honey Badger Coffee House", "image_url": "https://s3-media2.fl.yelpcdn.com/bphoto/wqLakRyY8mlREX3NJxEhRg/o.jpg", "is_closed": false, "url": "https://www.yelp.com/biz/honey-badger-coffee-house-rohnert-park?adjust_creative=IokN4du3-7NwKcCaUms5LA&utm_campaign=yelp_api_v3&utm_medium=api_v3_business_search&utm_source=IokN4du3-7NwKcCaUms5LA", "review_count": 193, "categories": [{"alias": "coffee", "title": "Coffee & Tea"}, {"alias": "breakfast_brunch", "title": "Breakfast & Brunch"}, {"alias": "bagels", "title": "Bagels"}], "rating": 4.0, "coordinates": {"latitude": 38.363906, "longitude": -122.708676}, "transactions": [], "price": "$", "location": {"address1": "101 Golf Course Dr", "address2": "Ste A-3", "address3": "", "city": "Rohnert Park", "zip_code": "94928", "country": "US", "state": "CA", "display_address": ["101 Golf Course Dr", "Ste A-3", "Rohnert Park, CA 94928"]}, "phone": "+17075856185", "display_phone": "(707) 585-6185", "distance": 1692.3819218015121}, {"id": "uDWe1Vgj6f7lNWd3I4plog", "alias": "in-n-out-burger-rohnert-park", "name": "In-N-Out Burger", "image_url": "https://s3-media3.fl.yelpcdn.com/bphoto/TigZfTR_vkYaiV6vVqRnNQ/o.jpg", "is_closed": false, "url": "https://www.yelp.com/biz/in-n-out-burger-rohnert-park?adjust_creative=IokN4du3-7NwKcCaUms5LA&utm_campaign=yelp_api_v3&utm_medium=api_v3_business_search&utm_source=IokN4du3-7NwKcCaUms5LA", "review_count": 210, "categories": [{"alias": "burgers", "title": "Burgers"}, {"alias": "hotdogs", "title": "Fast Food"}], "rating": 4.0, "coordinates": {"latitude": 38.3612405, "longitude": -122.7141885}, "transactions": [], "price": "$", "location": {"address1": "5145 Redwood Dr", "address2": null, "address3": "", "city": "Rohnert Park", "zip_code": "94928", "country": "US", "state": "CA", "display_address": ["5145 Redwood Dr", "Rohnert Park, CA 94928"]}, "phone": "+18007861000", "display_phone": "(800) 786-1000", "distance": 1600.6015241856014}, {"id": "r125-9JtwrufZPt8nLIaLg", "alias": "squatchs-gourmet-ice-cream-sandwiches-and-coffee-rohnert-park", "name": "Squatch's Gourmet Ice Cream Sandwiches and Coffee", "image_url": "https://s3-media3.fl.yelpcdn.com/bphoto/whtp2AgK0msAE7AS2Tng5A/o.jpg", "is_closed": false, "url": "https://www.yelp.com/biz/squatchs-gourmet-ice-cream-sandwiches-and-coffee-rohnert-park?adjust_creative=IokN4du3-7NwKcCaUms5LA&utm_campaign=yelp_api_v3&utm_medium=api_v3_business_search&utm_source=IokN4du3-7NwKcCaUms5LA", "review_count": 3, "categories": [{"alias": "coffee", "title": "Coffee & Tea"}, {"alias": "icecream", "title": "Ice Cream & Frozen Yogurt"}, {"alias": "sandwiches", "title": "Sandwiches"}], "rating": 4.5, "coordinates": {"latitude": 38.338523, "longitude": -122.6867333}, "transactions": [], "location": {"address1": "1451 SW Blvd", "address2": "Ste 111", "address3": "", "city": "Rohnert Park", "zip_code": "94928", "country": "US", "state": "CA", "display_address": ["1451 SW Blvd", "Ste 111", "Rohnert Park, CA 94928"]}, "phone": "+17079920841", "display_phone": "(707) 992-0841", "distance": 1936.2196832136271}, {"id": "XI4M0bCuIhKEmtlFa80xlg", "alias": "taqueria-el-favorito-rohnert-park", "name": "Taqueria El Favorito", "image_url": "https://s3-media3.fl.yelpcdn.com/bphoto/glApcslPMg0l0DPUxjCShA/o.jpg", "is_closed": false, "url": "https://www.yelp.com/biz/taqueria-el-favorito-rohnert-park?adjust_creative=IokN4du3-7NwKcCaUms5LA&utm_campaign=yelp_api_v3&utm_medium=api_v3_business_search&utm_source=IokN4du3-7NwKcCaUms5LA", "review_count": 130, "categories": [{"alias": "mexican", "title": "Mexican"}], "rating": 3.5, "coordinates": {"latitude": 38.3460808, "longitude": -122.7157211}, "transactions": [], "price": "$", "location": {"address1": "6466 Redwood Dr", "address2": "", "address3": "", "city": "Rohnert Park", "zip_code": "94928", "country": "US", "state": "CA", "display_address": ["6466 Redwood Dr", "Rohnert Park, CA 94928"]}, "phone": "+17075888013", "display_phone": "(707) 588-8013", "distance": 1041.6021471422366}, {"id": "po21IR_j_8pRxBhUwMg0_w", "alias": "jidaiya-sushi-rohnert-park", "name": "Jidaiya Sushi", "image_url": "https://s3-media3.fl.yelpcdn.com/bphoto/K1j23fF2lN8dQRp0QUTo2w/o.jpg", "is_closed": false, "url": "https://www.yelp.com/biz/jidaiya-sushi-rohnert-park?adjust_creative=IokN4du3-7NwKcCaUms5LA&utm_campaign=yelp_api_v3&utm_medium=api_v3_business_search&utm_source=IokN4du3-7NwKcCaUms5LA", "review_count": 140, "categories": [{"alias": "sushi", "title": "Sushi Bars"}, {"alias": "japanese", "title": "Japanese"}], "rating": 3.5, "coordinates": {"latitude": 38.3387891, "longitude": -122.6859779}, "transactions": ["delivery", "pickup"], "price": "$$", "location": {"address1": "1475 Southwest Blvd", "address2": "Ste 2-B", "address3": "", "city": "Rohnert Park", "zip_code": "94928", "country": "US", "state": "CA", "display_address": ["1475 Southwest Blvd", "Ste 2-B", "Rohnert Park, CA 94928"]}, "phone": "+17077922966", "display_phone": "(707) 792-2966", "distance": 1971.7888337641425}, {"id": "_sPV3T0IjWOQOIuqKEapkA", "alias": "taqueria-el-tapatio-rohnert-park", "name": "Taqueria El Tapatio", "image_url": "https://s3-media1.fl.yelpcdn.com/bphoto/6l5pWZgpHuTImhr41l_77g/o.jpg", "is_closed": false, "url": "https://www.yelp.com/biz/taqueria-el-tapatio-rohnert-park?adjust_creative=IokN4du3-7NwKcCaUms5LA&utm_campaign=yelp_api_v3&utm_medium=api_v3_business_search&utm_source=IokN4du3-7NwKcCaUms5LA", "review_count": 141, "categories": [{"alias": "mexican", "title": "Mexican"}], "rating": 3.0, "coordinates": {"latitude": 38.3475154, "longitude": -122.7093853}, "transactions": ["delivery", "pickup"], "price": "$", "location": {"address1": "6364 Commerce Blvd", "address2": "", "address3": "", "city": "Rohnert Park", "zip_code": "94928", "country": "US", "state": "CA", "display_address": ["6364 Commerce Blvd", "Rohnert Park, CA 94928"]}, "phone": "+17075862826", "display_phone": "(707) 586-2826", "distance": 434.65841051606054}, {"id": "ne6_TuNinpluzGy6aRriNg", "alias": "caf\u00e9-des-croissants-rohnert-park-3", "name": "Caf\u00e9 Des Croissants", "image_url": "https://s3-media4.fl.yelpcdn.com/bphoto/KgPKpij1DKr99sNAZiG5AA/o.jpg", "is_closed": false, "url": "https://www.yelp.com/biz/caf%C3%A9-des-croissants-rohnert-park-3?adjust_creative=IokN4du3-7NwKcCaUms5LA&utm_campaign=yelp_api_v3&utm_medium=api_v3_business_search&utm_source=IokN4du3-7NwKcCaUms5LA", "review_count": 44, "categories": [{"alias": "breakfast_brunch", "title": "Breakfast & Brunch"}, {"alias": "sandwiches", "title": "Sandwiches"}, {"alias": "coffee", "title": "Coffee & Tea"}], "rating": 4.0, "coordinates": {"latitude": 38.3466383, "longitude": -122.7074352}, "transactions": ["delivery", "pickup"], "price": "$$", "location": {"address1": "90 Raley's Town Ctr", "address2": null, "address3": "", "city": "Rohnert Park", "zip_code": "94928", "country": "US", "state": "CA", "display_address": ["90 Raley's Town Ctr", "Rohnert Park, CA 94928"]}, "phone": "+17075369673", "display_phone": "(707) 536-9673", "distance": 376.7907646923266}, {"id": "bNeBqgJqPgP4Bays0mfm8w", "alias": "chilis-rohnert-park-3", "name": "Chili's", "image_url": "https://s3-media3.fl.yelpcdn.com/bphoto/6oxLkT2IPvaGizf7YhBqYg/o.jpg", "is_closed": false, "url": "https://www.yelp.com/biz/chilis-rohnert-park-3?adjust_creative=IokN4du3-7NwKcCaUms5LA&utm_campaign=yelp_api_v3&utm_medium=api_v3_business_search&utm_source=IokN4du3-7NwKcCaUms5LA", "review_count": 204, "categories": [{"alias": "tex-mex", "title": "Tex-Mex"}, {"alias": "tradamerican", "title": "American (Traditional)"}, {"alias": "bars", "title": "Bars"}], "rating": 2.5, "coordinates": {"latitude": 38.36548, "longitude": -122.71394}, "transactions": ["delivery"], "price": "$$", "location": {"address1": "4851 Redwood Dr", "address2": "", "address3": "", "city": "Rohnert Park", "zip_code": "94928", "country": "US", "state": "CA", "display_address": ["4851 Redwood Dr", "Rohnert Park, CA 94928"]}, "phone": "+17075859069", "display_phone": "(707) 585-9069", "distance": 2018.0301511259147}, {"id": "qoIVBVCDLTCU1lIASFEFFA", "alias": "grindstone-bakery-rohnert-park-2", "name": "Grindstone Bakery", "image_url": "https://s3-media1.fl.yelpcdn.com/bphoto/lkKGAojB_bvwDEHP5XfJDw/o.jpg", "is_closed": false, "url": "https://www.yelp.com/biz/grindstone-bakery-rohnert-park-2?adjust_creative=IokN4du3-7NwKcCaUms5LA&utm_campaign=yelp_api_v3&utm_medium=api_v3_business_search&utm_source=IokN4du3-7NwKcCaUms5LA", "review_count": 21, "categories": [{"alias": "bakeries", "title": "Bakeries"}, {"alias": "gluten_free", "title": "Gluten-Free"}], "rating": 4.5, "coordinates": {"latitude": 38.3516629, "longitude": -122.7218767}, "transactions": [], "price": "$$", "location": {"address1": "500 Martin Ave", "address2": "", "address3": "", "city": "Rohnert Park", "zip_code": "94928", "country": "US", "state": "CA", "display_address": ["500 Martin Ave", "Rohnert Park, CA 94928"]}, "phone": "+17075156666", "display_phone": "(707) 515-6666", "distance": 1550.3858042854552}, {"id": "aMnvfVBXeocHY5kpNlTeTg", "alias": "port-of-subs-rohnert-park", "name": "Port of Subs", "image_url": "https://s3-media1.fl.yelpcdn.com/bphoto/VJgHnmNtR7q3GykuiTG3yw/o.jpg", "is_closed": false, "url": "https://www.yelp.com/biz/port-of-subs-rohnert-park?adjust_creative=IokN4du3-7NwKcCaUms5LA&utm_campaign=yelp_api_v3&utm_medium=api_v3_business_search&utm_source=IokN4du3-7NwKcCaUms5LA", "review_count": 49, "categories": [{"alias": "sandwiches", "title": "Sandwiches"}, {"alias": "delis", "title": "Delis"}], "rating": 4.0, "coordinates": {"latitude": 38.3473865132718, "longitude": -122.707221508026}, "transactions": ["delivery", "pickup"], "price": "$", "location": {"address1": "350 Raley'S Towne Centre", "address2": "", "address3": "", "city": "Rohnert Park", "zip_code": "94928", "country": "US", "state": "CA", "display_address": ["350 Raley'S Towne Centre", "Rohnert Park, CA 94928"]}, "phone": "+17075843839", "display_phone": "(707) 584-3839", "distance": 307.63158930888386}, {"id": "yXs4ghMquMzKSaHZkm6mPQ", "alias": "black-bear-diner-rohnert-park", "name": "Black Bear Diner", "image_url": "https://s3-media2.fl.yelpcdn.com/bphoto/b2ehUGs83xmVFoHmsWPDQQ/o.jpg", "is_closed": false, "url": "https://www.yelp.com/biz/black-bear-diner-rohnert-park?adjust_creative=IokN4du3-7NwKcCaUms5LA&utm_campaign=yelp_api_v3&utm_medium=api_v3_business_search&utm_source=IokN4du3-7NwKcCaUms5LA", "review_count": 428, "categories": [{"alias": "diners", "title": "Diners"}, {"alias": "breakfast_brunch", "title": "Breakfast & Brunch"}, {"alias": "burgers", "title": "Burgers"}], "rating": 3.0, "coordinates": {"latitude": 38.34963, "longitude": -122.71022}, "transactions": [], "price": "$$", "location": {"address1": "6255 Commerce Blvd", "address2": "", "address3": "", "city": "Rohnert Park", "zip_code": "94928", "country": "US", "state": "CA", "display_address": ["6255 Commerce Blvd", "Rohnert Park, CA 94928"]}, "phone": "+17075848552", "display_phone": "(707) 584-8552", "distance": 503.90177160692946}, {"id": "DHw4FduS8p86Z3RUiszdSw", "alias": "applebees-grill-bar-rohnert-park", "name": "Applebee's Grill + Bar", "image_url": "https://s3-media3.fl.yelpcdn.com/bphoto/Fi2CKVHV_I1Q7tL8KvniVQ/o.jpg", "is_closed": false, "url": "https://www.yelp.com/biz/applebees-grill-bar-rohnert-park?adjust_creative=IokN4du3-7NwKcCaUms5LA&utm_campaign=yelp_api_v3&utm_medium=api_v3_business_search&utm_source=IokN4du3-7NwKcCaUms5LA", "review_count": 117, "categories": [{"alias": "tradamerican", "title": "American (Traditional)"}, {"alias": "sportsbars", "title": "Sports Bars"}, {"alias": "burgers", "title": "Burgers"}], "rating": 2.0, "coordinates": {"latitude": 38.348473, "longitude": -122.721766}, "transactions": ["delivery", "pickup"], "price": "$$", "location": {"address1": "501 Rohnert Park Exressway", "address2": "", "address3": "", "city": "Rohnert Park", "zip_code": "94928", "country": "US", "state": "CA", "display_address": ["501 Rohnert Park Exressway", "Rohnert Park, CA 94928"]}, "phone": "+17072060660", "display_phone": "(707) 206-0660", "distance": 1514.8685511715194}, {"id": "SV2AlKe-YWjIhYGPMNf4gg", "alias": "china-wok-restaurant-rohnert-park", "name": "China Wok Restaurant", "image_url": "https://s3-media3.fl.yelpcdn.com/bphoto/VdFIQ6TKuyLPWIRz62f9EQ/o.jpg", "is_closed": false, "url": "https://www.yelp.com/biz/china-wok-restaurant-rohnert-park?adjust_creative=IokN4du3-7NwKcCaUms5LA&utm_campaign=yelp_api_v3&utm_medium=api_v3_business_search&utm_source=IokN4du3-7NwKcCaUms5LA", "review_count": 76, "categories": [{"alias": "chinese", "title": "Chinese"}], "rating": 3.5, "coordinates": {"latitude": 38.335053, "longitude": -122.68606}, "transactions": [], "price": "$$", "location": {"address1": "1460 E Cotati Ave", "address2": "Ste C", "address3": "", "city": "Rohnert Park", "zip_code": "94928", "country": "US", "state": "CA", "display_address": ["1460 E Cotati Ave", "Ste C", "Rohnert Park, CA 94928"]}, "phone": "+17077929889", "display_phone": "(707) 792-9889", "distance": 2233.0335425882167}, {"id": "NjFtlas6PL2ZQjGtYqeuvA", "alias": "the-habit-burger-grill-rohnert-park-2", "name": "The Habit Burger Grill", "image_url": "https://s3-media1.fl.yelpcdn.com/bphoto/eyRMKZ8cscSPdyJuXtKb3w/o.jpg", "is_closed": false, "url": "https://www.yelp.com/biz/the-habit-burger-grill-rohnert-park-2?adjust_creative=IokN4du3-7NwKcCaUms5LA&utm_campaign=yelp_api_v3&utm_medium=api_v3_business_search&utm_source=IokN4du3-7NwKcCaUms5LA", "review_count": 69, "categories": [{"alias": "burgers", "title": "Burgers"}], "rating": 3.5, "coordinates": {"latitude": 38.3610162442451, "longitude": -122.724145232199}, "transactions": [], "price": "$", "location": {"address1": "630 Park Ct", "address2": "", "address3": "Graton Resort & Casino", "city": "Rohnert Park", "zip_code": "94928", "country": "US", "state": "CA", "display_address": ["630 Park Ct", "Graton Resort & Casino", "Rohnert Park, CA 94928"]}, "phone": "+17075857960", "display_phone": "(707) 585-7960", "distance": 2174.675026284401}, {"id": "XLusXMfaxQ_fb2mq-T6kQA", "alias": "round-table-pizza-rohnert-park-3", "name": "Round Table Pizza", "image_url": "https://s3-media3.fl.yelpcdn.com/bphoto/QPZHaj4g3vAlovqJhnaJtg/o.jpg", "is_closed": false, "url": "https://www.yelp.com/biz/round-table-pizza-rohnert-park-3?adjust_creative=IokN4du3-7NwKcCaUms5LA&utm_campaign=yelp_api_v3&utm_medium=api_v3_business_search&utm_source=IokN4du3-7NwKcCaUms5LA", "review_count": 67, "categories": [{"alias": "pizza", "title": "Pizza"}, {"alias": "salad", "title": "Salad"}], "rating": 3.0, "coordinates": {"latitude": 38.3481332671014, "longitude": -122.708582276269}, "transactions": ["delivery", "pickup"], "price": "$$", "location": {"address1": "40 Raley's Towne Ctr", "address2": "", "address3": "", "city": "Rohnert Park", "zip_code": "94928", "country": "US", "state": "CA", "display_address": ["40 Raley's Towne Ctr", "Rohnert Park, CA 94928"]}, "phone": "+17075850555", "display_phone": "(707) 585-0555", "distance": 378.04923064243906}, {"id": "htFKAU3x9AswK1gZjxY3ag", "alias": "fu-zhou-chinese-restaurant-cotati", "name": "Fu Zhou Chinese Restaurant", "image_url": "https://s3-media1.fl.yelpcdn.com/bphoto/NHcJk1sFTafJbeYD1RCJvA/o.jpg", "is_closed": false, "url": "https://www.yelp.com/biz/fu-zhou-chinese-restaurant-cotati?adjust_creative=IokN4du3-7NwKcCaUms5LA&utm_campaign=yelp_api_v3&utm_medium=api_v3_business_search&utm_source=IokN4du3-7NwKcCaUms5LA", "review_count": 109, "categories": [{"alias": "chinese", "title": "Chinese"}], "rating": 3.0, "coordinates": {"latitude": 38.3288048, "longitude": -122.6986151}, "transactions": [], "price": "$", "location": {"address1": "572 E Cotati Ave", "address2": "", "address3": "", "city": "Cotati", "zip_code": "94931", "country": "US", "state": "CA", "display_address": ["572 E Cotati Ave", "Cotati, CA 94931"]}, "phone": "+17077957680", "display_phone": "(707) 795-7680", "distance": 2388.673610479549}, {"id": "TZIhdfTfNVABM8qtIbexvA", "alias": "china-chef-cotati", "name": "China Chef", "image_url": "https://s3-media3.fl.yelpcdn.com/bphoto/Jb9jOhI-qm4wou1fFLxObA/o.jpg", "is_closed": false, "url": "https://www.yelp.com/biz/china-chef-cotati?adjust_creative=IokN4du3-7NwKcCaUms5LA&utm_campaign=yelp_api_v3&utm_medium=api_v3_business_search&utm_source=IokN4du3-7NwKcCaUms5LA", "review_count": 188, "categories": [{"alias": "chinese", "title": "Chinese"}, {"alias": "seafood", "title": "Seafood"}, {"alias": "noodles", "title": "Noodles"}], "rating": 3.0, "coordinates": {"latitude": 38.3284798, "longitude": -122.7082768}, "transactions": ["delivery", "pickup"], "price": "$$", "location": {"address1": "7991 Old Redwood Hwy", "address2": "Ste 2B", "address3": "", "city": "Cotati", "zip_code": "94931", "country": "US", "state": "CA", "display_address": ["7991 Old Redwood Hwy", "Ste 2B", "Cotati, CA 94931"]}, "phone": "+17076641088", "display_phone": "(707) 664-1088", "distance": 2331.494072061074}, {"id": "9PbEMtvdJg1m4dDsbFSewA", "alias": "panera-bread-rohnert-park-2", "name": "Panera Bread", "image_url": "https://s3-media1.fl.yelpcdn.com/bphoto/xMWJsm9E9Jgizvlc31vfrg/o.jpg", "is_closed": false, "url": "https://www.yelp.com/biz/panera-bread-rohnert-park-2?adjust_creative=IokN4du3-7NwKcCaUms5LA&utm_campaign=yelp_api_v3&utm_medium=api_v3_business_search&utm_source=IokN4du3-7NwKcCaUms5LA", "review_count": 112, "categories": [{"alias": "salad", "title": "Salad"}, {"alias": "soup", "title": "Soup"}, {"alias": "sandwiches", "title": "Sandwiches"}], "rating": 3.0, "coordinates": {"latitude": 38.3478896, "longitude": -122.7104945}, "transactions": [], "price": "$$", "location": {"address1": "6305 Commerce Blvd", "address2": "", "address3": "", "city": "Rohnert Park", "zip_code": "94928", "country": "US", "state": "CA", "display_address": ["6305 Commerce Blvd", "Rohnert Park, CA 94928"]}, "phone": "+17075857647", "display_phone": "(707) 585-7647", "distance": 546.2275540587418}, {"id": "6Q1mI7GGVuZYFxPUHW4jzA", "alias": "caf\u00e9-des-croissants-rohnert-park-2", "name": "Caf\u00e9 des Croissants", "image_url": "https://s3-media2.fl.yelpcdn.com/bphoto/oz6Sezl1QD482VzzmDk-cg/o.jpg", "is_closed": false, "url": "https://www.yelp.com/biz/caf%C3%A9-des-croissants-rohnert-park-2?adjust_creative=IokN4du3-7NwKcCaUms5LA&utm_campaign=yelp_api_v3&utm_medium=api_v3_business_search&utm_source=IokN4du3-7NwKcCaUms5LA", "review_count": 85, "categories": [{"alias": "cafes", "title": "Cafes"}, {"alias": "breakfast_brunch", "title": "Breakfast & Brunch"}, {"alias": "sandwiches", "title": "Sandwiches"}], "rating": 4.0, "coordinates": {"latitude": 38.3469319017261, "longitude": -122.707131992375}, "transactions": ["delivery", "pickup"], "price": "$", "location": {"address1": "450 Raley's Town Ctr", "address2": "", "address3": "", "city": "Rohnert Park", "zip_code": "94928", "country": "US", "state": "CA", "display_address": ["450 Raley's Town Ctr", "Rohnert Park, CA 94928"]}, "phone": "+17077914139", "display_phone": "(707) 791-4139", "distance": 334.99058574301904}, {"id": "CmiO3x0Oyu8QNX8pxfGtXA", "alias": "the-coffee-doctor-rohnert-park", "name": "The Coffee Doctor", "image_url": "https://s3-media1.fl.yelpcdn.com/bphoto/LDHeSy8S3oUPZKburrHYwg/o.jpg", "is_closed": false, "url": "https://www.yelp.com/biz/the-coffee-doctor-rohnert-park?adjust_creative=IokN4du3-7NwKcCaUms5LA&utm_campaign=yelp_api_v3&utm_medium=api_v3_business_search&utm_source=IokN4du3-7NwKcCaUms5LA", "review_count": 10, "categories": [{"alias": "coffee", "title": "Coffee & Tea"}, {"alias": "juicebars", "title": "Juice Bars & Smoothies"}, {"alias": "breakfast_brunch", "title": "Breakfast & Brunch"}], "rating": 4.5, "coordinates": {"latitude": 38.354034, "longitude": -122.706464}, "transactions": ["delivery"], "price": "$", "location": {"address1": "5900 State Farm Dr", "address2": "", "address3": "", "city": "Rohnert Park", "zip_code": "94928", "country": "US", "state": "CA", "display_address": ["5900 State Farm Dr", "Rohnert Park, CA 94928"]}, "phone": "+17072063076", "display_phone": "(707) 206-3076", "distance": 581.5466892942753}, {"id": "jw0wJ2wjwOfuySegI5zr0g", "alias": "mi-farolito-rohnert-park", "name": "Mi Farolito", "image_url": "https://s3-media4.fl.yelpcdn.com/bphoto/ZMgTmHhrq5IzmfczFj39Bw/o.jpg", "is_closed": false, "url": "https://www.yelp.com/biz/mi-farolito-rohnert-park?adjust_creative=IokN4du3-7NwKcCaUms5LA&utm_campaign=yelp_api_v3&utm_medium=api_v3_business_search&utm_source=IokN4du3-7NwKcCaUms5LA", "review_count": 46, "categories": [{"alias": "mexican", "title": "Mexican"}], "rating": 3.5, "coordinates": {"latitude": 38.3461367098396, "longitude": -122.710563952908}, "transactions": [], "price": "$", "location": {"address1": "6585 Commerce Blvd", "address2": "Ste C", "address3": "", "city": "Rohnert Park", "zip_code": "94928", "country": "US", "state": "CA", "display_address": ["6585 Commerce Blvd", "Ste C", "Rohnert Park, CA 94928"]}, "phone": "+17075889522", "display_phone": "(707) 588-9522", "distance": 627.2770416225187}, {"id": "OQ0unsFRFBCTPOBkB_PL6g", "alias": "el-fogon-taqueria-rohnert-park-2", "name": "El Fogon Taqueria", "image_url": "https://s3-media1.fl.yelpcdn.com/bphoto/6YnHKM6Rx4YEfto-k3GH3g/o.jpg", "is_closed": false, "url": "https://www.yelp.com/biz/el-fogon-taqueria-rohnert-park-2?adjust_creative=IokN4du3-7NwKcCaUms5LA&utm_campaign=yelp_api_v3&utm_medium=api_v3_business_search&utm_source=IokN4du3-7NwKcCaUms5LA", "review_count": 19, "categories": [{"alias": "mexican", "title": "Mexican"}], "rating": 3.0, "coordinates": {"latitude": 38.3434, "longitude": -122.71141}, "transactions": [], "location": {"address1": "6650 Commerce Blvd", "address2": "", "address3": null, "city": "Rohnert Park", "zip_code": "94928", "country": "US", "state": "CA", "display_address": ["6650 Commerce Blvd", "Rohnert Park, CA 94928"]}, "phone": "+17075851623", "display_phone": "(707) 585-1623", "distance": 817.1877982248214}, {"id": "eZ1XIAos_c_VkSBTsxZGuA", "alias": "sharis-cafe-and-pies-rohnert-park", "name": "Shari's Cafe & Pies", "image_url": "https://s3-media2.fl.yelpcdn.com/bphoto/vvPANepX9ULCfxYsGNsgYQ/o.jpg", "is_closed": false, "url": "https://www.yelp.com/biz/sharis-cafe-and-pies-rohnert-park?adjust_creative=IokN4du3-7NwKcCaUms5LA&utm_campaign=yelp_api_v3&utm_medium=api_v3_business_search&utm_source=IokN4du3-7NwKcCaUms5LA", "review_count": 221, "categories": [{"alias": "diners", "title": "Diners"}, {"alias": "breakfast_brunch", "title": "Breakfast & Brunch"}, {"alias": "tradamerican", "title": "American (Traditional)"}], "rating": 2.5, "coordinates": {"latitude": 38.3483750341529, "longitude": -122.707788545536}, "transactions": ["delivery", "pickup"], "price": "$$", "location": {"address1": "301 Rohnert Park Expy", "address2": "", "address3": "", "city": "Rohnert Park", "zip_code": "94928", "country": "US", "state": "CA", "display_address": ["301 Rohnert Park Expy", "Rohnert Park, CA 94928"]}, "phone": "+17075843601", "display_phone": "(707) 584-3601", "distance": 1130.205942367138}, {"id": "zIsnCBBNsnDg2PUXPF8W1g", "alias": "popeyes-louisiana-kitchen-rohnert-park", "name": "Popeyes Louisiana Kitchen", "image_url": "https://s3-media3.fl.yelpcdn.com/bphoto/h1Sw2jwPSPluNr6DiYhGfQ/o.jpg", "is_closed": false, "url": "https://www.yelp.com/biz/popeyes-louisiana-kitchen-rohnert-park?adjust_creative=IokN4du3-7NwKcCaUms5LA&utm_campaign=yelp_api_v3&utm_medium=api_v3_business_search&utm_source=IokN4du3-7NwKcCaUms5LA", "review_count": 181, "categories": [{"alias": "hotdogs", "title": "Fast Food"}, {"alias": "chicken_wings", "title": "Chicken Wings"}], "rating": 1.5, "coordinates": {"latitude": 38.349535, "longitude": -122.7090931}, "transactions": [], "price": "$", "location": {"address1": "3 Padre Pkwy", "address2": "", "address3": "", "city": "Rohnert Park", "zip_code": "94928", "country": "US", "state": "CA", "display_address": ["3 Padre Pkwy", "Rohnert Park, CA 94928"]}, "phone": "+17075888340", "display_phone": "(707) 588-8340", "distance": 411.7643078179558}, {"id": "Zd2dTd0N2NUSQFrjbSG6SQ", "alias": "new-york-bagel-rohnert-park", "name": "New York Bagel", "image_url": "https://s3-media3.fl.yelpcdn.com/bphoto/al-HXU0sqFL5rbF_MdU2pQ/o.jpg", "is_closed": false, "url": "https://www.yelp.com/biz/new-york-bagel-rohnert-park?adjust_creative=IokN4du3-7NwKcCaUms5LA&utm_campaign=yelp_api_v3&utm_medium=api_v3_business_search&utm_source=IokN4du3-7NwKcCaUms5LA", "review_count": 53, "categories": [{"alias": "bagels", "title": "Bagels"}, {"alias": "sandwiches", "title": "Sandwiches"}], "rating": 3.5, "coordinates": {"latitude": 38.3468301, "longitude": -122.7093803}, "transactions": [], "price": "$", "location": {"address1": "6400 Commerce Blvd", "address2": "", "address3": "", "city": "Rohnert Park", "zip_code": "94928", "country": "US", "state": "CA", "display_address": ["6400 Commerce Blvd", "Rohnert Park, CA 94928"]}, "phone": "+17075880414", "display_phone": "(707) 588-0414", "distance": 540.8799885059582}, {"id": "uVDThs7fwXr_hGSEWoNkTw", "alias": "taco-loco-rohnert-park", "name": "Taco Loco", "image_url": "https://s3-media1.fl.yelpcdn.com/bphoto/hH9x6S8jx778GE7OgL2sWw/o.jpg", "is_closed": false, "url": "https://www.yelp.com/biz/taco-loco-rohnert-park?adjust_creative=IokN4du3-7NwKcCaUms5LA&utm_campaign=yelp_api_v3&utm_medium=api_v3_business_search&utm_source=IokN4du3-7NwKcCaUms5LA", "review_count": 1, "categories": [{"alias": "mexican", "title": "Mexican"}], "rating": 5.0, "coordinates": {"latitude": 38.335211, "longitude": -122.706616}, "transactions": [], "location": {"address1": "217 Sw Blvd", "address2": "", "address3": "", "city": "Rohnert Park", "zip_code": "94928", "country": "US", "state": "CA", "display_address": ["217 Sw Blvd", "Rohnert Park, CA 94928"]}, "phone": "", "display_phone": "", "distance": 1551.6939725633613}, {"id": "Ju-JGwaUnyXk16A8ZzCR8Q", "alias": "lilajays-baked-goods-cotati", "name": "Lilajay's Baked Goods", "image_url": "https://s3-media2.fl.yelpcdn.com/bphoto/7WecXfQsQMBTepQSUb-IBg/o.jpg", "is_closed": false, "url": "https://www.yelp.com/biz/lilajays-baked-goods-cotati?adjust_creative=IokN4du3-7NwKcCaUms5LA&utm_campaign=yelp_api_v3&utm_medium=api_v3_business_search&utm_source=IokN4du3-7NwKcCaUms5LA", "review_count": 10, "categories": [{"alias": "gluten_free", "title": "Gluten-Free"}, {"alias": "bakeries", "title": "Bakeries"}], "rating": 5.0, "coordinates": {"latitude": 38.3284, "longitude": -122.70563}, "transactions": [], "price": "$$", "location": {"address1": "", "address2": "", "address3": "", "city": "Cotati", "zip_code": "94931", "country": "US", "state": "CA", "display_address": ["Cotati, CA 94931"]}, "phone": "+17072415023", "display_phone": "(707) 241-5023", "distance": 2239.7862405015894}, {"id": "vs97QREuVkRc90wSHehC5A", "alias": "chipotle-mexican-grill-rohnert-park", "name": "Chipotle Mexican Grill", "image_url": "https://s3-media4.fl.yelpcdn.com/bphoto/uD7p9jyHcBQkVhnyBcL3aA/o.jpg", "is_closed": false, "url": "https://www.yelp.com/biz/chipotle-mexican-grill-rohnert-park?adjust_creative=IokN4du3-7NwKcCaUms5LA&utm_campaign=yelp_api_v3&utm_medium=api_v3_business_search&utm_source=IokN4du3-7NwKcCaUms5LA", "review_count": 117, "categories": [{"alias": "mexican", "title": "Mexican"}, {"alias": "hotdogs", "title": "Fast Food"}], "rating": 3.0, "coordinates": {"latitude": 38.3473264482198, "longitude": -122.7101293}, "transactions": [], "price": "$", "location": {"address1": "6325 Commerce Blvd", "address2": "", "address3": "", "city": "Rohnert Park", "zip_code": "94928", "country": "US", "state": "CA", "display_address": ["6325 Commerce Blvd", "Rohnert Park, CA 94928"]}, "phone": "+17075360348", "display_phone": "(707) 536-0348", "distance": 534.5854335217439}, {"id": "TajlBDAQDdoxADddid3G_g", "alias": "tubbys-restaurant-rohnert-park", "name": "Tubby's Restaurant", "image_url": "https://s3-media2.fl.yelpcdn.com/bphoto/2w5b2Ro2-CRBpG0TPzhLgg/o.jpg", "is_closed": false, "url": "https://www.yelp.com/biz/tubbys-restaurant-rohnert-park?adjust_creative=IokN4du3-7NwKcCaUms5LA&utm_campaign=yelp_api_v3&utm_medium=api_v3_business_search&utm_source=IokN4du3-7NwKcCaUms5LA", "review_count": 49, "categories": [{"alias": "tradamerican", "title": "American (Traditional)"}, {"alias": "breakfast_brunch", "title": "Breakfast & Brunch"}], "rating": 3.5, "coordinates": {"latitude": 38.3358897094282, "longitude": -122.706952777885}, "transactions": [], "price": "$$", "location": {"address1": "199 Southwest Blvd", "address2": "", "address3": "", "city": "Rohnert Park", "zip_code": "94928", "country": "US", "state": "CA", "display_address": ["199 Southwest Blvd", "Rohnert Park, CA 94928"]}, "phone": "+17077921232", "display_phone": "(707) 792-1232", "distance": 1480.9481517718891}, {"id": "prQyd8_j8nTlrdroHyJtow", "alias": "daily-grill-rohnert-park-3", "name": "Daily Grill", "image_url": "https://s3-media4.fl.yelpcdn.com/bphoto/PIjsPs95uSyJbFpdTGBgJA/o.jpg", "is_closed": false, "url": "https://www.yelp.com/biz/daily-grill-rohnert-park-3?adjust_creative=IokN4du3-7NwKcCaUms5LA&utm_campaign=yelp_api_v3&utm_medium=api_v3_business_search&utm_source=IokN4du3-7NwKcCaUms5LA", "review_count": 8, "categories": [{"alias": "breakfast_brunch", "title": "Breakfast & Brunch"}, {"alias": "tradamerican", "title": "American (Traditional)"}, {"alias": "cocktailbars", "title": "Cocktail Bars"}], "rating": 3.5, "coordinates": {"latitude": 38.3602191120732, "longitude": -122.722827774206}, "transactions": [], "location": {"address1": "288 Golf Course Dr W", "address2": null, "address3": null, "city": "Rohnert Park", "zip_code": "94928", "country": "US", "state": "CA", "display_address": ["288 Golf Course Dr W", "Rohnert Park, CA 94928"]}, "phone": "+17075857505", "display_phone": "(707) 585-7505", "distance": 2029.583830454601}, {"id": "RB0GHeKibW3X_LWgeOkdww", "alias": "roadside-bbq-rohnert-park-2", "name": "Roadside BBQ", "image_url": "https://s3-media2.fl.yelpcdn.com/bphoto/g3p0slpOCKOBEtwRYuuAPw/o.jpg", "is_closed": false, "url": "https://www.yelp.com/biz/roadside-bbq-rohnert-park-2?adjust_creative=IokN4du3-7NwKcCaUms5LA&utm_campaign=yelp_api_v3&utm_medium=api_v3_business_search&utm_source=IokN4du3-7NwKcCaUms5LA", "review_count": 25, "categories": [{"alias": "salad", "title": "Salad"}, {"alias": "bbq", "title": "Barbeque"}], "rating": 2.0, "coordinates": {"latitude": 38.361116, "longitude": -122.723708}, "transactions": [], "price": "$$", "location": {"address1": "630 Park Ct", "address2": "", "address3": "", "city": "Rohnert Park", "zip_code": "94928", "country": "US", "state": "CA", "display_address": ["630 Park Ct", "Rohnert Park, CA 94928"]}, "phone": "+17072069131", "display_phone": "(707) 206-9131", "distance": 2151.5275284735085}, {"id": "NWzx5Kxg6RrXXheZ35B9zg", "alias": "mountain-mikes-pizza-rohnert-park-2", "name": "Mountain Mike's Pizza", "image_url": "https://s3-media2.fl.yelpcdn.com/bphoto/KRPNQczv-Dr-Km_Da3aTgQ/o.jpg", "is_closed": false, "url": "https://www.yelp.com/biz/mountain-mikes-pizza-rohnert-park-2?adjust_creative=IokN4du3-7NwKcCaUms5LA&utm_campaign=yelp_api_v3&utm_medium=api_v3_business_search&utm_source=IokN4du3-7NwKcCaUms5LA", "review_count": 83, "categories": [{"alias": "pizza", "title": "Pizza"}], "rating": 3.5, "coordinates": {"latitude": 38.339011, "longitude": -122.6871}, "transactions": ["delivery", "pickup"], "price": "$$", "location": {"address1": "1451 Southwest Blvd", "address2": "Suite 117", "address3": "", "city": "Rohnert Park", "zip_code": "94928", "country": "US", "state": "CA", "display_address": ["1451 Southwest Blvd", "Suite 117", "Rohnert Park, CA 94928"]}, "phone": "+17077954433", "display_phone": "(707) 795-4433", "distance": 1878.0740773517298}, {"id": "Vm1AuFl3_SnRTPvx8o3Wdw", "alias": "el-pollo-loco-rohnert-park-2", "name": "El Pollo Loco", "image_url": "https://s3-media1.fl.yelpcdn.com/bphoto/ZOebROhVQrOGMHtCflHwUw/o.jpg", "is_closed": false, "url": "https://www.yelp.com/biz/el-pollo-loco-rohnert-park-2?adjust_creative=IokN4du3-7NwKcCaUms5LA&utm_campaign=yelp_api_v3&utm_medium=api_v3_business_search&utm_source=IokN4du3-7NwKcCaUms5LA", "review_count": 95, "categories": [{"alias": "mexican", "title": "Mexican"}, {"alias": "hotdogs", "title": "Fast Food"}], "rating": 2.5, "coordinates": {"latitude": 38.3603096, "longitude": -122.7136774}, "transactions": [], "price": "$", "location": {"address1": "5225 Redwood Dr", "address2": "", "address3": "", "city": "Rohnert Park", "zip_code": "94928", "country": "US", "state": "CA", "display_address": ["5225 Redwood Dr", "Rohnert Park, CA 94928"]}, "phone": "+17075848677", "display_phone": "(707) 584-8677", "distance": 1459.9768899053101}, {"id": "pNYbWUueDxWNkWwRLMLeFg", "alias": "mocha-madness-rohnert-park-3", "name": "Mocha Madness", "image_url": "https://s3-media2.fl.yelpcdn.com/bphoto/rqULYPYkJo_Hr387HpDWIg/o.jpg", "is_closed": false, "url": "https://www.yelp.com/biz/mocha-madness-rohnert-park-3?adjust_creative=IokN4du3-7NwKcCaUms5LA&utm_campaign=yelp_api_v3&utm_medium=api_v3_business_search&utm_source=IokN4du3-7NwKcCaUms5LA", "review_count": 74, "categories": [{"alias": "coffee", "title": "Coffee & Tea"}, {"alias": "breakfast_brunch", "title": "Breakfast & Brunch"}], "rating": 4.5, "coordinates": {"latitude": 38.3359887987, "longitude": -122.705940753}, "transactions": [], "price": "$", "location": {"address1": "355 Southwest Blvd", "address2": "", "address3": "", "city": "Rohnert Park", "zip_code": "94928", "country": "US", "state": "CA", "display_address": ["355 Southwest Blvd", "Rohnert Park, CA 94928"]}, "phone": "+17076648688", "display_phone": "(707) 664-8688", "distance": 1459.3542349565175}, {"id": "FPvmoa37KQT6buZcFCRdiQ", "alias": "la-fondita-taqueria-rohnert-park", "name": "La Fondita Taqueria", "image_url": "https://s3-media4.fl.yelpcdn.com/bphoto/wt4ROnKyf31IJnku0fS5sg/o.jpg", "is_closed": false, "url": "https://www.yelp.com/biz/la-fondita-taqueria-rohnert-park?adjust_creative=IokN4du3-7NwKcCaUms5LA&utm_campaign=yelp_api_v3&utm_medium=api_v3_business_search&utm_source=IokN4du3-7NwKcCaUms5LA", "review_count": 68, "categories": [{"alias": "mexican", "title": "Mexican"}], "rating": 2.0, "coordinates": {"latitude": 38.3610768565444, "longitude": -122.724049133234}, "transactions": [], "price": "$", "location": {"address1": "630 Park Ct", "address2": "", "address3": "Inside Graton", "city": "Rohnert Park", "zip_code": "94928", "country": "US", "state": "CA", "display_address": ["630 Park Ct", "Inside Graton", "Rohnert Park, CA 94928"]}, "phone": "+17075887311", "display_phone": "(707) 588-7311", "distance": 2172.1899504001967}, {"id": "zF15FMDsD0_q92ZNFCMiSg", "alias": "slice-house-by-tony-gemignani-rohnert-park", "name": "Slice House By Tony Gemignani", "image_url": "https://s3-media2.fl.yelpcdn.com/bphoto/wF9n18zZZlbALAN-MEQ_wA/o.jpg", "is_closed": false, "url": "https://www.yelp.com/biz/slice-house-by-tony-gemignani-rohnert-park?adjust_creative=IokN4du3-7NwKcCaUms5LA&utm_campaign=yelp_api_v3&utm_medium=api_v3_business_search&utm_source=IokN4du3-7NwKcCaUms5LA", "review_count": 7, "categories": [{"alias": "pizza", "title": "Pizza"}, {"alias": "italian", "title": "Italian"}], "rating": 2.0, "coordinates": {"latitude": 38.3608651256679, "longitude": -122.72394541651}, "transactions": [], "location": {"address1": "630 Park Court Food Ct", "address2": "", "address3": null, "city": "Rohnert Park", "zip_code": "94928", "country": "US", "state": "CA", "display_address": ["630 Park Court Food Ct", "Rohnert Park, CA 94928"]}, "phone": "+17075882777", "display_phone": "(707) 588-2777", "distance": 2150.616776760325}, {"id": "ldrvmMAMx8Iw2aeLwPlEYw", "alias": "panda-express-rohnert-park", "name": "Panda Express", "image_url": "https://s3-media1.fl.yelpcdn.com/bphoto/IJvGMQm_hScdrKE2rIvHnw/o.jpg", "is_closed": false, "url": "https://www.yelp.com/biz/panda-express-rohnert-park?adjust_creative=IokN4du3-7NwKcCaUms5LA&utm_campaign=yelp_api_v3&utm_medium=api_v3_business_search&utm_source=IokN4du3-7NwKcCaUms5LA", "review_count": 61, "categories": [{"alias": "chinese", "title": "Chinese"}, {"alias": "hotdogs", "title": "Fast Food"}], "rating": 2.5, "coordinates": {"latitude": 38.34842, "longitude": -122.72026}, "transactions": [], "price": "$", "location": {"address1": "431 Rohnert Park", "address2": "", "address3": "", "city": "Rohnert Park", "zip_code": "94928", "country": "US", "state": "CA", "display_address": ["431 Rohnert Park", "Rohnert Park, CA 94928"]}, "phone": "+17075847276", "display_phone": "(707) 584-7276", "distance": 1333.0178865201349}, {"id": "9TNcrIdg7PHpJvgvEKIjPQ", "alias": "taqueria-los-potrillos-no-3-rohnert-park", "name": "Taqueria Los Potrillos No 3", "image_url": "https://s3-media4.fl.yelpcdn.com/bphoto/N0SAwehvBhke7vEMR9e5AQ/o.jpg", "is_closed": false, "url": "https://www.yelp.com/biz/taqueria-los-potrillos-no-3-rohnert-park?adjust_creative=IokN4du3-7NwKcCaUms5LA&utm_campaign=yelp_api_v3&utm_medium=api_v3_business_search&utm_source=IokN4du3-7NwKcCaUms5LA", "review_count": 1, "categories": [{"alias": "restaurants", "title": "Restaurants"}], "rating": 4.0, "coordinates": {"latitude": 38.348715081811, "longitude": -122.718952149153}, "transactions": [], "location": {"address1": "370 Rohnert Park Expy W", "address2": "", "address3": "", "city": "Rohnert Park", "zip_code": "94928", "country": "US", "state": "CA", "display_address": ["370 Rohnert Park Expy W", "Rohnert Park, CA 94928"]}, "phone": "+17075850410", "display_phone": "(707) 585-0410", "distance": 1310.7466462981404}, {"id": "DYD0shFoUy8z91yPMaer_w", "alias": "taqueria-el-paisa-rohnert-park", "name": "Taqueria El Paisa", "image_url": "https://s3-media4.fl.yelpcdn.com/bphoto/DZZsQBZ9T1BmGm_ZyG7JZw/o.jpg", "is_closed": false, "url": "https://www.yelp.com/biz/taqueria-el-paisa-rohnert-park?adjust_creative=IokN4du3-7NwKcCaUms5LA&utm_campaign=yelp_api_v3&utm_medium=api_v3_business_search&utm_source=IokN4du3-7NwKcCaUms5LA", "review_count": 38, "categories": [{"alias": "mexican", "title": "Mexican"}, {"alias": "latin", "title": "Latin American"}, {"alias": "seafood", "title": "Seafood"}], "rating": 3.5, "coordinates": {"latitude": 38.3356762077131, "longitude": -122.708656373367}, "transactions": [], "price": "$", "location": {"address1": "157 Sw Blvd", "address2": "", "address3": "", "city": "Rohnert Park", "zip_code": "94928", "country": "US", "state": "CA", "display_address": ["157 Sw Blvd", "Rohnert Park, CA 94928"]}, "phone": "+17079920345", "display_phone": "(707) 992-0345", "distance": 1533.3788649404985}, {"id": "-XMBSNtdXp9ycxVUMMcqew", "alias": "sonoma-valley-bagel-rohnert-park-3", "name": "Sonoma Valley Bagel", "image_url": "https://s3-media2.fl.yelpcdn.com/bphoto/yi7BJfXT_zdOxXHilWFoMA/o.jpg", "is_closed": false, "url": "https://www.yelp.com/biz/sonoma-valley-bagel-rohnert-park-3?adjust_creative=IokN4du3-7NwKcCaUms5LA&utm_campaign=yelp_api_v3&utm_medium=api_v3_business_search&utm_source=IokN4du3-7NwKcCaUms5LA", "review_count": 118, "categories": [{"alias": "bagels", "title": "Bagels"}, {"alias": "cafes", "title": "Cafes"}, {"alias": "sandwiches", "title": "Sandwiches"}], "rating": 3.5, "coordinates": {"latitude": 38.349229, "longitude": -122.718922}, "transactions": [], "price": "$", "location": {"address1": "350 Rohnert Park Expy W", "address2": "", "address3": "", "city": "Rohnert Park", "zip_code": "94928", "country": "US", "state": "CA", "display_address": ["350 Rohnert Park Expy W", "Rohnert Park, CA 94928"]}, "phone": "+17075858095", "display_phone": "(707) 585-8095", "distance": 1265.597597844377}, {"id": "qnNilkaM5AYrZUamiJLxXw", "alias": "el-roys-mexican-grill-food-truck-petaluma", "name": "El Roy's Mexican Grill Food Truck", "image_url": "https://s3-media1.fl.yelpcdn.com/bphoto/L9jAgQYDlrkr7bizfCMylw/o.jpg", "is_closed": false, "url": "https://www.yelp.com/biz/el-roys-mexican-grill-food-truck-petaluma?adjust_creative=IokN4du3-7NwKcCaUms5LA&utm_campaign=yelp_api_v3&utm_medium=api_v3_business_search&utm_source=IokN4du3-7NwKcCaUms5LA", "review_count": 279, "categories": [{"alias": "mexican", "title": "Mexican"}, {"alias": "foodtrucks", "title": "Food Trucks"}], "rating": 4.5, "coordinates": {"latitude": 38.2397441466801, "longitude": -122.633983174041}, "transactions": [], "price": "$", "location": {"address1": "401 E Washington St", "address2": "", "address3": "", "city": "Petaluma", "zip_code": "94952", "country": "US", "state": "CA", "display_address": ["401 E Washington St", "Petaluma, CA 94952"]}, "phone": "+17072416534", "display_phone": "(707) 241-6534", "distance": 13620.685325988123}, {"id": "ANKy5Zhh4O6EhkpvN7kRhQ", "alias": "johnnys-java-cotati", "name": "Johnny's Java", "image_url": "https://s3-media3.fl.yelpcdn.com/bphoto/WpSX1ztFquku3T-kOEInOA/o.jpg", "is_closed": false, "url": "https://www.yelp.com/biz/johnnys-java-cotati?adjust_creative=IokN4du3-7NwKcCaUms5LA&utm_campaign=yelp_api_v3&utm_medium=api_v3_business_search&utm_source=IokN4du3-7NwKcCaUms5LA", "review_count": 53, "categories": [{"alias": "coffee", "title": "Coffee & Tea"}, {"alias": "breakfast_brunch", "title": "Breakfast & Brunch"}, {"alias": "internetcafe", "title": "Internet Cafes"}], "rating": 3.0, "coordinates": {"latitude": 38.330926, "longitude": -122.715972}, "transactions": [], "price": "$", "location": {"address1": "8492 Gravenstein Hwy", "address2": "Ste A", "address3": "", "city": "Cotati", "zip_code": "94931", "country": "US", "state": "CA", "display_address": ["8492 Gravenstein Hwy", "Ste A", "Cotati, CA 94931"]}, "phone": "+17077940168", "display_phone": "(707) 794-0168", "distance": 2254.2802541747933}, {"id": "FdiWZ7S0WIhjabeRmQcI3A", "alias": "mcdonalds-rohnert-park", "name": "McDonald's", "image_url": "https://s3-media1.fl.yelpcdn.com/bphoto/IbRJWZ-iZDqb0YmGuiIB9A/o.jpg", "is_closed": false, "url": "https://www.yelp.com/biz/mcdonalds-rohnert-park?adjust_creative=IokN4du3-7NwKcCaUms5LA&utm_campaign=yelp_api_v3&utm_medium=api_v3_business_search&utm_source=IokN4du3-7NwKcCaUms5LA", "review_count": 45, "categories": [{"alias": "burgers", "title": "Burgers"}, {"alias": "hotdogs", "title": "Fast Food"}, {"alias": "coffee", "title": "Coffee & Tea"}], "rating": 2.0, "coordinates": {"latitude": 38.344415, "longitude": -122.711631}, "transactions": [], "price": "$", "location": {"address1": "6600 Commerce Blvd", "address2": "", "address3": "", "city": "Rohnert Park", "zip_code": "94931", "country": "US", "state": "CA", "display_address": ["6600 Commerce Blvd", "Rohnert Park, CA 94931"]}, "phone": "+17075841529", "display_phone": "(707) 584-1529", "distance": 814.2740425814395}, {"id": "VEzF0jDqY4HaqigNHPk-SA", "alias": "tonyan-mexican-restaurant-rohnert-park", "name": "Tonyan Mexican Restaurant", "image_url": "", "is_closed": false, "url": "https://www.yelp.com/biz/tonyan-mexican-restaurant-rohnert-park?adjust_creative=IokN4du3-7NwKcCaUms5LA&utm_campaign=yelp_api_v3&utm_medium=api_v3_business_search&utm_source=IokN4du3-7NwKcCaUms5LA", "review_count": 1, "categories": [{"alias": "wine_bars", "title": "Wine Bars"}, {"alias": "burgers", "title": "Burgers"}, {"alias": "mexican", "title": "Mexican"}], "rating": 4.0, "coordinates": {"latitude": 38.3469635, "longitude": -122.705821}, "transactions": ["delivery"], "location": {"address1": "101 Raley's Town Centre", "address2": "", "address3": null, "city": "Rohnert Park", "zip_code": "94928", "country": "US", "state": "CA", "display_address": ["101 Raley's Town Centre", "Rohnert Park, CA 94928"]}, "phone": "+17075880893", "display_phone": "(707) 588-0893", "distance": 322.3691796431722}, {"id": "4lMLs9yydBAsvNT2oiCBSQ", "alias": "papa-johns-pizza-cotati", "name": "Papa John's Pizza", "image_url": "https://s3-media4.fl.yelpcdn.com/bphoto/6sXPN34F3obaRz2ys0pLKg/o.jpg", "is_closed": false, "url": "https://www.yelp.com/biz/papa-johns-pizza-cotati?adjust_creative=IokN4du3-7NwKcCaUms5LA&utm_campaign=yelp_api_v3&utm_medium=api_v3_business_search&utm_source=IokN4du3-7NwKcCaUms5LA", "review_count": 5, "categories": [{"alias": "pizza", "title": "Pizza"}], "rating": 3.0, "coordinates": {"latitude": 38.328834, "longitude": -122.698044}, "transactions": [], "location": {"address1": "590 E Cotati Ave", "address2": "", "address3": null, "city": "Cotati", "zip_code": "94931", "country": "US", "state": "CA", "display_address": ["590 E Cotati Ave", "Cotati, CA 94931"]}, "phone": "+17077557272", "display_phone": "(707) 755-7272", "distance": 2316.353728098013}, {"id": "PtgRUYgxB5c1DO-XK0XanQ", "alias": "burger-king-rohnert-park-3", "name": "Burger King", "image_url": "https://s3-media4.fl.yelpcdn.com/bphoto/TpDXkS9BOPwqJOYWLoWZwQ/o.jpg", "is_closed": false, "url": "https://www.yelp.com/biz/burger-king-rohnert-park-3?adjust_creative=IokN4du3-7NwKcCaUms5LA&utm_campaign=yelp_api_v3&utm_medium=api_v3_business_search&utm_source=IokN4du3-7NwKcCaUms5LA", "review_count": 18, "categories": [{"alias": "hotdogs", "title": "Fast Food"}, {"alias": "burgers", "title": "Burgers"}], "rating": 2.0, "coordinates": {"latitude": 38.364651, "longitude": -122.714203}, "transactions": [], "price": "$", "location": {"address1": "5020 Redwood Dr", "address2": "", "address3": null, "city": "Rohnert Park", "zip_code": "94928", "country": "US", "state": "CA", "display_address": ["5020 Redwood Dr", "Rohnert Park, CA 94928"]}, "phone": "+17075849333", "display_phone": "(707) 584-9333", "distance": 1932.6891243868904}, {"id": "XQY2tNNlHol5Hn37E3RRrA", "alias": "chuck-e-cheese-rohnert-park", "name": "Chuck E. Cheese", "image_url": "https://s3-media4.fl.yelpcdn.com/bphoto/f-w_MHM0aM5bPpg3HA-sBA/o.jpg", "is_closed": false, "url": "https://www.yelp.com/biz/chuck-e-cheese-rohnert-park?adjust_creative=IokN4du3-7NwKcCaUms5LA&utm_campaign=yelp_api_v3&utm_medium=api_v3_business_search&utm_source=IokN4du3-7NwKcCaUms5LA", "review_count": 52, "categories": [{"alias": "pizza", "title": "Pizza"}, {"alias": "arcades", "title": "Arcades"}, {"alias": "kids_activities", "title": "Kids Activities"}], "rating": 3.0, "coordinates": {"latitude": 38.3473, "longitude": -122.7245}, "transactions": [], "price": "$$", "location": {"address1": "601 Rohnert Park Expy", "address2": "", "address3": "", "city": "Rohnert Park", "zip_code": "94928", "country": "US", "state": "CA", "display_address": ["601 Rohnert Park Expy", "Rohnert Park, CA 94928"]}, "phone": "+17075861949", "display_phone": "(707) 586-1949", "distance": 1777.02700828362}, {"id": "h5r8ZYSuhzTpthmRuabDMw", "alias": "aces-at-graton-rohnert-park", "name": "Aces AT GRATON", "image_url": "https://s3-media2.fl.yelpcdn.com/bphoto/UWP-ONc6yovPCZoI0q329Q/o.jpg", "is_closed": false, "url": "https://www.yelp.com/biz/aces-at-graton-rohnert-park?adjust_creative=IokN4du3-7NwKcCaUms5LA&utm_campaign=yelp_api_v3&utm_medium=api_v3_business_search&utm_source=IokN4du3-7NwKcCaUms5LA", "review_count": 4, "categories": [{"alias": "cafes", "title": "Cafes"}, {"alias": "breakfast_brunch", "title": "Breakfast & Brunch"}, {"alias": "sandwiches", "title": "Sandwiches"}], "rating": 3.0, "coordinates": {"latitude": 38.3607526061389, "longitude": -122.723345272243}, "transactions": [], "location": {"address1": "Graton Casino", "address2": "630 Park Ct", "address3": null, "city": "Rohnert Park", "zip_code": "94928", "country": "US", "state": "CA", "display_address": ["Graton Casino", "630 Park Ct", "Rohnert Park, CA 94928"]}, "phone": "+17075887100", "display_phone": "(707) 588-7100", "distance": 2101.64726763722}, {"id": "6HibOz3uSENvMSH4LuD_Fg", "alias": "kfc-rohnert-park-2", "name": "KFC", "image_url": "https://s3-media1.fl.yelpcdn.com/bphoto/-AGfCJntxPiUzSlahY3O1A/o.jpg", "is_closed": false, "url": "https://www.yelp.com/biz/kfc-rohnert-park-2?adjust_creative=IokN4du3-7NwKcCaUms5LA&utm_campaign=yelp_api_v3&utm_medium=api_v3_business_search&utm_source=IokN4du3-7NwKcCaUms5LA", "review_count": 37, "categories": [{"alias": "hotdogs", "title": "Fast Food"}, {"alias": "chicken_wings", "title": "Chicken Wings"}, {"alias": "chickenshop", "title": "Chicken Shop"}], "rating": 2.5, "coordinates": {"latitude": 38.3435671900047, "longitude": -122.711758409655}, "transactions": ["pickup", "delivery"], "price": "$", "location": {"address1": "6700 Commerce Blvd", "address2": "", "address3": "", "city": "Rohnert Park", "zip_code": "94928", "country": "US", "state": "CA", "display_address": ["6700 Commerce Blvd", "Rohnert Park, CA 94928"]}, "phone": "+17075849070", "display_phone": "(707) 584-9070", "distance": 885.0952943845091}, {"id": "9A2l8uzhx8wjgCs8aI86xA", "alias": "taco-bell-rohnert-park", "name": "Taco Bell", "image_url": "https://s3-media3.fl.yelpcdn.com/bphoto/Wg46n795xcFJDUDUMo5moQ/o.jpg", "is_closed": false, "url": "https://www.yelp.com/biz/taco-bell-rohnert-park?adjust_creative=IokN4du3-7NwKcCaUms5LA&utm_campaign=yelp_api_v3&utm_medium=api_v3_business_search&utm_source=IokN4du3-7NwKcCaUms5LA", "review_count": 79, "categories": [{"alias": "hotdogs", "title": "Fast Food"}, {"alias": "tacos", "title": "Tacos"}], "rating": 2.0, "coordinates": {"latitude": 38.364747, "longitude": -122.713643}, "transactions": ["delivery"], "price": "$", "location": {"address1": "5000 Redwood Dr", "address2": "", "address3": "", "city": "Rohnert Park", "zip_code": "94928", "country": "US", "state": "CA", "display_address": ["5000 Redwood Dr", "Rohnert Park, CA 94928"]}, "phone": "+17075859981", "display_phone": "(707) 585-9981", "distance": 1921.3058295551357}, {"id": "Z2PKixMIh7wM_ptiNPD_zQ", "alias": "jack-in-the-box-rohnert-park", "name": "Jack in the Box", "image_url": "https://s3-media4.fl.yelpcdn.com/bphoto/hP4iYtgvMMkxJbIVz9UsGw/o.jpg", "is_closed": false, "url": "https://www.yelp.com/biz/jack-in-the-box-rohnert-park?adjust_creative=IokN4du3-7NwKcCaUms5LA&utm_campaign=yelp_api_v3&utm_medium=api_v3_business_search&utm_source=IokN4du3-7NwKcCaUms5LA", "review_count": 35, "categories": [{"alias": "hotdogs", "title": "Fast Food"}, {"alias": "burgers", "title": "Burgers"}, {"alias": "tacos", "title": "Tacos"}], "rating": 1.5, "coordinates": {"latitude": 38.3487893, "longitude": -122.709982842207}, "transactions": [], "price": "$", "location": {"address1": "6299 Commerce Blvd", "address2": "", "address3": "", "city": "Rohnert Park", "zip_code": "94928", "country": "US", "state": "CA", "display_address": ["6299 Commerce Blvd", "Rohnert Park, CA 94928"]}, "phone": "+17075853515", "display_phone": "(707) 585-3515", "distance": 486.84533575271655}, {"id": "azgVvuAEZYECUmKpQ1856A", "alias": "subway-restaurants-rohnert-park-2", "name": "Subway Restaurants", "image_url": "https://s3-media1.fl.yelpcdn.com/bphoto/aEXyisGXo6Sw9tqI6MDnwQ/o.jpg", "is_closed": false, "url": "https://www.yelp.com/biz/subway-restaurants-rohnert-park-2?adjust_creative=IokN4du3-7NwKcCaUms5LA&utm_campaign=yelp_api_v3&utm_medium=api_v3_business_search&utm_source=IokN4du3-7NwKcCaUms5LA", "review_count": 25, "categories": [{"alias": "sandwiches", "title": "Sandwiches"}], "rating": 3.0, "coordinates": {"latitude": 38.34606083, "longitude": -122.71055433}, "transactions": ["pickup", "delivery"], "price": "$", "location": {"address1": "6585 Commerce Blvd", "address2": "Suite D", "address3": "", "city": "Rohnert Park", "zip_code": "94928", "country": "US", "state": "CA", "display_address": ["6585 Commerce Blvd", "Suite D", "Rohnert Park, CA 94928"]}, "phone": "+17072060762", "display_phone": "(707) 206-0762", "distance": 635.5978888177211}, {"id": "mnDbfrcqaZpZMEbYnQM_ww", "alias": "a-and-w-rohnert-park", "name": "A&W", "image_url": "https://s3-media4.fl.yelpcdn.com/bphoto/tfX9pKLT5ewYfmbgmgN6NQ/o.jpg", "is_closed": false, "url": "https://www.yelp.com/biz/a-and-w-rohnert-park?adjust_creative=IokN4du3-7NwKcCaUms5LA&utm_campaign=yelp_api_v3&utm_medium=api_v3_business_search&utm_source=IokN4du3-7NwKcCaUms5LA", "review_count": 12, "categories": [{"alias": "burgers", "title": "Burgers"}, {"alias": "hotdogs", "title": "Fast Food"}, {"alias": "hotdog", "title": "Hot Dogs"}], "rating": 3.0, "coordinates": {"latitude": 38.343452, "longitude": -122.711746}, "transactions": [], "location": {"address1": "6700 Commerce Blvd", "address2": "", "address3": "", "city": "Rohnert Park", "zip_code": "94928", "country": "US", "state": "CA", "display_address": ["6700 Commerce Blvd", "Rohnert Park, CA 94928"]}, "phone": "+17075849070", "display_phone": "(707) 584-9070", "distance": 885.9448709813224}, {"id": "tQ0nm3sbd9nshZ_rf6E07w", "alias": "carls-jr-rohnert-park", "name": "Carl's Jr.", "image_url": "https://s3-media4.fl.yelpcdn.com/bphoto/VTFECtpqMkzLapEppjlp6g/o.jpg", "is_closed": false, "url": "https://www.yelp.com/biz/carls-jr-rohnert-park?adjust_creative=IokN4du3-7NwKcCaUms5LA&utm_campaign=yelp_api_v3&utm_medium=api_v3_business_search&utm_source=IokN4du3-7NwKcCaUms5LA", "review_count": 40, "categories": [{"alias": "burgers", "title": "Burgers"}, {"alias": "hotdogs", "title": "Fast Food"}], "rating": 2.5, "coordinates": {"latitude": 38.34666, "longitude": -122.71619}, "transactions": [], "price": "$$", "location": {"address1": "6460 Redwood Dr", "address2": "", "address3": "", "city": "Rohnert Park", "zip_code": "94928", "country": "US", "state": "CA", "display_address": ["6460 Redwood Dr", "Rohnert Park, CA 94928"]}, "phone": "+17075845727", "display_phone": "(707) 584-5727", "distance": 1058.0041217580952}, {"id": "rjmsmFE_VBgt4giKGlNEmQ", "alias": "dominos-pizza-rohnert-park", "name": "Domino's Pizza", "image_url": "https://s3-media2.fl.yelpcdn.com/bphoto/7O1PT-_Xj_9YCd7oed_4wg/o.jpg", "is_closed": false, "url": "https://www.yelp.com/biz/dominos-pizza-rohnert-park?adjust_creative=IokN4du3-7NwKcCaUms5LA&utm_campaign=yelp_api_v3&utm_medium=api_v3_business_search&utm_source=IokN4du3-7NwKcCaUms5LA", "review_count": 46, "categories": [{"alias": "pizza", "title": "Pizza"}, {"alias": "chicken_wings", "title": "Chicken Wings"}, {"alias": "sandwiches", "title": "Sandwiches"}], "rating": 3.0, "coordinates": {"latitude": 38.33505, "longitude": -122.68605}, "transactions": [], "price": "$", "location": {"address1": "1460 E Cotati Ave", "address2": "", "address3": "", "city": "Rohnert Park", "zip_code": "94928", "country": "US", "state": "CA", "display_address": ["1460 E Cotati Ave", "Rohnert Park, CA 94928"]}, "phone": "+17077958227", "display_phone": "(707) 795-8227", "distance": 2229.3741560420453}, {"id": "GaDq2kJEliPSBn4oYC4HXg", "alias": "little-caesars-pizza-rohnert-park", "name": "Little Caesars Pizza", "image_url": "https://s3-media2.fl.yelpcdn.com/bphoto/sfGf3gaPxty4yb5V0A-ugQ/o.jpg", "is_closed": false, "url": "https://www.yelp.com/biz/little-caesars-pizza-rohnert-park?adjust_creative=IokN4du3-7NwKcCaUms5LA&utm_campaign=yelp_api_v3&utm_medium=api_v3_business_search&utm_source=IokN4du3-7NwKcCaUms5LA", "review_count": 20, "categories": [{"alias": "pizza", "title": "Pizza"}], "rating": 2.5, "coordinates": {"latitude": 38.346165711691, "longitude": -122.710707998176}, "transactions": [], "price": "$", "location": {"address1": "6585 Commerce Blvd", "address2": "Ste B", "address3": "", "city": "Rohnert Park", "zip_code": "94928", "country": "US", "state": "CA", "display_address": ["6585 Commerce Blvd", "Ste B", "Rohnert Park, CA 94928"]}, "phone": "+17075860696", "display_phone": "(707) 586-0696", "distance": 636.4202960222423}, {"id": "yY8ESPfY26F9tR-qWgJcmw", "alias": "burger-king-rohnert-park-2", "name": "Burger King", "image_url": "https://s3-media2.fl.yelpcdn.com/bphoto/OR4T63IxyaDSezewtr_pSA/o.jpg", "is_closed": false, "url": "https://www.yelp.com/biz/burger-king-rohnert-park-2?adjust_creative=IokN4du3-7NwKcCaUms5LA&utm_campaign=yelp_api_v3&utm_medium=api_v3_business_search&utm_source=IokN4du3-7NwKcCaUms5LA", "review_count": 13, "categories": [{"alias": "burgers", "title": "Burgers"}, {"alias": "hotdogs", "title": "Fast Food"}], "rating": 2.0, "coordinates": {"latitude": 38.35008, "longitude": -122.71012}, "transactions": [], "price": "$", "location": {"address1": "6125 Commerce Blvd", "address2": null, "address3": null, "city": "Rohnert Park", "zip_code": "94928", "country": "US", "state": "CA", "display_address": ["6125 Commerce Blvd", "Rohnert Park, CA 94928"]}, "phone": "+17075853140", "display_phone": "(707) 585-3140", "distance": 512.7884595037493}, {"id": "2KJEpBNZIDXZQVynRJRuhg", "alias": "taco-bell-rohnert-park-4", "name": "Taco Bell", "image_url": "https://s3-media2.fl.yelpcdn.com/bphoto/HJpTno-Pru13lko9JopiWQ/o.jpg", "is_closed": false, "url": "https://www.yelp.com/biz/taco-bell-rohnert-park-4?adjust_creative=IokN4du3-7NwKcCaUms5LA&utm_campaign=yelp_api_v3&utm_medium=api_v3_business_search&utm_source=IokN4du3-7NwKcCaUms5LA", "review_count": 73, "categories": [{"alias": "hotdogs", "title": "Fast Food"}, {"alias": "tacos", "title": "Tacos"}], "rating": 1.5, "coordinates": {"latitude": 38.336, "longitude": -122.6832}, "transactions": ["delivery"], "price": "$", "location": {"address1": "1700 E Cotati Ave", "address2": null, "address3": null, "city": "Rohnert Park", "zip_code": "94928", "country": "US", "state": "CA", "display_address": ["1700 E Cotati Ave", "Rohnert Park, CA 94928"]}, "phone": "+17076641700", "display_phone": "(707) 664-1700", "distance": 2351.6146953635744}, {"id": "jNdUkgVhz2In43Nw0t8e2Q", "alias": "cotijas-restutant-cotati", "name": "Cotijas Restutant", "image_url": "https://s3-media3.fl.yelpcdn.com/bphoto/lFy_yBr8MZD0yxIDp9etag/o.jpg", "is_closed": false, "url": "https://www.yelp.com/biz/cotijas-restutant-cotati?adjust_creative=IokN4du3-7NwKcCaUms5LA&utm_campaign=yelp_api_v3&utm_medium=api_v3_business_search&utm_source=IokN4du3-7NwKcCaUms5LA", "review_count": 2, "categories": [{"alias": "newmexican", "title": "New Mexican Cuisine"}], "rating": 3.0, "coordinates": {"latitude": 38.32841, "longitude": -122.70874}, "transactions": [], "location": {"address1": "7981 Old Redwood Hwy", "address2": "", "address3": null, "city": "Cotati", "zip_code": "94931", "country": "US", "state": "CA", "display_address": ["7981 Old Redwood Hwy", "Cotati, CA 94931"]}, "phone": "+17072423370", "display_phone": "(707) 242-3370", "distance": 2321.1106554297953}, {"id": "OUprGhgQ5eP9u83xPMYEkQ", "alias": "pizza-hut-rohnert-park-2", "name": "Pizza Hut", "image_url": "https://s3-media1.fl.yelpcdn.com/bphoto/8b43cRsem8YH_piuC3q-bw/o.jpg", "is_closed": false, "url": "https://www.yelp.com/biz/pizza-hut-rohnert-park-2?adjust_creative=IokN4du3-7NwKcCaUms5LA&utm_campaign=yelp_api_v3&utm_medium=api_v3_business_search&utm_source=IokN4du3-7NwKcCaUms5LA", "review_count": 32, "categories": [{"alias": "pizza", "title": "Pizza"}, {"alias": "italian", "title": "Italian"}], "rating": 2.0, "coordinates": {"latitude": 38.3344558358768, "longitude": -122.688602954149}, "transactions": [], "price": "$", "location": {"address1": "1435 E Cotati Ave", "address2": "Unit B", "address3": "", "city": "Rohnert Park", "zip_code": "94928", "country": "US", "state": "CA", "display_address": ["1435 E Cotati Ave", "Unit B", "Rohnert Park, CA 94928"]}, "phone": "+17076650885", "display_phone": "(707) 665-0885", "distance": 2130.0233218958783}, {"id": "xg0QxzSY8P1H3GV2EWiK_g", "alias": "napa-valley-crust-st-helena", "name": "Napa Valley Crust", "image_url": "https://s3-media4.fl.yelpcdn.com/bphoto/_Oa2t_ccNnwdVXH9BuZv9Q/o.jpg", "is_closed": false, "url": "https://www.yelp.com/biz/napa-valley-crust-st-helena?adjust_creative=IokN4du3-7NwKcCaUms5LA&utm_campaign=yelp_api_v3&utm_medium=api_v3_business_search&utm_source=IokN4du3-7NwKcCaUms5LA", "review_count": 12, "categories": [{"alias": "foodtrucks", "title": "Food Trucks"}, {"alias": "pizza", "title": "Pizza"}], "rating": 4.5, "coordinates": {"latitude": 38.506296, "longitude": -122.469455}, "transactions": [], "location": {"address1": "1010 Adams St", "address2": null, "address3": "", "city": "St. Helena", "zip_code": "94574", "country": "US", "state": "CA", "display_address": ["1010 Adams St", "St. Helena, CA 94574"]}, "phone": "+17073961579", "display_phone": "(707) 396-1579", "distance": 26918.036125541257}, {"id": "g14PDUb_YPI19Z4PeVGqMg", "alias": "papa-murphys-cotati-2", "name": "Papa Murphy's", "image_url": "https://s3-media2.fl.yelpcdn.com/bphoto/yY-9jTL50FYx_bsEpGwDWw/o.jpg", "is_closed": false, "url": "https://www.yelp.com/biz/papa-murphys-cotati-2?adjust_creative=IokN4du3-7NwKcCaUms5LA&utm_campaign=yelp_api_v3&utm_medium=api_v3_business_search&utm_source=IokN4du3-7NwKcCaUms5LA", "review_count": 59, "categories": [{"alias": "pizza", "title": "Pizza"}], "rating": 3.0, "coordinates": {"latitude": 38.3280665, "longitude": -122.7078985}, "transactions": [], "price": "$", "location": {"address1": "8005 Old Redwood Hwy.", "address2": "", "address3": "", "city": "Cotati", "zip_code": "94931", "country": "US", "state": "CA", "display_address": ["8005 Old Redwood Hwy.", "Cotati, CA 94931"]}, "phone": "+17076648888", "display_phone": "(707) 664-8888", "distance": 2362.424736290607}, {"id": "ApacmXH7cNHfT2n71B2uYw", "alias": "lu-lu-sushi-rohnert-park", "name": "Lu Lu Sushi", "image_url": "", "is_closed": false, "url": "https://www.yelp.com/biz/lu-lu-sushi-rohnert-park?adjust_creative=IokN4du3-7NwKcCaUms5LA&utm_campaign=yelp_api_v3&utm_medium=api_v3_business_search&utm_source=IokN4du3-7NwKcCaUms5LA", "review_count": 1, "categories": [{"alias": "restaurants", "title": "Restaurants"}], "rating": 3.0, "coordinates": {"latitude": 38.3521, "longitude": -122.712272}, "transactions": [], "price": "$$", "location": {"address1": "5979 Commerce Blvd", "address2": "", "address3": "", "city": "Rohnert Park", "zip_code": "94928", "country": "US", "state": "CA", "display_address": ["5979 Commerce Blvd", "Rohnert Park, CA 94928"]}, "phone": "+17075853001", "display_phone": "(707) 585-3001", "distance": 765.4285959730307}, {"id": "yC_LpuCcPOw7jAQyrXkAeg", "alias": "arbys-rohnert-park", "name": "Arby's", "image_url": "https://s3-media2.fl.yelpcdn.com/bphoto/RklgJCqpc5ZCEXDZhtHA9g/o.jpg", "is_closed": false, "url": "https://www.yelp.com/biz/arbys-rohnert-park?adjust_creative=IokN4du3-7NwKcCaUms5LA&utm_campaign=yelp_api_v3&utm_medium=api_v3_business_search&utm_source=IokN4du3-7NwKcCaUms5LA", "review_count": 54, "categories": [{"alias": "hotdogs", "title": "Fast Food"}, {"alias": "sandwiches", "title": "Sandwiches"}], "rating": 2.5, "coordinates": {"latitude": 38.36614, "longitude": -122.71386}, "transactions": [], "price": "$", "location": {"address1": "4799 Redwood Dr", "address2": "", "address3": "", "city": "Rohnert Park", "zip_code": "94928", "country": "US", "state": "CA", "display_address": ["4799 Redwood Dr", "Rohnert Park, CA 94928"]}, "phone": "+17075858459", "display_phone": "(707) 585-8459", "distance": 2088.436564641107}, {"id": "3zRfkzhTk7jzXNC0cKdWRg", "alias": "tortas-gigantes-metro-balderas-2-santa-rosa", "name": "Tortas Gigantes Metro Balderas 2", "image_url": "https://s3-media3.fl.yelpcdn.com/bphoto/1zH8mMORZDEuR8Eg1A4ilQ/o.jpg", "is_closed": false, "url": "https://www.yelp.com/biz/tortas-gigantes-metro-balderas-2-santa-rosa?adjust_creative=IokN4du3-7NwKcCaUms5LA&utm_campaign=yelp_api_v3&utm_medium=api_v3_business_search&utm_source=IokN4du3-7NwKcCaUms5LA", "review_count": 4, "categories": [{"alias": "foodtrucks", "title": "Food Trucks"}, {"alias": "mexican", "title": "Mexican"}], "rating": 4.0, "coordinates": {"latitude": 38.42913, "longitude": -122.73433}, "transactions": [], "price": "$", "location": {"address1": "1289 Sebastopol Rd", "address2": "", "address3": null, "city": "Santa Rosa", "zip_code": "95407", "country": "US", "state": "CA", "display_address": ["1289 Sebastopol Rd", "Santa Rosa, CA 95407"]}, "phone": "+17072604343", "display_phone": "(707) 260-4343", "distance": 9302.793681893749}, {"id": "SzucKh7lhRN2ATrsZvlzcA", "alias": "subway-restaurants-rohnert-park-3", "name": "Subway Restaurants", "image_url": "https://s3-media1.fl.yelpcdn.com/bphoto/ZdnX2fCH_9jJq96zahDsJA/o.jpg", "is_closed": false, "url": "https://www.yelp.com/biz/subway-restaurants-rohnert-park-3?adjust_creative=IokN4du3-7NwKcCaUms5LA&utm_campaign=yelp_api_v3&utm_medium=api_v3_business_search&utm_source=IokN4du3-7NwKcCaUms5LA", "review_count": 24, "categories": [{"alias": "sandwiches", "title": "Sandwiches"}], "rating": 2.0, "coordinates": {"latitude": 38.347685, "longitude": -122.723323}, "transactions": ["pickup", "delivery"], "price": "$", "location": {"address1": "563-C Rohnert Park Expressway", "address2": "", "address3": "", "city": "Rohnert Park", "zip_code": "94928", "country": "US", "state": "CA", "display_address": ["563-C Rohnert Park Expressway", "Rohnert Park, CA 94928"]}, "phone": "+17075888605", "display_phone": "(707) 588-8605", "distance": 1656.3092951306332}, {"id": "yWdBm8s48gSEkh3efWDvWg", "alias": "mcdonalds-rohnert-park-3", "name": "McDonald's", "image_url": "https://s3-media3.fl.yelpcdn.com/bphoto/V48aj6IXoWMcutIHtrT9nQ/o.jpg", "is_closed": false, "url": "https://www.yelp.com/biz/mcdonalds-rohnert-park-3?adjust_creative=IokN4du3-7NwKcCaUms5LA&utm_campaign=yelp_api_v3&utm_medium=api_v3_business_search&utm_source=IokN4du3-7NwKcCaUms5LA", "review_count": 17, "categories": [{"alias": "burgers", "title": "Burgers"}, {"alias": "hotdogs", "title": "Fast Food"}, {"alias": "coffee", "title": "Coffee & Tea"}], "rating": 1.5, "coordinates": {"latitude": 38.3674096230225, "longitude": -122.716485857964}, "transactions": [], "price": "$", "location": {"address1": "4625 Redwood Dr", "address2": "", "address3": "", "city": "Rohnert Park", "zip_code": "94928", "country": "US", "state": "CA", "display_address": ["4625 Redwood Dr", "Rohnert Park, CA 94928"]}, "phone": "+17075889883", "display_phone": "(707) 588-9883", "distance": 2296.2095847000555}, {"id": "3A-MRYMhxhCvwO0BEshwTA", "alias": "subway-restaurants-rohnert-park", "name": "Subway Restaurants", "image_url": "https://s3-media3.fl.yelpcdn.com/bphoto/cKS_IOBGV17kmOAHY5yCeQ/o.jpg", "is_closed": false, "url": "https://www.yelp.com/biz/subway-restaurants-rohnert-park?adjust_creative=IokN4du3-7NwKcCaUms5LA&utm_campaign=yelp_api_v3&utm_medium=api_v3_business_search&utm_source=IokN4du3-7NwKcCaUms5LA", "review_count": 19, "categories": [{"alias": "sandwiches", "title": "Sandwiches"}], "rating": 2.0, "coordinates": {"latitude": 38.339044, "longitude": -122.6871005}, "transactions": [], "price": "$", "location": {"address1": "1451 SW Blvd", "address2": "Suite 105", "address3": "", "city": "Rohnert Park", "zip_code": "94928", "country": "US", "state": "CA", "display_address": ["1451 SW Blvd", "Suite 105", "Rohnert Park, CA 94928"]}, "phone": "+17077959444", "display_phone": "(707) 795-9444", "distance": 1875.8582406517596}, {"id": "UCWi0VaL-Yxvd7MWa9B8QA", "alias": "subway-restaurants-cotati-2", "name": "Subway Restaurants", "image_url": "https://s3-media2.fl.yelpcdn.com/bphoto/EY_o1PfhOqNdaCyzoK4-PA/o.jpg", "is_closed": false, "url": "https://www.yelp.com/biz/subway-restaurants-cotati-2?adjust_creative=IokN4du3-7NwKcCaUms5LA&utm_campaign=yelp_api_v3&utm_medium=api_v3_business_search&utm_source=IokN4du3-7NwKcCaUms5LA", "review_count": 13, "categories": [{"alias": "sandwiches", "title": "Sandwiches"}], "rating": 2.5, "coordinates": {"latitude": 38.331367, "longitude": -122.715524}, "transactions": [], "price": "$", "location": {"address1": "8500 Gravenstein Highway", "address2": "Unit B", "address3": "", "city": "Cotati", "zip_code": "94931", "country": "US", "state": "CA", "display_address": ["8500 Gravenstein Highway", "Unit B", "Cotati, CA 94931"]}, "phone": "+17076648422", "display_phone": "(707) 664-8422", "distance": 2192.982749004052}, {"id": "D3bv7938GqPNlOqcfP1m8A", "alias": "el-fog\u00f3n-taqueria-rohnert-park-3", "name": "El fog\u00f3n Taqueria", "image_url": "", "is_closed": false, "url": "https://www.yelp.com/biz/el-fog%C3%B3n-taqueria-rohnert-park-3?adjust_creative=IokN4du3-7NwKcCaUms5LA&utm_campaign=yelp_api_v3&utm_medium=api_v3_business_search&utm_source=IokN4du3-7NwKcCaUms5LA", "review_count": 2, "categories": [{"alias": "mexican", "title": "Mexican"}], "rating": 1.0, "coordinates": {"latitude": 38.3434, "longitude": -122.71141}, "transactions": [], "location": {"address1": "6650 Commers Blvd", "address2": "Ste 4", "address3": "", "city": "Rohnert Park", "zip_code": "94928", "country": "US", "state": "CA", "display_address": ["6650 Commers Blvd", "Ste 4", "Rohnert Park, CA 94928"]}, "phone": "+17075851623", "display_phone": "(707) 585-1623", "distance": 817.1877982248214}, {"id": "PMDNoYxTYHbyPEqnwuQrCQ", "alias": "subway-restaurants-rohnert-park-4", "name": "Subway Restaurants", "image_url": "https://s3-media3.fl.yelpcdn.com/bphoto/6sPuSUYj9njqOwc6r_VacQ/o.jpg", "is_closed": false, "url": "https://www.yelp.com/biz/subway-restaurants-rohnert-park-4?adjust_creative=IokN4du3-7NwKcCaUms5LA&utm_campaign=yelp_api_v3&utm_medium=api_v3_business_search&utm_source=IokN4du3-7NwKcCaUms5LA", "review_count": 16, "categories": [{"alias": "sandwiches", "title": "Sandwiches"}], "rating": 2.5, "coordinates": {"latitude": 38.3623196, "longitude": -122.6935824}, "transactions": [], "price": "$", "location": {"address1": "953 Golf Course Dr", "address2": null, "address3": null, "city": "Rohnert Park", "zip_code": "94928", "country": "US", "state": "CA", "display_address": ["953 Golf Course Dr", "Rohnert Park, CA 94928"]}, "phone": "+17072060637", "display_phone": "(707) 206-0637", "distance": 1823.503990792985}, {"id": "TxPq7vI9Fnno6AV52bi8Zw", "alias": "subway-restaurants-cotati", "name": "Subway Restaurants", "image_url": "https://s3-media4.fl.yelpcdn.com/bphoto/IryGap6WyBGHUbvZx5iGfw/o.jpg", "is_closed": false, "url": "https://www.yelp.com/biz/subway-restaurants-cotati?adjust_creative=IokN4du3-7NwKcCaUms5LA&utm_campaign=yelp_api_v3&utm_medium=api_v3_business_search&utm_source=IokN4du3-7NwKcCaUms5LA", "review_count": 16, "categories": [{"alias": "sandwiches", "title": "Sandwiches"}], "rating": 2.5, "coordinates": {"latitude": 38.329004, "longitude": -122.697503}, "transactions": [], "price": "$", "location": {"address1": "640 East Cotati Ave", "address2": "Ste 3", "address3": "", "city": "Cotati", "zip_code": "94931", "country": "US", "state": "CA", "display_address": ["640 East Cotati Ave", "Ste 3", "Cotati, CA 94931"]}, "phone": "+17076649306", "display_phone": "(707) 664-9306", "distance": 2315.7308560607958}, {"id": "hYH7W4NES6pS-O2YgAQMPw", "alias": "burger-king-cotati", "name": "Burger King", "image_url": "https://s3-media4.fl.yelpcdn.com/bphoto/DnEI74UVAV3aWp0GI-ljDA/o.jpg", "is_closed": false, "url": "https://www.yelp.com/biz/burger-king-cotati?adjust_creative=IokN4du3-7NwKcCaUms5LA&utm_campaign=yelp_api_v3&utm_medium=api_v3_business_search&utm_source=IokN4du3-7NwKcCaUms5LA", "review_count": 10, "categories": [{"alias": "burgers", "title": "Burgers"}, {"alias": "hotdogs", "title": "Fast Food"}], "rating": 2.0, "coordinates": {"latitude": 38.331018, "longitude": -122.714647}, "transactions": [], "price": "$", "location": {"address1": "8510 Gravenstein Hwy", "address2": "", "address3": "", "city": "Cotati", "zip_code": "94931", "country": "US", "state": "CA", "display_address": ["8510 Gravenstein Hwy", "Cotati, CA 94931"]}, "phone": "+17076648273", "display_phone": "(707) 664-8273", "distance": 2195.6641667742606}, {"id": "i6ZwMjYIbmFZ8EGYz6x5Bw", "alias": "phat-salads-and-wraps-napa", "name": "Phat Salads and Wraps", "image_url": "https://s3-media2.fl.yelpcdn.com/bphoto/FbrUwtrVIx2cLXiPdBhHkw/o.jpg", "is_closed": false, "url": "https://www.yelp.com/biz/phat-salads-and-wraps-napa?adjust_creative=IokN4du3-7NwKcCaUms5LA&utm_campaign=yelp_api_v3&utm_medium=api_v3_business_search&utm_source=IokN4du3-7NwKcCaUms5LA", "review_count": 48, "categories": [{"alias": "foodtrucks", "title": "Food Trucks"}, {"alias": "wraps", "title": "Wraps"}], "rating": 4.0, "coordinates": {"latitude": 38.3234491, "longitude": -122.3023962}, "transactions": [], "price": "$", "location": {"address1": "", "address2": "", "address3": "", "city": "Napa", "zip_code": "94558", "country": "US", "state": "CA", "display_address": ["Napa, CA 94558"]}, "phone": "+17073639658", "display_phone": "(707) 363-9658", "distance": 35178.87421020466}, {"id": "UgpER14Qy4CiwlxC5ZwsqA", "alias": "la-cuchara-de-do\u00f1a-rosa-vallejo", "name": "La cuchara de Do\u00f1a Rosa", "image_url": "https://s3-media3.fl.yelpcdn.com/bphoto/IlLx-PG3Jt6VZBcxToYRng/o.jpg", "is_closed": false, "url": "https://www.yelp.com/biz/la-cuchara-de-do%C3%B1a-rosa-vallejo?adjust_creative=IokN4du3-7NwKcCaUms5LA&utm_campaign=yelp_api_v3&utm_medium=api_v3_business_search&utm_source=IokN4du3-7NwKcCaUms5LA", "review_count": 14, "categories": [{"alias": "foodtrucks", "title": "Food Trucks"}, {"alias": "tacos", "title": "Tacos"}], "rating": 4.0, "coordinates": {"latitude": 38.115436, "longitude": -122.2541558}, "transactions": ["pickup", "delivery"], "price": "$$", "location": {"address1": "105 Couch St", "address2": "", "address3": null, "city": "Vallejo", "zip_code": "94590", "country": "US", "state": "CA", "display_address": ["105 Couch St", "Vallejo, CA 94590"]}, "phone": "+15103138892", "display_phone": "(510) 313-8892", "distance": 47132.35511994474}, {"id": "CUwBAy6lrFi4x6Neu9eRVw", "alias": "mini-street-burger-alameda-3", "name": "Mini Street Burger", "image_url": "https://s3-media2.fl.yelpcdn.com/bphoto/Kh-OQKBIclWY1dCeIuu57w/o.jpg", "is_closed": false, "url": "https://www.yelp.com/biz/mini-street-burger-alameda-3?adjust_creative=IokN4du3-7NwKcCaUms5LA&utm_campaign=yelp_api_v3&utm_medium=api_v3_business_search&utm_source=IokN4du3-7NwKcCaUms5LA", "review_count": 28, "categories": [{"alias": "foodtrucks", "title": "Food Trucks"}, {"alias": "burgers", "title": "Burgers"}], "rating": 4.0, "coordinates": {"latitude": 37.82628, "longitude": -122.25101}, "transactions": [], "location": {"address1": null, "address2": null, "address3": null, "city": "Alameda", "zip_code": "94611", "country": "US", "state": "CA", "display_address": ["Alameda, CA 94611"]}, "phone": "+15108278982", "display_phone": "(510) 827-8982", "distance": 72182.770871443}, {"id": "jCcAuXhCpeJP2n-8ol7mxg", "alias": "kolobok-russian-soul-food-truck-oakland", "name": "Kolobok Russian Soul Food Truck", "image_url": "https://s3-media1.fl.yelpcdn.com/bphoto/k8s1Bfc05Iw7SJXE6VJ74Q/o.jpg", "is_closed": false, "url": "https://www.yelp.com/biz/kolobok-russian-soul-food-truck-oakland?adjust_creative=IokN4du3-7NwKcCaUms5LA&utm_campaign=yelp_api_v3&utm_medium=api_v3_business_search&utm_source=IokN4du3-7NwKcCaUms5LA", "review_count": 47, "categories": [{"alias": "foodtrucks", "title": "Food Trucks"}, {"alias": "russian", "title": "Russian"}], "rating": 4.5, "coordinates": {"latitude": 37.7883087690458, "longitude": -122.309032460882}, "transactions": [], "price": "$$", "location": {"address1": null, "address2": null, "address3": "", "city": "Oakland", "zip_code": "94577", "country": "US", "state": "CA", "display_address": ["Oakland, CA 94577"]}, "phone": "+15105996542", "display_phone": "(510) 599-6542", "distance": 71314.50757038836}, {"id": "DC42MrpWtqEeWRmMsn6Z8w", "alias": "the-everest-momo-fremont-2", "name": "The Everest Momo", "image_url": "https://s3-media2.fl.yelpcdn.com/bphoto/T2f7tUQ1c104otx9oSdqYw/o.jpg", "is_closed": false, "url": "https://www.yelp.com/biz/the-everest-momo-fremont-2?adjust_creative=IokN4du3-7NwKcCaUms5LA&utm_campaign=yelp_api_v3&utm_medium=api_v3_business_search&utm_source=IokN4du3-7NwKcCaUms5LA", "review_count": 23, "categories": [{"alias": "foodtrucks", "title": "Food Trucks"}, {"alias": "indpak", "title": "Indian"}, {"alias": "himalayan", "title": "Himalayan/Nepalese"}], "rating": 4.5, "coordinates": {"latitude": 37.54643, "longitude": -121.98512}, "transactions": [], "price": "$", "location": {"address1": "39233 Fremont Blvd", "address2": null, "address3": null, "city": "Fremont", "zip_code": "94538", "country": "US", "state": "CA", "display_address": ["39233 Fremont Blvd", "Fremont, CA 94538"]}, "phone": "+14088406369", "display_phone": "(408) 840-6369", "distance": 109280.31276479099}, {"id": "lgheXsHqe66AEZwoPDIEpw", "alias": "taco-coma-newark", "name": "Taco Coma", "image_url": "https://s3-media3.fl.yelpcdn.com/bphoto/DDz5lZDL5lDiRR_Ph0L4Sg/o.jpg", "is_closed": false, "url": "https://www.yelp.com/biz/taco-coma-newark?adjust_creative=IokN4du3-7NwKcCaUms5LA&utm_campaign=yelp_api_v3&utm_medium=api_v3_business_search&utm_source=IokN4du3-7NwKcCaUms5LA", "review_count": 3, "categories": [{"alias": "foodstands", "title": "Food Stands"}, {"alias": "tacos", "title": "Tacos"}], "rating": 5.0, "coordinates": {"latitude": 37.53453, "longitude": -122.03284}, "transactions": [], "location": {"address1": "", "address2": null, "address3": "", "city": "Newark", "zip_code": "94560", "country": "US", "state": "CA", "display_address": ["Newark, CA 94560"]}, "phone": "+15106971448", "display_phone": "(510) 697-1448", "distance": 108195.27452136863}, {"id": "8SNGFcMWZkvS4GWDUL8w1Q", "alias": "noon-o-kabob-san-jose-4", "name": "Noon O Kabob", "image_url": "https://s3-media2.fl.yelpcdn.com/bphoto/5GmY5FRw0m0XEWC5XXbVlA/o.jpg", "is_closed": false, "url": "https://www.yelp.com/biz/noon-o-kabob-san-jose-4?adjust_creative=IokN4du3-7NwKcCaUms5LA&utm_campaign=yelp_api_v3&utm_medium=api_v3_business_search&utm_source=IokN4du3-7NwKcCaUms5LA", "review_count": 29, "categories": [{"alias": "foodtrucks", "title": "Food Trucks"}, {"alias": "kebab", "title": "Kebab"}, {"alias": "persian", "title": "Persian/Iranian"}], "rating": 4.5, "coordinates": {"latitude": 37.3940232, "longitude": -122.0288052}, "transactions": [], "price": "$$", "location": {"address1": null, "address2": null, "address3": null, "city": "San Jose", "zip_code": "95101", "country": "US", "state": "CA", "display_address": ["San Jose, CA 95101"]}, "phone": "+14083346777", "display_phone": "(408) 334-6777", "distance": 121629.90261660337}, {"id": "C9uewBH5505NV0EWYBIJAA", "alias": "lady-and-l-aperitivo-san-jose", "name": "Lady & L'Aperitivo", "image_url": "https://s3-media4.fl.yelpcdn.com/bphoto/3nz0sRE9MlOq_4xVRQRt9w/o.jpg", "is_closed": false, "url": "https://www.yelp.com/biz/lady-and-l-aperitivo-san-jose?adjust_creative=IokN4du3-7NwKcCaUms5LA&utm_campaign=yelp_api_v3&utm_medium=api_v3_business_search&utm_source=IokN4du3-7NwKcCaUms5LA", "review_count": 1, "categories": [{"alias": "bakeries", "title": "Bakeries"}, {"alias": "desserts", "title": "Desserts"}, {"alias": "cheesesteaks", "title": "Cheesesteaks"}], "rating": 5.0, "coordinates": {"latitude": 37.2208938598633, "longitude": -121.861633300781}, "transactions": [], "location": {"address1": null, "address2": null, "address3": "", "city": "San Jose", "zip_code": "95120", "country": "US", "state": "CA", "display_address": ["San Jose, CA 95120"]}, "phone": "", "display_phone": "", "distance": 151347.99672181043}, {"id": "22KzWfCP7jt9tOl6Gl17LQ", "alias": "mai-thai-kitchen-las-vegas", "name": "Mai Thai Kitchen", "image_url": "https://s3-media1.fl.yelpcdn.com/bphoto/t1Zp5dvdlEzcNrgITCLZkw/o.jpg", "is_closed": false, "url": "https://www.yelp.com/biz/mai-thai-kitchen-las-vegas?adjust_creative=IokN4du3-7NwKcCaUms5LA&utm_campaign=yelp_api_v3&utm_medium=api_v3_business_search&utm_source=IokN4du3-7NwKcCaUms5LA", "review_count": 9, "categories": [{"alias": "foodtrucks", "title": "Food Trucks"}, {"alias": "thai", "title": "Thai"}, {"alias": "catering", "title": "Caterers"}], "rating": 3.5, "coordinates": {"latitude": 36.1067341598394, "longitude": -115.040667839348}, "transactions": [], "price": "$$$$", "location": {"address1": "", "address2": "", "address3": null, "city": "Las Vegas", "zip_code": "89122", "country": "US", "state": "NV", "display_address": ["Las Vegas, NV 89122"]}, "phone": "+14152591625", "display_phone": "(415) 259-1625", "distance": 722602.4000588102}]}