{"location": "Ross, CA", "term": "restaurant", "radius": 1128, "businesses": [{"id": "TRf-lrjDHRubmoGvHI3aXQ", "alias": "marche-aux-fleurs-ross", "name": "Marche Aux Fleurs", "image_url": "https://s3-media1.fl.yelpcdn.com/bphoto/1lK5wC5vjK_srjgbcX5NWQ/o.jpg", "is_closed": false, "url": "https://www.yelp.com/biz/marche-aux-fleurs-ross?adjust_creative=gJ2vrem5KxinHaV7_d8wAA&utm_campaign=yelp_api_v3&utm_medium=api_v3_business_search&utm_source=gJ2vrem5KxinHaV7_d8wAA", "review_count": 152, "categories": [{"alias": "french", "title": "French"}], "rating": 4.0, "coordinates": {"latitude": 37.96041, "longitude": -122.55521}, "transactions": ["delivery"], "price": "$$$", "location": {"address1": "23 Ross Common", "address2": "", "address3": "", "city": "Ross", "zip_code": "94957", "country": "US", "state": "CA", "display_address": ["23 Ross Common", "Ross, CA 94957"]}, "phone": "+14159259200", "display_phone": "(415) 925-9200", "distance": 695.3419626051601}, {"id": "D70maHiXz6Xxj9o8RdiqLQ", "alias": "trattoria-fresco-ross", "name": "Trattoria Fresco", "image_url": "https://s3-media2.fl.yelpcdn.com/bphoto/5N2ZdpphEyELj9FKfY_cHQ/o.jpg", "is_closed": false, "url": "https://www.yelp.com/biz/trattoria-fresco-ross?adjust_creative=gJ2vrem5KxinHaV7_d8wAA&utm_campaign=yelp_api_v3&utm_medium=api_v3_business_search&utm_source=gJ2vrem5KxinHaV7_d8wAA", "review_count": 49, "categories": [{"alias": "italian", "title": "Italian"}], "rating": 4.0, "coordinates": {"latitude": 37.9605106, "longitude": -122.5554655}, "transactions": [], "price": "$$", "location": {"address1": "13 Ross Common", "address2": null, "address3": "", "city": "Ross", "zip_code": "94957", "country": "US", "state": "CA", "display_address": ["13 Ross Common", "Ross, CA 94957"]}, "phone": "+14154640915", "display_phone": "(415) 464-0915", "distance": 658.2851449223691}, {"id": "g8hnvgklPjKGYxytF5e7zQ", "alias": "tony-tutto-pizza-ross", "name": "Tony Tutto Pizza", "image_url": "https://s3-media4.fl.yelpcdn.com/bphoto/EGzyAqWeeOagkSlRN_HEtA/o.jpg", "is_closed": false, "url": "https://www.yelp.com/biz/tony-tutto-pizza-ross?adjust_creative=gJ2vrem5KxinHaV7_d8wAA&utm_campaign=yelp_api_v3&utm_medium=api_v3_business_search&utm_source=gJ2vrem5KxinHaV7_d8wAA", "review_count": 48, "categories": [{"alias": "pizza", "title": "Pizza"}], "rating": 4.5, "coordinates": {"latitude": 37.9604045951378, "longitude": -122.555722864547}, "transactions": [], "location": {"address1": "16 Ross Common", "address2": "", "address3": null, "city": "Ross", "zip_code": "94957", "country": "US", "state": "CA", "display_address": ["16 Ross Common", "Ross, CA 94957"]}, "phone": "+14153838646", "display_phone": "(415) 383-8646", "distance": 648.1634580671167}, {"id": "fEieX4XShBAmlSWJhF2w_w", "alias": "m-h-bread-and-butter-san-anselmo", "name": "M.H.Bread and Butter", "image_url": "https://s3-media1.fl.yelpcdn.com/bphoto/Ce-CIRNoOP4vijF_368bfw/o.jpg", "is_closed": false, "url": "https://www.yelp.com/biz/m-h-bread-and-butter-san-anselmo?adjust_creative=gJ2vrem5KxinHaV7_d8wAA&utm_campaign=yelp_api_v3&utm_medium=api_v3_business_search&utm_source=gJ2vrem5KxinHaV7_d8wAA", "review_count": 360, "categories": [{"alias": "bakeries", "title": "Bakeries"}, {"alias": "coffee", "title": "Coffee & Tea"}, {"alias": "sandwiches", "title": "Sandwiches"}], "rating": 4.5, "coordinates": {"latitude": 37.970569, "longitude": -122.561661}, "transactions": [], "price": "$$", "location": {"address1": "101 San Anselmo Ave", "address2": "", "address3": "", "city": "San Anselmo", "zip_code": "94960", "country": "US", "state": "CA", "display_address": ["101 San Anselmo Ave", "San Anselmo, CA 94960"]}, "phone": "+14157554575", "display_phone": "(415) 755-4575", "distance": 1004.8755125416377}, {"id": "rM6pPB_qmQ3de5yGpfLT1g", "alias": "lomo-libre-san-francisco-2", "name": "Lomo Libre", "image_url": "https://s3-media1.fl.yelpcdn.com/bphoto/vjnO-EUjFHKoLMy2_JQYvg/o.jpg", "is_closed": false, "url": "https://www.yelp.com/biz/lomo-libre-san-francisco-2?adjust_creative=gJ2vrem5KxinHaV7_d8wAA&utm_campaign=yelp_api_v3&utm_medium=api_v3_business_search&utm_source=gJ2vrem5KxinHaV7_d8wAA", "review_count": 8, "categories": [{"alias": "foodtrucks", "title": "Food Trucks"}, {"alias": "peruvian", "title": "Peruvian"}], "rating": 5.0, "coordinates": {"latitude": 37.799634, "longitude": -122.436301}, "transactions": [], "location": {"address1": "2101 Lombard St", "address2": "", "address3": null, "city": "San Francisco", "zip_code": "94123", "country": "US", "state": "CA", "display_address": ["2101 Lombard St", "San Francisco, CA 94123"]}, "phone": "+14156198149", "display_phone": "(415) 619-8149", "distance": 21162.750048676302}, {"id": "jCcAuXhCpeJP2n-8ol7mxg", "alias": "kolobok-russian-soul-food-truck-oakland", "name": "Kolobok Russian Soul Food Truck", "image_url": "https://s3-media1.fl.yelpcdn.com/bphoto/k8s1Bfc05Iw7SJXE6VJ74Q/o.jpg", "is_closed": false, "url": "https://www.yelp.com/biz/kolobok-russian-soul-food-truck-oakland?adjust_creative=gJ2vrem5KxinHaV7_d8wAA&utm_campaign=yelp_api_v3&utm_medium=api_v3_business_search&utm_source=gJ2vrem5KxinHaV7_d8wAA", "review_count": 47, "categories": [{"alias": "foodtrucks", "title": "Food Trucks"}, {"alias": "russian", "title": "Russian"}], "rating": 4.5, "coordinates": {"latitude": 37.7883087690458, "longitude": -122.309032460882}, "transactions": [], "price": "$$", "location": {"address1": null, "address2": null, "address3": "", "city": "Oakland", "zip_code": "94577", "country": "US", "state": "CA", "display_address": ["Oakland, CA 94577"]}, "phone": "+15105996542", "display_phone": "(510) 599-6542", "distance": 29461.882536016677}, {"id": "XTJJ_PUQoJKIh31ZIzsFzw", "alias": "cochinita-food-truck-san-francisco-6", "name": "Cochinita Food Truck", "image_url": "https://s3-media2.fl.yelpcdn.com/bphoto/w77SOd2jVJjOh1lwuYQ42w/o.jpg", "is_closed": false, "url": "https://www.yelp.com/biz/cochinita-food-truck-san-francisco-6?adjust_creative=gJ2vrem5KxinHaV7_d8wAA&utm_campaign=yelp_api_v3&utm_medium=api_v3_business_search&utm_source=gJ2vrem5KxinHaV7_d8wAA", "review_count": 49, "categories": [{"alias": "foodtrucks", "title": "Food Trucks"}, {"alias": "mexican", "title": "Mexican"}], "rating": 4.5, "coordinates": {"latitude": 37.770753, "longitude": -122.3916722}, "transactions": [], "price": "$", "location": {"address1": "601 Mission Blvd N", "address2": null, "address3": "", "city": "San Francisco", "zip_code": "94103", "country": "US", "state": "CA", "display_address": ["601 Mission Blvd N", "San Francisco, CA 94103"]}, "phone": "+14159883663", "display_phone": "(415) 988-3663", "distance": 26007.296963866786}, {"id": "CUwBAy6lrFi4x6Neu9eRVw", "alias": "mini-street-burger-alameda-3", "name": "Mini Street Burger", "image_url": "https://s3-media2.fl.yelpcdn.com/bphoto/Kh-OQKBIclWY1dCeIuu57w/o.jpg", "is_closed": false, "url": "https://www.yelp.com/biz/mini-street-burger-alameda-3?adjust_creative=gJ2vrem5KxinHaV7_d8wAA&utm_campaign=yelp_api_v3&utm_medium=api_v3_business_search&utm_source=gJ2vrem5KxinHaV7_d8wAA", "review_count": 28, "categories": [{"alias": "foodtrucks", "title": "Food Trucks"}, {"alias": "burgers", "title": "Burgers"}], "rating": 4.0, "coordinates": {"latitude": 37.82628, "longitude": -122.25101}, "transactions": [], "location": {"address1": null, "address2": null, "address3": null, "city": "Alameda", "zip_code": "94611", "country": "US", "state": "CA", "display_address": ["Alameda, CA 94611"]}, "phone": "+15108278982", "display_phone": "(510) 827-8982", "distance": 34643.13194104151}, {"id": "uuouQQIFQ1B9mkmcxaAKFA", "alias": "tacos-el-rey-oakland", "name": "Tacos El Rey", "image_url": "https://s3-media2.fl.yelpcdn.com/bphoto/DblyFrtT9uyPCQAUfPbYbQ/o.jpg", "is_closed": false, "url": "https://www.yelp.com/biz/tacos-el-rey-oakland?adjust_creative=gJ2vrem5KxinHaV7_d8wAA&utm_campaign=yelp_api_v3&utm_medium=api_v3_business_search&utm_source=gJ2vrem5KxinHaV7_d8wAA", "review_count": 9, "categories": [{"alias": "foodtrucks", "title": "Food Trucks"}, {"alias": "mexican", "title": "Mexican"}], "rating": 4.0, "coordinates": {"latitude": 37.8294034, "longitude": -122.2875758}, "transactions": [], "price": "$", "location": {"address1": "40th & Horton", "address2": "", "address3": null, "city": "Oakland", "zip_code": "94608", "country": "US", "state": "CA", "display_address": ["40th & Horton", "Oakland, CA 94608"]}, "phone": "+15108130232", "display_phone": "(510) 813-0232", "distance": 28283.606147185037}, {"id": "DC42MrpWtqEeWRmMsn6Z8w", "alias": "the-everest-momo-fremont-2", "name": "The Everest Momo", "image_url": "https://s3-media2.fl.yelpcdn.com/bphoto/T2f7tUQ1c104otx9oSdqYw/o.jpg", "is_closed": false, "url": "https://www.yelp.com/biz/the-everest-momo-fremont-2?adjust_creative=gJ2vrem5KxinHaV7_d8wAA&utm_campaign=yelp_api_v3&utm_medium=api_v3_business_search&utm_source=gJ2vrem5KxinHaV7_d8wAA", "review_count": 23, "categories": [{"alias": "foodtrucks", "title": "Food Trucks"}, {"alias": "indpak", "title": "Indian"}, {"alias": "himalayan", "title": "Himalayan/Nepalese"}], "rating": 4.5, "coordinates": {"latitude": 37.54643, "longitude": -121.98512}, "transactions": [], "price": "$", "location": {"address1": "39233 Fremont Blvd", "address2": null, "address3": null, "city": "Fremont", "zip_code": "94538", "country": "US", "state": "CA", "display_address": ["39233 Fremont Blvd", "Fremont, CA 94538"]}, "phone": "+14088406369", "display_phone": "(408) 840-6369", "distance": 68641.79591487303}, {"id": "lgheXsHqe66AEZwoPDIEpw", "alias": "taco-coma-newark", "name": "Taco Coma", "image_url": "https://s3-media3.fl.yelpcdn.com/bphoto/DDz5lZDL5lDiRR_Ph0L4Sg/o.jpg", "is_closed": false, "url": "https://www.yelp.com/biz/taco-coma-newark?adjust_creative=gJ2vrem5KxinHaV7_d8wAA&utm_campaign=yelp_api_v3&utm_medium=api_v3_business_search&utm_source=gJ2vrem5KxinHaV7_d8wAA", "review_count": 3, "categories": [{"alias": "foodstands", "title": "Food Stands"}, {"alias": "tacos", "title": "Tacos"}], "rating": 5.0, "coordinates": {"latitude": 37.53453, "longitude": -122.03284}, "transactions": [], "location": {"address1": "", "address2": null, "address3": "", "city": "Newark", "zip_code": "94560", "country": "US", "state": "CA", "display_address": ["Newark, CA 94560"]}, "phone": "+15106971448", "display_phone": "(510) 697-1448", "distance": 66562.86138502187}, {"id": "i6ZwMjYIbmFZ8EGYz6x5Bw", "alias": "phat-salads-and-wraps-napa", "name": "Phat Salads and Wraps", "image_url": "https://s3-media2.fl.yelpcdn.com/bphoto/FbrUwtrVIx2cLXiPdBhHkw/o.jpg", "is_closed": false, "url": "https://www.yelp.com/biz/phat-salads-and-wraps-napa?adjust_creative=gJ2vrem5KxinHaV7_d8wAA&utm_campaign=yelp_api_v3&utm_medium=api_v3_business_search&utm_source=gJ2vrem5KxinHaV7_d8wAA", "review_count": 48, "categories": [{"alias": "foodtrucks", "title": "Food Trucks"}, {"alias": "wraps", "title": "Wraps"}], "rating": 4.0, "coordinates": {"latitude": 38.3234491, "longitude": -122.3023962}, "transactions": [], "price": "$", "location": {"address1": "", "address2": "", "address3": "", "city": "Napa", "zip_code": "94558", "country": "US", "state": "CA", "display_address": ["Napa, CA 94558"]}, "phone": "+17073639658", "display_phone": "(707) 363-9658", "distance": 46241.1486900452}, {"id": "8SNGFcMWZkvS4GWDUL8w1Q", "alias": "noon-o-kabob-san-jose-4", "name": "Noon O Kabob", "image_url": "https://s3-media2.fl.yelpcdn.com/bphoto/5GmY5FRw0m0XEWC5XXbVlA/o.jpg", "is_closed": false, "url": "https://www.yelp.com/biz/noon-o-kabob-san-jose-4?adjust_creative=gJ2vrem5KxinHaV7_d8wAA&utm_campaign=yelp_api_v3&utm_medium=api_v3_business_search&utm_source=gJ2vrem5KxinHaV7_d8wAA", "review_count": 29, "categories": [{"alias": "foodtrucks", "title": "Food Trucks"}, {"alias": "kebab", "title": "Kebab"}, {"alias": "persian", "title": "Persian/Iranian"}], "rating": 4.5, "coordinates": {"latitude": 37.3940232, "longitude": -122.0288052}, "transactions": [], "price": "$$", "location": {"address1": null, "address2": null, "address3": null, "city": "San Jose", "zip_code": "95101", "country": "US", "state": "CA", "display_address": ["San Jose, CA 95101"]}, "phone": "+14083346777", "display_phone": "(408) 334-6777", "distance": 78693.9448632712}, {"id": "C9uewBH5505NV0EWYBIJAA", "alias": "lady-and-l-aperitivo-san-jose", "name": "Lady & L'Aperitivo", "image_url": "https://s3-media4.fl.yelpcdn.com/bphoto/3nz0sRE9MlOq_4xVRQRt9w/o.jpg", "is_closed": false, "url": "https://www.yelp.com/biz/lady-and-l-aperitivo-san-jose?adjust_creative=gJ2vrem5KxinHaV7_d8wAA&utm_campaign=yelp_api_v3&utm_medium=api_v3_business_search&utm_source=gJ2vrem5KxinHaV7_d8wAA", "review_count": 1, "categories": [{"alias": "bakeries", "title": "Bakeries"}, {"alias": "desserts", "title": "Desserts"}, {"alias": "cheesesteaks", "title": "Cheesesteaks"}], "rating": 5.0, "coordinates": {"latitude": 37.2208938598633, "longitude": -121.861633300781}, "transactions": [], "location": {"address1": null, "address2": null, "address3": "", "city": "San Jose", "zip_code": "95120", "country": "US", "state": "CA", "display_address": ["San Jose, CA 95120"]}, "phone": "", "display_phone": "", "distance": 108439.6259960356}, {"id": "22KzWfCP7jt9tOl6Gl17LQ", "alias": "mai-thai-kitchen-las-vegas", "name": "Mai Thai Kitchen", "image_url": "https://s3-media1.fl.yelpcdn.com/bphoto/t1Zp5dvdlEzcNrgITCLZkw/o.jpg", "is_closed": false, "url": "https://www.yelp.com/biz/mai-thai-kitchen-las-vegas?adjust_creative=gJ2vrem5KxinHaV7_d8wAA&utm_campaign=yelp_api_v3&utm_medium=api_v3_business_search&utm_source=gJ2vrem5KxinHaV7_d8wAA", "review_count": 9, "categories": [{"alias": "foodtrucks", "title": "Food Trucks"}, {"alias": "thai", "title": "Thai"}, {"alias": "catering", "title": "Caterers"}], "rating": 3.5, "coordinates": {"latitude": 36.1067341598394, "longitude": -115.040667839348}, "transactions": [], "price": "$$$$", "location": {"address1": "", "address2": "", "address3": null, "city": "Las Vegas", "zip_code": "89122", "country": "US", "state": "NV", "display_address": ["Las Vegas, NV 89122"]}, "phone": "+14152591625", "display_phone": "(415) 259-1625", "distance": 698597.4749534618}]}