{"location": "San Pablo, CA", "term": "restaurant", "radius": 1471, "businesses": [{"id": "9B8pa9_f_KvayUI81DTOng", "alias": "rockin-crawfish-san-pablo", "name": "Rockin' Crawfish", "image_url": "https://s3-media4.fl.yelpcdn.com/bphoto/26rmTRAZIhaqjUvhqGIBIg/o.jpg", "is_closed": false, "url": "https://www.yelp.com/biz/rockin-crawfish-san-pablo?adjust_creative=gJ2vrem5KxinHaV7_d8wAA&utm_campaign=yelp_api_v3&utm_medium=api_v3_business_search&utm_source=gJ2vrem5KxinHaV7_d8wAA", "review_count": 397, "categories": [{"alias": "cajun", "title": "Cajun/Creole"}, {"alias": "seafood", "title": "Seafood"}], "rating": 4.0, "coordinates": {"latitude": 37.9660453796387, "longitude": -122.343246459961}, "transactions": [], "price": "$$", "location": {"address1": "2300 El Portal Dr", "address2": "Ste L", "address3": "", "city": "San Pablo", "zip_code": "94806", "country": "US", "state": "CA", "display_address": ["2300 El Portal Dr", "Ste L", "San Pablo, CA 94806"]}, "phone": "+15102304874", "display_phone": "(510) 230-4874", "distance": 362.34665358696174}, {"id": "Kw9ZNf2w5HHstp8PjkygDQ", "alias": "la-strada-san-pablo", "name": "La Strada", "image_url": "https://s3-media4.fl.yelpcdn.com/bphoto/CIERQCDJlU7rknWhXjjaNg/o.jpg", "is_closed": false, "url": "https://www.yelp.com/biz/la-strada-san-pablo?adjust_creative=gJ2vrem5KxinHaV7_d8wAA&utm_campaign=yelp_api_v3&utm_medium=api_v3_business_search&utm_source=gJ2vrem5KxinHaV7_d8wAA", "review_count": 349, "categories": [{"alias": "italian", "title": "Italian"}, {"alias": "venues", "title": "Venues & Event Spaces"}, {"alias": "wine_bars", "title": "Wine Bars"}], "rating": 4.0, "coordinates": {"latitude": 37.95924, "longitude": -122.34012}, "transactions": [], "price": "$$", "location": {"address1": "2215 Church Ln", "address2": "", "address3": "", "city": "San Pablo", "zip_code": "94806", "country": "US", "state": "CA", "display_address": ["2215 Church Ln", "San Pablo, CA 94806"]}, "phone": "+15102379047", "display_phone": "(510) 237-9047", "distance": 907.1769250835513}, {"id": "O12iu6Ea3CxmuyB3LlRCoQ", "alias": "taj-express-san-pablo", "name": "Taj Express", "image_url": "https://s3-media2.fl.yelpcdn.com/bphoto/KmkgfGrYOqLIcGI55ibBdA/o.jpg", "is_closed": false, "url": "https://www.yelp.com/biz/taj-express-san-pablo?adjust_creative=gJ2vrem5KxinHaV7_d8wAA&utm_campaign=yelp_api_v3&utm_medium=api_v3_business_search&utm_source=gJ2vrem5KxinHaV7_d8wAA", "review_count": 18, "categories": [{"alias": "indpak", "title": "Indian"}], "rating": 4.5, "coordinates": {"latitude": 37.957413, "longitude": -122.347733}, "transactions": ["pickup", "delivery"], "price": "$", "location": {"address1": "1811 23rd St", "address2": "Ste E", "address3": "", "city": "San Pablo", "zip_code": "94806", "country": "US", "state": "CA", "display_address": ["1811 23rd St", "Ste E", "San Pablo, CA 94806"]}, "phone": "", "display_phone": "", "distance": 1332.3298075582402}, {"id": "cQ_xcQMKkpC-tmv9VA1z-A", "alias": "koi-sushi-san-pablo", "name": "Koi Sushi", "image_url": "https://s3-media1.fl.yelpcdn.com/bphoto/EgHtCECrCPvF921_zzzIZQ/o.jpg", "is_closed": false, "url": "https://www.yelp.com/biz/koi-sushi-san-pablo?adjust_creative=gJ2vrem5KxinHaV7_d8wAA&utm_campaign=yelp_api_v3&utm_medium=api_v3_business_search&utm_source=gJ2vrem5KxinHaV7_d8wAA", "review_count": 69, "categories": [{"alias": "sushi", "title": "Sushi Bars"}, {"alias": "ramen", "title": "Ramen"}], "rating": 4.0, "coordinates": {"latitude": 37.95547, "longitude": -122.3363}, "transactions": ["pickup", "delivery"], "location": {"address1": "13501 San Pablo", "address2": "Ste H", "address3": "", "city": "San Pablo", "zip_code": "94806", "country": "US", "state": "CA", "display_address": ["13501 San Pablo", "Ste H", "San Pablo, CA 94806"]}, "phone": "+15103746733", "display_phone": "(510) 374-6733", "distance": 1352.6282584809455}, {"id": "sRNlkrvHcVbVm8EFXLWlmA", "alias": "burgerim-san-pablo-san-pablo", "name": "Burgerim - San Pablo", "image_url": "https://s3-media2.fl.yelpcdn.com/bphoto/ZJ1Pr9FrgKe9D3jy4NcLbg/o.jpg", "is_closed": false, "url": "https://www.yelp.com/biz/burgerim-san-pablo-san-pablo?adjust_creative=gJ2vrem5KxinHaV7_d8wAA&utm_campaign=yelp_api_v3&utm_medium=api_v3_business_search&utm_source=gJ2vrem5KxinHaV7_d8wAA", "review_count": 105, "categories": [{"alias": "burgers", "title": "Burgers"}], "rating": 4.0, "coordinates": {"latitude": 37.96605, "longitude": -122.34325}, "transactions": ["pickup", "delivery"], "price": "$$", "location": {"address1": "2300 El Portal Dr", "address2": "", "address3": null, "city": "San Pablo", "zip_code": "94806", "country": "US", "state": "CA", "display_address": ["2300 El Portal Dr", "San Pablo, CA 94806"]}, "phone": "+15102600354", "display_phone": "(510) 260-0354", "distance": 362.34665358696174}, {"id": "ji7gol2u9NfVqKjeR_P93Q", "alias": "noodle-21-san-pablo", "name": "Noodle 21", "image_url": "https://s3-media2.fl.yelpcdn.com/bphoto/kO3n8NrU8qkZvMcbW_SLEQ/o.jpg", "is_closed": false, "url": "https://www.yelp.com/biz/noodle-21-san-pablo?adjust_creative=gJ2vrem5KxinHaV7_d8wAA&utm_campaign=yelp_api_v3&utm_medium=api_v3_business_search&utm_source=gJ2vrem5KxinHaV7_d8wAA", "review_count": 167, "categories": [{"alias": "noodles", "title": "Noodles"}], "rating": 3.5, "coordinates": {"latitude": 37.9556704, "longitude": -122.3333241}, "transactions": ["pickup", "delivery"], "price": "$$", "location": {"address1": "501B San Pablo Towne Ctr", "address2": "", "address3": "", "city": "San Pablo", "zip_code": "94806", "country": "US", "state": "CA", "display_address": ["501B San Pablo Towne Ctr", "San Pablo, CA 94806"]}, "phone": "+15102325658", "display_phone": "(510) 232-5658", "distance": 1418.540090452717}, {"id": "kUIgfrQxOt07EJxnloFW3w", "alias": "lumpia-n-desserts-san-pablo", "name": "Lumpia N Desserts", "image_url": "https://s3-media1.fl.yelpcdn.com/bphoto/b2fgwDvhssE8Cze9gPHf8g/o.jpg", "is_closed": false, "url": "https://www.yelp.com/biz/lumpia-n-desserts-san-pablo?adjust_creative=gJ2vrem5KxinHaV7_d8wAA&utm_campaign=yelp_api_v3&utm_medium=api_v3_business_search&utm_source=gJ2vrem5KxinHaV7_d8wAA", "review_count": 14, "categories": [{"alias": "filipino", "title": "Filipino"}, {"alias": "chinese", "title": "Chinese"}, {"alias": "catering", "title": "Caterers"}], "rating": 3.0, "coordinates": {"latitude": 37.960592, "longitude": -122.343212}, "transactions": ["pickup", "delivery"], "location": {"address1": "13993 San Pablo Ave", "address2": "", "address3": null, "city": "San Pablo", "zip_code": "94806", "country": "US", "state": "CA", "display_address": ["13993 San Pablo Ave", "San Pablo, CA 94806"]}, "phone": "+15102557680", "display_phone": "(510) 255-7680", "distance": 833.1251506660631}, {"id": "QtEi0uZJSJ7EOcfrhRKGXg", "alias": "el-palenque-grill-san-pablo-3", "name": "El Palenque Grill", "image_url": "https://s3-media4.fl.yelpcdn.com/bphoto/piPnLLIOsHApemmYUojfTw/o.jpg", "is_closed": false, "url": "https://www.yelp.com/biz/el-palenque-grill-san-pablo-3?adjust_creative=gJ2vrem5KxinHaV7_d8wAA&utm_campaign=yelp_api_v3&utm_medium=api_v3_business_search&utm_source=gJ2vrem5KxinHaV7_d8wAA", "review_count": 43, "categories": [{"alias": "mexican", "title": "Mexican"}], "rating": 4.5, "coordinates": {"latitude": 37.95482, "longitude": -122.34762}, "transactions": [], "price": "$$", "location": {"address1": "1439 23rd St", "address2": null, "address3": "", "city": "San Pablo", "zip_code": "94806", "country": "US", "state": "CA", "display_address": ["1439 23rd St", "San Pablo, CA 94806"]}, "phone": "+15103746570", "display_phone": "(510) 374-6570", "distance": 1579.2215124287068}, {"id": "4wQK0S-6oPeM2sbPcgMeyA", "alias": "habanero-san-pablo", "name": "Habanero", "image_url": "https://s3-media1.fl.yelpcdn.com/bphoto/qvJovLs9ZwNJRZLBMIQXAQ/o.jpg", "is_closed": false, "url": "https://www.yelp.com/biz/habanero-san-pablo?adjust_creative=gJ2vrem5KxinHaV7_d8wAA&utm_campaign=yelp_api_v3&utm_medium=api_v3_business_search&utm_source=gJ2vrem5KxinHaV7_d8wAA", "review_count": 27, "categories": [{"alias": "chicken_wings", "title": "Chicken Wings"}], "rating": 3.5, "coordinates": {"latitude": 37.955583, "longitude": -122.336391}, "transactions": ["pickup", "delivery"], "location": {"address1": "13501 San Pablo Ave", "address2": "", "address3": null, "city": "San Pablo", "zip_code": "94806", "country": "US", "state": "CA", "display_address": ["13501 San Pablo Ave", "San Pablo, CA 94806"]}, "phone": "", "display_phone": "", "distance": 1352.6282584809455}, {"id": "XuYY7gSw5t_f58YnU2PP5A", "alias": "el-cuscatlan-san-pablo", "name": "El Cuscatlan", "image_url": "https://s3-media2.fl.yelpcdn.com/bphoto/6a_VzpvSxHp3x3EZCTHVlg/o.jpg", "is_closed": false, "url": "https://www.yelp.com/biz/el-cuscatlan-san-pablo?adjust_creative=gJ2vrem5KxinHaV7_d8wAA&utm_campaign=yelp_api_v3&utm_medium=api_v3_business_search&utm_source=gJ2vrem5KxinHaV7_d8wAA", "review_count": 45, "categories": [{"alias": "salvadoran", "title": "Salvadoran"}], "rating": 3.0, "coordinates": {"latitude": 37.9648, "longitude": -122.343909}, "transactions": [], "location": {"address1": "14350 Laurie Ln", "address2": "Ste A", "address3": "", "city": "San Pablo", "zip_code": "94806", "country": "US", "state": "CA", "display_address": ["14350 Laurie Ln", "Ste A", "San Pablo, CA 94806"]}, "phone": "+15106805244", "display_phone": "(510) 680-5244", "distance": 490.6222321386424}, {"id": "_0cRtvwo-niXay8vfvfPww", "alias": "kebab-express-san-pablo", "name": "Kebab Express", "image_url": "https://s3-media3.fl.yelpcdn.com/bphoto/RWxc36483AAU21V7KmhTgg/o.jpg", "is_closed": false, "url": "https://www.yelp.com/biz/kebab-express-san-pablo?adjust_creative=gJ2vrem5KxinHaV7_d8wAA&utm_campaign=yelp_api_v3&utm_medium=api_v3_business_search&utm_source=gJ2vrem5KxinHaV7_d8wAA", "review_count": 255, "categories": [{"alias": "halal", "title": "Halal"}, {"alias": "afghani", "title": "Afghan"}, {"alias": "mideastern", "title": "Middle Eastern"}], "rating": 4.0, "coordinates": {"latitude": 37.9548203, "longitude": -122.3340764}, "transactions": ["delivery", "pickup"], "price": "$", "location": {"address1": "13350 San Pablo Ave", "address2": "Ste A5", "address3": "", "city": "San Pablo", "zip_code": "94806", "country": "US", "state": "CA", "display_address": ["13350 San Pablo Ave", "Ste A5", "San Pablo, CA 94806"]}, "phone": "+15102332733", "display_phone": "(510) 233-2733", "distance": 1484.1717152901604}, {"id": "mLsvkQLB5t8lqqLN5frxlw", "alias": "noodle-king-san-pablo-2", "name": "Noodle King", "image_url": "https://s3-media2.fl.yelpcdn.com/bphoto/0zenmrfEzL1cMfHqODR_KQ/o.jpg", "is_closed": false, "url": "https://www.yelp.com/biz/noodle-king-san-pablo-2?adjust_creative=gJ2vrem5KxinHaV7_d8wAA&utm_campaign=yelp_api_v3&utm_medium=api_v3_business_search&utm_source=gJ2vrem5KxinHaV7_d8wAA", "review_count": 60, "categories": [{"alias": "sushi", "title": "Sushi Bars"}, {"alias": "noodles", "title": "Noodles"}, {"alias": "soup", "title": "Soup"}], "rating": 3.0, "coordinates": {"latitude": 37.96524, "longitude": -122.34316}, "transactions": ["delivery", "pickup"], "price": "$$", "location": {"address1": "14350 Laurie Ln", "address2": "Ste I", "address3": "", "city": "San Pablo", "zip_code": "94806", "country": "US", "state": "CA", "display_address": ["14350 Laurie Ln", "Ste I", "San Pablo, CA 94806"]}, "phone": "+15103079999", "display_phone": "(510) 307-9999", "distance": 411.5223633915034}, {"id": "iaFuZAABvi73Deo_vS3-DA", "alias": "super-burger-express-san-pablo", "name": "Super Burger Express", "image_url": "https://s3-media2.fl.yelpcdn.com/bphoto/u_m0ll-DkRnnGXpmAtUk0A/o.jpg", "is_closed": false, "url": "https://www.yelp.com/biz/super-burger-express-san-pablo?adjust_creative=gJ2vrem5KxinHaV7_d8wAA&utm_campaign=yelp_api_v3&utm_medium=api_v3_business_search&utm_source=gJ2vrem5KxinHaV7_d8wAA", "review_count": 13, "categories": [{"alias": "burgers", "title": "Burgers"}], "rating": 3.0, "coordinates": {"latitude": 37.963806, "longitude": -122.34505}, "transactions": [], "location": {"address1": "14260 San Pablo Ave", "address2": null, "address3": "", "city": "San Pablo", "zip_code": "94806", "country": "US", "state": "CA", "display_address": ["14260 San Pablo Ave", "San Pablo, CA 94806"]}, "phone": "+15103746225", "display_phone": "(510) 374-6225", "distance": 637.7634657290918}, {"id": "szhevxpkv7zvqLKOoD-90g", "alias": "chang-thai-thai-and-vietnamese-cuisines-san-pablo", "name": "Chang Thai - Thai and Vietnamese Cuisines", "image_url": "https://s3-media2.fl.yelpcdn.com/bphoto/CBRSk2OukSNa9L4DsE6n_A/o.jpg", "is_closed": false, "url": "https://www.yelp.com/biz/chang-thai-thai-and-vietnamese-cuisines-san-pablo?adjust_creative=gJ2vrem5KxinHaV7_d8wAA&utm_campaign=yelp_api_v3&utm_medium=api_v3_business_search&utm_source=gJ2vrem5KxinHaV7_d8wAA", "review_count": 144, "categories": [{"alias": "thai", "title": "Thai"}, {"alias": "vietnamese", "title": "Vietnamese"}], "rating": 4.0, "coordinates": {"latitude": 37.9588, "longitude": -122.34715}, "transactions": ["pickup", "delivery"], "price": "$", "location": {"address1": "2229 Dover Ave", "address2": "", "address3": "", "city": "San Pablo", "zip_code": "94806", "country": "US", "state": "CA", "display_address": ["2229 Dover Ave", "San Pablo, CA 94806"]}, "phone": "+15102359999", "display_phone": "(510) 235-9999", "distance": 1178.2912205924192}, {"id": "8Jkp2xy3AQKem07pbdLo0A", "alias": "aqua-terra-grill-at-contra-costa-college-san-pablo", "name": "AQUA TERRA Grill at Contra Costa College", "image_url": "https://s3-media3.fl.yelpcdn.com/bphoto/a-qZC3xuZhWYmLiXOCWvig/o.jpg", "is_closed": false, "url": "https://www.yelp.com/biz/aqua-terra-grill-at-contra-costa-college-san-pablo?adjust_creative=gJ2vrem5KxinHaV7_d8wAA&utm_campaign=yelp_api_v3&utm_medium=api_v3_business_search&utm_source=gJ2vrem5KxinHaV7_d8wAA", "review_count": 7, "categories": [{"alias": "cafes", "title": "Cafes"}, {"alias": "catering", "title": "Caterers"}], "rating": 5.0, "coordinates": {"latitude": 37.9686546325684, "longitude": -122.340446472168}, "transactions": [], "price": "$", "location": {"address1": "2600 Mission Bell Dr", "address2": "", "address3": "", "city": "San Pablo", "zip_code": "94806", "country": "US", "state": "CA", "display_address": ["2600 Mission Bell Dr", "San Pablo, CA 94806"]}, "phone": "+15102153878", "display_phone": "(510) 215-3878", "distance": 157.21767842730884}, {"id": "VC_NitZmalM9eflmoOl_RQ", "alias": "taqueria-san-juan-san-pablo", "name": "Taqueria San Juan", "image_url": "https://s3-media3.fl.yelpcdn.com/bphoto/qf8AePf52njRu1mMzDnTIA/o.jpg", "is_closed": false, "url": "https://www.yelp.com/biz/taqueria-san-juan-san-pablo?adjust_creative=gJ2vrem5KxinHaV7_d8wAA&utm_campaign=yelp_api_v3&utm_medium=api_v3_business_search&utm_source=gJ2vrem5KxinHaV7_d8wAA", "review_count": 130, "categories": [{"alias": "mexican", "title": "Mexican"}], "rating": 4.0, "coordinates": {"latitude": 37.9555370963267, "longitude": -122.336300164461}, "transactions": ["pickup", "delivery"], "price": "$", "location": {"address1": "13501 San Pablo Ave", "address2": "", "address3": "", "city": "San Pablo", "zip_code": "94806", "country": "US", "state": "CA", "display_address": ["13501 San Pablo Ave", "San Pablo, CA 94806"]}, "phone": "+15109659745", "display_phone": "(510) 965-9745", "distance": 1356.036476428221}, {"id": "ZUzcElQaUKBR3nn7_ewo9A", "alias": "sukies-country-kitchen-san-pablo", "name": "Sukie's Country Kitchen", "image_url": "https://s3-media2.fl.yelpcdn.com/bphoto/ym_Pm0ftp9cUnBq5ELWSiw/o.jpg", "is_closed": false, "url": "https://www.yelp.com/biz/sukies-country-kitchen-san-pablo?adjust_creative=gJ2vrem5KxinHaV7_d8wAA&utm_campaign=yelp_api_v3&utm_medium=api_v3_business_search&utm_source=gJ2vrem5KxinHaV7_d8wAA", "review_count": 349, "categories": [{"alias": "southern", "title": "Southern"}, {"alias": "breakfast_brunch", "title": "Breakfast & Brunch"}], "rating": 3.5, "coordinates": {"latitude": 37.9654541015625, "longitude": -122.34171295166}, "transactions": [], "price": "$$", "location": {"address1": "2400 El Portal Dr", "address2": "", "address3": "", "city": "San Pablo", "zip_code": "94806", "country": "US", "state": "CA", "display_address": ["2400 El Portal Dr", "San Pablo, CA 94806"]}, "phone": "+15102335856", "display_phone": "(510) 233-5856", "distance": 292.0005704130929}, {"id": "f74qVpDZ1sR8j143G3kY0A", "alias": "curbside-kitchen-richmond", "name": "Curbside Kitchen", "image_url": "https://s3-media2.fl.yelpcdn.com/bphoto/FMSP86_OaLeb8Aj077lnvg/o.jpg", "is_closed": false, "url": "https://www.yelp.com/biz/curbside-kitchen-richmond?adjust_creative=gJ2vrem5KxinHaV7_d8wAA&utm_campaign=yelp_api_v3&utm_medium=api_v3_business_search&utm_source=gJ2vrem5KxinHaV7_d8wAA", "review_count": 29, "categories": [{"alias": "foodtrucks", "title": "Food Trucks"}, {"alias": "filipino", "title": "Filipino"}, {"alias": "newamerican", "title": "American (New)"}], "rating": 4.0, "coordinates": {"latitude": 37.96632, "longitude": -122.34293}, "transactions": [], "price": "$", "location": {"address1": "", "address2": "", "address3": "", "city": "Richmond", "zip_code": "94806", "country": "US", "state": "CA", "display_address": ["Richmond, CA 94806"]}, "phone": "+16284003840", "display_phone": "(628) 400-3840", "distance": 1046.0262583885747}, {"id": "p57aU0kEkgWK7FprivXpoA", "alias": "starbread-bakery-san-pablo-2", "name": "Starbread Bakery", "image_url": "https://s3-media3.fl.yelpcdn.com/bphoto/Z8JyUdh14ph3CEAa2Eopbw/o.jpg", "is_closed": false, "url": "https://www.yelp.com/biz/starbread-bakery-san-pablo-2?adjust_creative=gJ2vrem5KxinHaV7_d8wAA&utm_campaign=yelp_api_v3&utm_medium=api_v3_business_search&utm_source=gJ2vrem5KxinHaV7_d8wAA", "review_count": 238, "categories": [{"alias": "bakeries", "title": "Bakeries"}, {"alias": "filipino", "title": "Filipino"}], "rating": 4.5, "coordinates": {"latitude": 37.95547, "longitude": -122.3363}, "transactions": [], "price": "$", "location": {"address1": "13501 San Pablo Ave", "address2": "", "address3": "", "city": "San Pablo", "zip_code": "94806", "country": "US", "state": "CA", "display_address": ["13501 San Pablo Ave", "San Pablo, CA 94806"]}, "phone": "+15102332300", "display_phone": "(510) 233-2300", "distance": 1352.6282584809455}, {"id": "rssmAIAyrWG9R-G4od3fVw", "alias": "asia-delight-san-pablo", "name": "Asia Delight", "image_url": "https://s3-media4.fl.yelpcdn.com/bphoto/O9iz_K8WS6_YP5Rxq4gzfg/o.jpg", "is_closed": false, "url": "https://www.yelp.com/biz/asia-delight-san-pablo?adjust_creative=gJ2vrem5KxinHaV7_d8wAA&utm_campaign=yelp_api_v3&utm_medium=api_v3_business_search&utm_source=gJ2vrem5KxinHaV7_d8wAA", "review_count": 110, "categories": [{"alias": "asianfusion", "title": "Asian Fusion"}, {"alias": "chinese", "title": "Chinese"}], "rating": 4.0, "coordinates": {"latitude": 37.95485, "longitude": -122.33411}, "transactions": [], "price": "$", "location": {"address1": "13350 San Pablo Ave", "address2": "Ste A6", "address3": "", "city": "San Pablo", "zip_code": "94806", "country": "US", "state": "CA", "display_address": ["13350 San Pablo Ave", "Ste A6", "San Pablo, CA 94806"]}, "phone": "+15102151888", "display_phone": "(510) 215-1888", "distance": 1492.3728388162924}, {"id": "6tbgc-e5AGS1UqnQCfmxFA", "alias": "la-plazuela-san-pablo", "name": "La Plazuela", "image_url": "https://s3-media1.fl.yelpcdn.com/bphoto/94_9wGg1MpC2GgXI4lCWYA/o.jpg", "is_closed": false, "url": "https://www.yelp.com/biz/la-plazuela-san-pablo?adjust_creative=gJ2vrem5KxinHaV7_d8wAA&utm_campaign=yelp_api_v3&utm_medium=api_v3_business_search&utm_source=gJ2vrem5KxinHaV7_d8wAA", "review_count": 33, "categories": [{"alias": "mexican", "title": "Mexican"}], "rating": 4.0, "coordinates": {"latitude": 37.9605026245117, "longitude": -122.346031188965}, "transactions": [], "price": "$$", "location": {"address1": "2022 23rd St", "address2": "", "address3": "", "city": "San Pablo", "zip_code": "94806", "country": "US", "state": "CA", "display_address": ["2022 23rd St", "San Pablo, CA 94806"]}, "phone": "+15102327688", "display_phone": "(510) 232-7688", "distance": 956.485323169519}, {"id": "X7MWc9Ng71CJmF24z7rlTA", "alias": "that-luang-kitchen-lao-cuisine-san-pablo", "name": "That Luang Kitchen Lao Cuisine", "image_url": "https://s3-media4.fl.yelpcdn.com/bphoto/SWI41q09qnm5M88d9Jyvbw/o.jpg", "is_closed": false, "url": "https://www.yelp.com/biz/that-luang-kitchen-lao-cuisine-san-pablo?adjust_creative=gJ2vrem5KxinHaV7_d8wAA&utm_campaign=yelp_api_v3&utm_medium=api_v3_business_search&utm_source=gJ2vrem5KxinHaV7_d8wAA", "review_count": 66, "categories": [{"alias": "laotian", "title": "Laotian"}], "rating": 3.5, "coordinates": {"latitude": 37.95596, "longitude": -122.34695}, "transactions": [], "price": "$", "location": {"address1": "1614 23rd St", "address2": "", "address3": "", "city": "San Pablo", "zip_code": "94806", "country": "US", "state": "CA", "display_address": ["1614 23rd St", "San Pablo, CA 94806"]}, "phone": "+15102326265", "display_phone": "(510) 232-6265", "distance": 1436.6512085643149}, {"id": "r3HJgQ9hLtpKKsy9bPzwqQ", "alias": "donut-king-san-pablo", "name": "Donut King", "image_url": "https://s3-media2.fl.yelpcdn.com/bphoto/_fahCIJSZaZkwy_DhAFrqg/o.jpg", "is_closed": false, "url": "https://www.yelp.com/biz/donut-king-san-pablo?adjust_creative=gJ2vrem5KxinHaV7_d8wAA&utm_campaign=yelp_api_v3&utm_medium=api_v3_business_search&utm_source=gJ2vrem5KxinHaV7_d8wAA", "review_count": 57, "categories": [{"alias": "donuts", "title": "Donuts"}, {"alias": "coffee", "title": "Coffee & Tea"}, {"alias": "sandwiches", "title": "Sandwiches"}], "rating": 4.5, "coordinates": {"latitude": 37.96755, "longitude": -122.34468}, "transactions": [], "price": "$", "location": {"address1": "2250 Broadway Ave", "address2": "", "address3": "", "city": "San Pablo", "zip_code": "94806", "country": "US", "state": "CA", "display_address": ["2250 Broadway Ave", "San Pablo, CA 94806"]}, "phone": "+15102321578", "display_phone": "(510) 232-1578", "distance": 451.31183750540794}, {"id": "ejIC5oMnHt8hu1TcsZYwHA", "alias": "bismillah-restaurant-san-pablo", "name": "Bismillah Restaurant", "image_url": "https://s3-media3.fl.yelpcdn.com/bphoto/GRZwyxUy-Uh2piiPixPpeQ/o.jpg", "is_closed": false, "url": "https://www.yelp.com/biz/bismillah-restaurant-san-pablo?adjust_creative=gJ2vrem5KxinHaV7_d8wAA&utm_campaign=yelp_api_v3&utm_medium=api_v3_business_search&utm_source=gJ2vrem5KxinHaV7_d8wAA", "review_count": 256, "categories": [{"alias": "indpak", "title": "Indian"}, {"alias": "pakistani", "title": "Pakistani"}], "rating": 4.0, "coordinates": {"latitude": 37.9544104, "longitude": -122.3327382}, "transactions": ["pickup", "delivery"], "price": "$$", "location": {"address1": "102 San Pablo Town Ctr", "address2": "", "address3": "", "city": "San Pablo", "zip_code": "94806", "country": "US", "state": "CA", "display_address": ["102 San Pablo Town Ctr", "San Pablo, CA 94806"]}, "phone": "+15102370704", "display_phone": "(510) 237-0704", "distance": 1527.0107299109202}, {"id": "5Vyd_YbcI4XGz-RUgQ9zDA", "alias": "mariscos-la-playita-san-pablo", "name": "Mariscos La Playita", "image_url": "https://s3-media3.fl.yelpcdn.com/bphoto/IWInbn0oIh8Qs-6f6E8JNg/o.jpg", "is_closed": false, "url": "https://www.yelp.com/biz/mariscos-la-playita-san-pablo?adjust_creative=gJ2vrem5KxinHaV7_d8wAA&utm_campaign=yelp_api_v3&utm_medium=api_v3_business_search&utm_source=gJ2vrem5KxinHaV7_d8wAA", "review_count": 106, "categories": [{"alias": "seafood", "title": "Seafood"}, {"alias": "mexican", "title": "Mexican"}], "rating": 3.0, "coordinates": {"latitude": 37.9606749, "longitude": -122.3462252}, "transactions": [], "price": "$$", "location": {"address1": "2037 23rd St", "address2": "", "address3": "", "city": "San Pablo", "zip_code": "94806", "country": "US", "state": "CA", "display_address": ["2037 23rd St", "San Pablo, CA 94806"]}, "phone": "+15102159065", "display_phone": "(510) 215-9065", "distance": 961.0888535505178}, {"id": "TnMPcwrB8rVSbIiMZ47tlw", "alias": "empire-buffet-san-pablo", "name": "Empire Buffet", "image_url": "https://s3-media2.fl.yelpcdn.com/bphoto/em4-sjj7xrLuTo2XW1fc8A/o.jpg", "is_closed": false, "url": "https://www.yelp.com/biz/empire-buffet-san-pablo?adjust_creative=gJ2vrem5KxinHaV7_d8wAA&utm_campaign=yelp_api_v3&utm_medium=api_v3_business_search&utm_source=gJ2vrem5KxinHaV7_d8wAA", "review_count": 165, "categories": [{"alias": "chinese", "title": "Chinese"}, {"alias": "buffets", "title": "Buffets"}], "rating": 2.5, "coordinates": {"latitude": 37.95608, "longitude": -122.33222}, "transactions": [], "price": "$$", "location": {"address1": "700 San Pablo Towne Ctr", "address2": "Ste 700", "address3": "", "city": "San Pablo", "zip_code": "94806", "country": "US", "state": "CA", "display_address": ["700 San Pablo Towne Ctr", "Ste 700", "San Pablo, CA 94806"]}, "phone": "+15109651788", "display_phone": "(510) 965-1788", "distance": 1449.958705683727}, {"id": "f0guj6uGYu0R9rMwfVTB7Q", "alias": "susys-bakery-and-deli-san-pablo", "name": "Susy's Bakery and Deli", "image_url": "https://s3-media1.fl.yelpcdn.com/bphoto/rZM0u9giqWQjGY3ePEFwsQ/o.jpg", "is_closed": false, "url": "https://www.yelp.com/biz/susys-bakery-and-deli-san-pablo?adjust_creative=gJ2vrem5KxinHaV7_d8wAA&utm_campaign=yelp_api_v3&utm_medium=api_v3_business_search&utm_source=gJ2vrem5KxinHaV7_d8wAA", "review_count": 42, "categories": [{"alias": "bakeries", "title": "Bakeries"}, {"alias": "salvadoran", "title": "Salvadoran"}], "rating": 3.5, "coordinates": {"latitude": 37.96792, "longitude": -122.343881}, "transactions": [], "price": "$", "location": {"address1": "14520 San Pablo Ave", "address2": "", "address3": "", "city": "San Pablo", "zip_code": "94806", "country": "US", "state": "CA", "display_address": ["14520 San Pablo Ave", "San Pablo, CA 94806"]}, "phone": "+15102350684", "display_phone": "(510) 235-0684", "distance": 390.8256551963219}, {"id": "JDXa1hMRxvw2w8Ou-GiqMA", "alias": "las-monta\u00f1as-supermarket-san-pablo-2", "name": "Las Monta\u00f1as Supermarket", "image_url": "https://s3-media3.fl.yelpcdn.com/bphoto/Pj2vs6T3bIQ5OuN_ojbFRQ/o.jpg", "is_closed": false, "url": "https://www.yelp.com/biz/las-monta%C3%B1as-supermarket-san-pablo-2?adjust_creative=gJ2vrem5KxinHaV7_d8wAA&utm_campaign=yelp_api_v3&utm_medium=api_v3_business_search&utm_source=gJ2vrem5KxinHaV7_d8wAA", "review_count": 190, "categories": [{"alias": "grocery", "title": "Grocery"}, {"alias": "mexican", "title": "Mexican"}], "rating": 3.5, "coordinates": {"latitude": 37.95966, "longitude": -122.34198}, "transactions": [], "price": "$", "location": {"address1": "13901 San Pablo Ave", "address2": "", "address3": "", "city": "San Pablo", "zip_code": "94806", "country": "US", "state": "CA", "display_address": ["13901 San Pablo Ave", "San Pablo, CA 94806"]}, "phone": "+15102363397", "display_phone": "(510) 236-3397", "distance": 930.0398987331431}, {"id": "iV8rJh_3qXoi8wSjwe9_6Q", "alias": "tortas-y-taqueria-los-picudos-san-pablo", "name": "Tortas Y Taqueria Los Picudos", "image_url": "https://s3-media1.fl.yelpcdn.com/bphoto/E4i4NVR2rkx2XPpyQlWhKw/o.jpg", "is_closed": false, "url": "https://www.yelp.com/biz/tortas-y-taqueria-los-picudos-san-pablo?adjust_creative=gJ2vrem5KxinHaV7_d8wAA&utm_campaign=yelp_api_v3&utm_medium=api_v3_business_search&utm_source=gJ2vrem5KxinHaV7_d8wAA", "review_count": 114, "categories": [{"alias": "mexican", "title": "Mexican"}], "rating": 3.5, "coordinates": {"latitude": 37.95951, "longitude": -122.34051}, "transactions": [], "price": "$", "location": {"address1": "13830 San Pablo Ave", "address2": "Ste I", "address3": "", "city": "San Pablo", "zip_code": "94806", "country": "US", "state": "CA", "display_address": ["13830 San Pablo Ave", "Ste I", "San Pablo, CA 94806"]}, "phone": "+15102361004", "display_phone": "(510) 236-1004", "distance": 878.1670170686746}, {"id": "K050XzQ9KXOyszSMkp6mBw", "alias": "palacio-latino-restaurant-and-bakery-san-pablo", "name": "Palacio Latino Restaurant & Bakery", "image_url": "https://s3-media3.fl.yelpcdn.com/bphoto/KKYqi4m_FnKKG6FPFkDscg/o.jpg", "is_closed": false, "url": "https://www.yelp.com/biz/palacio-latino-restaurant-and-bakery-san-pablo?adjust_creative=gJ2vrem5KxinHaV7_d8wAA&utm_campaign=yelp_api_v3&utm_medium=api_v3_business_search&utm_source=gJ2vrem5KxinHaV7_d8wAA", "review_count": 4, "categories": [{"alias": "latin", "title": "Latin American"}, {"alias": "bakeries", "title": "Bakeries"}], "rating": 5.0, "coordinates": {"latitude": 37.95815, "longitude": -122.34746}, "transactions": [], "location": {"address1": "1873 23rd St", "address2": "", "address3": null, "city": "San Pablo", "zip_code": "94806", "country": "US", "state": "CA", "display_address": ["1873 23rd St", "San Pablo, CA 94806"]}, "phone": "+15107788803", "display_phone": "(510) 778-8803", "distance": 1246.497580568451}, {"id": "gfDp3kFr23g_ytCp6HiihQ", "alias": "el-sitio-restaurant-san-pablo", "name": "El Sitio Restaurant", "image_url": "https://s3-media1.fl.yelpcdn.com/bphoto/5Gh9HSsXXvKHH-Gl1ppbmA/o.jpg", "is_closed": false, "url": "https://www.yelp.com/biz/el-sitio-restaurant-san-pablo?adjust_creative=gJ2vrem5KxinHaV7_d8wAA&utm_campaign=yelp_api_v3&utm_medium=api_v3_business_search&utm_source=gJ2vrem5KxinHaV7_d8wAA", "review_count": 63, "categories": [{"alias": "salvadoran", "title": "Salvadoran"}, {"alias": "mexican", "title": "Mexican"}], "rating": 4.0, "coordinates": {"latitude": 37.9572448730469, "longitude": -122.347724914551}, "transactions": [], "price": "$", "location": {"address1": "1811 23rd St", "address2": "Ste C", "address3": "", "city": "San Pablo", "zip_code": "94806", "country": "US", "state": "CA", "display_address": ["1811 23rd St", "Ste C", "San Pablo, CA 94806"]}, "phone": "+15102337072", "display_phone": "(510) 233-7072", "distance": 1332.3298075582402}, {"id": "uakPsOlFT712jEq32wDe4g", "alias": "birria-de-res-estilo-tijuana-el-colorado-richmond", "name": "Birria de Res Estilo Tijuana \"El Colorado\"", "image_url": "https://s3-media2.fl.yelpcdn.com/bphoto/EWf1N-Pmos7UYGFfToFNeg/o.jpg", "is_closed": false, "url": "https://www.yelp.com/biz/birria-de-res-estilo-tijuana-el-colorado-richmond?adjust_creative=gJ2vrem5KxinHaV7_d8wAA&utm_campaign=yelp_api_v3&utm_medium=api_v3_business_search&utm_source=gJ2vrem5KxinHaV7_d8wAA", "review_count": 1, "categories": [{"alias": "mexican", "title": "Mexican"}, {"alias": "foodstands", "title": "Food Stands"}, {"alias": "catering", "title": "Caterers"}], "rating": 5.0, "coordinates": {"latitude": 37.9578703120849, "longitude": -122.345855534077}, "transactions": [], "location": {"address1": "", "address2": "", "address3": null, "city": "Richmond", "zip_code": "", "country": "US", "state": "CA", "display_address": ["Richmond, CA"]}, "phone": "+15103756489", "display_phone": "(510) 375-6489", "distance": 1206.3132445227254}, {"id": "1UzHPGDa8DvymM-jmgK_JA", "alias": "jersey-mikes-subs-san-pablo-3", "name": "Jersey Mike's Subs", "image_url": "https://s3-media3.fl.yelpcdn.com/bphoto/AwDb-QBA_Q1LtiGIPCuGzQ/o.jpg", "is_closed": false, "url": "https://www.yelp.com/biz/jersey-mikes-subs-san-pablo-3?adjust_creative=gJ2vrem5KxinHaV7_d8wAA&utm_campaign=yelp_api_v3&utm_medium=api_v3_business_search&utm_source=gJ2vrem5KxinHaV7_d8wAA", "review_count": 72, "categories": [{"alias": "hotdogs", "title": "Fast Food"}, {"alias": "delis", "title": "Delis"}, {"alias": "sandwiches", "title": "Sandwiches"}], "rating": 4.0, "coordinates": {"latitude": 37.95431223127, "longitude": -122.331816997983}, "transactions": ["pickup", "delivery"], "price": "$$", "location": {"address1": "30 D San Pablo Towne Ctr", "address2": null, "address3": null, "city": "San Pablo", "zip_code": "94806", "country": "US", "state": "CA", "display_address": ["30 D San Pablo Towne Ctr", "San Pablo, CA 94806"]}, "phone": "+15103075788", "display_phone": "(510) 307-5788", "distance": 1609.6942075679658}, {"id": "OmS2zYV6toX7lTaqsKPqhg", "alias": "united-paleteria-y-neveria-san-pablo", "name": "United Paleteria Y Neveria", "image_url": "https://s3-media2.fl.yelpcdn.com/bphoto/q-k_2OHliF0jxcoV6TYjNA/o.jpg", "is_closed": false, "url": "https://www.yelp.com/biz/united-paleteria-y-neveria-san-pablo?adjust_creative=gJ2vrem5KxinHaV7_d8wAA&utm_campaign=yelp_api_v3&utm_medium=api_v3_business_search&utm_source=gJ2vrem5KxinHaV7_d8wAA", "review_count": 38, "categories": [{"alias": "icecream", "title": "Ice Cream & Frozen Yogurt"}, {"alias": "mexican", "title": "Mexican"}], "rating": 3.0, "coordinates": {"latitude": 37.966495, "longitude": -122.344841}, "transactions": [], "price": "$", "location": {"address1": "14417 San Pablo", "address2": null, "address3": "", "city": "San Pablo", "zip_code": "94806", "country": "US", "state": "CA", "display_address": ["14417 San Pablo", "San Pablo, CA 94806"]}, "phone": "+15102323202", "display_phone": "(510) 232-3202", "distance": 486.9604523943143}, {"id": "ZVMtLGM2wc8J6Hv44-ytOA", "alias": "el-tazumal-san-pablo", "name": "El Tazumal", "image_url": "https://s3-media2.fl.yelpcdn.com/bphoto/9h2x_6szYn34huQQFLpPbw/o.jpg", "is_closed": false, "url": "https://www.yelp.com/biz/el-tazumal-san-pablo?adjust_creative=gJ2vrem5KxinHaV7_d8wAA&utm_campaign=yelp_api_v3&utm_medium=api_v3_business_search&utm_source=gJ2vrem5KxinHaV7_d8wAA", "review_count": 116, "categories": [{"alias": "salvadoran", "title": "Salvadoran"}, {"alias": "mexican", "title": "Mexican"}], "rating": 3.0, "coordinates": {"latitude": 37.96924, "longitude": -122.34429}, "transactions": [], "price": "$", "location": {"address1": "14621 San Pablo Ave", "address2": "", "address3": "", "city": "San Pablo", "zip_code": "94806", "country": "US", "state": "CA", "display_address": ["14621 San Pablo Ave", "San Pablo, CA 94806"]}, "phone": "+15102157593", "display_phone": "(510) 215-7593", "distance": 470.30753062541}, {"id": "SgM5SsaVHmnqe5kE7KHptg", "alias": "la-cascadita-san-pablo-2", "name": "La Cascadita", "image_url": "https://s3-media1.fl.yelpcdn.com/bphoto/kbcfQ9F69WVtZOcQgCPXNw/o.jpg", "is_closed": false, "url": "https://www.yelp.com/biz/la-cascadita-san-pablo-2?adjust_creative=gJ2vrem5KxinHaV7_d8wAA&utm_campaign=yelp_api_v3&utm_medium=api_v3_business_search&utm_source=gJ2vrem5KxinHaV7_d8wAA", "review_count": 45, "categories": [{"alias": "mexican", "title": "Mexican"}, {"alias": "salvadoran", "title": "Salvadoran"}], "rating": 3.5, "coordinates": {"latitude": 37.967634594716, "longitude": -122.343878746033}, "transactions": [], "price": "$$", "location": {"address1": "14520 San Pablo Ave", "address2": "", "address3": "", "city": "San Pablo", "zip_code": "94806", "country": "US", "state": "CA", "display_address": ["14520 San Pablo Ave", "San Pablo, CA 94806"]}, "phone": "+15102351347", "display_phone": "(510) 235-1347", "distance": 387.8927733386}, {"id": "2wGSAsBpvDfMQgFDD4YMRQ", "alias": "yome-garden-buffet-richmond", "name": "Yome Garden Buffet", "image_url": "https://s3-media3.fl.yelpcdn.com/bphoto/xts8wvzAYdArDkP2Q7AXdg/o.jpg", "is_closed": false, "url": "https://www.yelp.com/biz/yome-garden-buffet-richmond?adjust_creative=gJ2vrem5KxinHaV7_d8wAA&utm_campaign=yelp_api_v3&utm_medium=api_v3_business_search&utm_source=gJ2vrem5KxinHaV7_d8wAA", "review_count": 86, "categories": [{"alias": "japanese", "title": "Japanese"}, {"alias": "buffets", "title": "Buffets"}, {"alias": "chinese", "title": "Chinese"}], "rating": 2.0, "coordinates": {"latitude": 37.9776458740234, "longitude": -122.330154418945}, "transactions": ["pickup", "delivery"], "price": "$$", "location": {"address1": "2960 Hilltop Mall Rd", "address2": "", "address3": "", "city": "Richmond", "zip_code": "94806", "country": "US", "state": "CA", "display_address": ["2960 Hilltop Mall Rd", "Richmond, CA 94806"]}, "phone": "+15106690163", "display_phone": "(510) 669-0163", "distance": 1408.226589838498}, {"id": "kCPbec4IXPskZzVaSv-SWg", "alias": "lees-garden-san-pablo-2", "name": "Lee's Garden", "image_url": "https://s3-media2.fl.yelpcdn.com/bphoto/5sHWZvJ_-H73DglznJst6Q/o.jpg", "is_closed": false, "url": "https://www.yelp.com/biz/lees-garden-san-pablo-2?adjust_creative=gJ2vrem5KxinHaV7_d8wAA&utm_campaign=yelp_api_v3&utm_medium=api_v3_business_search&utm_source=gJ2vrem5KxinHaV7_d8wAA", "review_count": 79, "categories": [{"alias": "chinese", "title": "Chinese"}], "rating": 2.0, "coordinates": {"latitude": 37.9660453796387, "longitude": -122.343246459961}, "transactions": [], "price": "$", "location": {"address1": "2300 El Portal Dr", "address2": "", "address3": "", "city": "San Pablo", "zip_code": "94806", "country": "US", "state": "CA", "display_address": ["2300 El Portal Dr", "San Pablo, CA 94806"]}, "phone": "+15102155689", "display_phone": "(510) 215-5689", "distance": 362.34665358696174}, {"id": "EfZO4ky4p8KLlPSHAtskhA", "alias": "el-burrito-loco-richmond", "name": "El Burrito Loco", "image_url": "https://s3-media3.fl.yelpcdn.com/bphoto/QxWWEFaAOSjsTe0BY7_FRA/o.jpg", "is_closed": false, "url": "https://www.yelp.com/biz/el-burrito-loco-richmond?adjust_creative=gJ2vrem5KxinHaV7_d8wAA&utm_campaign=yelp_api_v3&utm_medium=api_v3_business_search&utm_source=gJ2vrem5KxinHaV7_d8wAA", "review_count": 31, "categories": [{"alias": "mexican", "title": "Mexican"}], "rating": 4.0, "coordinates": {"latitude": 37.97848, "longitude": -122.3321}, "transactions": ["delivery"], "price": "$", "location": {"address1": "2900 Hilltop Mall Rd", "address2": "", "address3": "", "city": "Richmond", "zip_code": "94806", "country": "US", "state": "CA", "display_address": ["2900 Hilltop Mall Rd", "Richmond, CA 94806"]}, "phone": "+15102224050", "display_phone": "(510) 222-4050", "distance": 1411.0631185976108}, {"id": "hVLz6vyHDdm6gwsXqtDJAQ", "alias": "tacos-picantes-san-pablo", "name": "Tacos Picantes", "image_url": "https://s3-media2.fl.yelpcdn.com/bphoto/Qg11QStDe4d4ew5RngWRxw/o.jpg", "is_closed": false, "url": "https://www.yelp.com/biz/tacos-picantes-san-pablo?adjust_creative=gJ2vrem5KxinHaV7_d8wAA&utm_campaign=yelp_api_v3&utm_medium=api_v3_business_search&utm_source=gJ2vrem5KxinHaV7_d8wAA", "review_count": 5, "categories": [{"alias": "foodtrucks", "title": "Food Trucks"}, {"alias": "mexican", "title": "Mexican"}], "rating": 5.0, "coordinates": {"latitude": 37.9549867, "longitude": -122.3473288}, "transactions": [], "location": {"address1": "1440 23rd St", "address2": "", "address3": null, "city": "San Pablo", "zip_code": "94806", "country": "US", "state": "CA", "display_address": ["1440 23rd St", "San Pablo, CA 94806"]}, "phone": "+15105862678", "display_phone": "(510) 586-2678", "distance": 1550.6383838315637}, {"id": "7hoR85ZbJVRQ98Q14OlQZQ", "alias": "cosa-nostra-pasta-truck-berkeley", "name": "Cosa Nostra Pasta Truck", "image_url": "https://s3-media1.fl.yelpcdn.com/bphoto/kJNRKi9NzgsPf3KmTr_fAg/o.jpg", "is_closed": false, "url": "https://www.yelp.com/biz/cosa-nostra-pasta-truck-berkeley?adjust_creative=gJ2vrem5KxinHaV7_d8wAA&utm_campaign=yelp_api_v3&utm_medium=api_v3_business_search&utm_source=gJ2vrem5KxinHaV7_d8wAA", "review_count": 31, "categories": [{"alias": "foodtrucks", "title": "Food Trucks"}, {"alias": "italian", "title": "Italian"}], "rating": 5.0, "coordinates": {"latitude": 37.8760173212886, "longitude": -122.303487025201}, "transactions": [], "price": "$$", "location": {"address1": "701 Page St", "address2": null, "address3": null, "city": "Berkeley", "zip_code": "94710", "country": "US", "state": "CA", "display_address": ["701 Page St", "Berkeley, CA 94710"]}, "phone": "+15102448782", "display_phone": "(510) 244-8782", "distance": 10647.891972802008}, {"id": "gEs03A4Nc8K2jqnsUJy4TQ", "alias": "china-express-restaurant-san-pablo", "name": "China Express Restaurant", "image_url": "https://s3-media3.fl.yelpcdn.com/bphoto/XtVNYk-AyLJ-1NiG95ceng/o.jpg", "is_closed": false, "url": "https://www.yelp.com/biz/china-express-restaurant-san-pablo?adjust_creative=gJ2vrem5KxinHaV7_d8wAA&utm_campaign=yelp_api_v3&utm_medium=api_v3_business_search&utm_source=gJ2vrem5KxinHaV7_d8wAA", "review_count": 99, "categories": [{"alias": "chinese", "title": "Chinese"}], "rating": 3.5, "coordinates": {"latitude": 37.95777, "longitude": -122.34753}, "transactions": [], "price": "$", "location": {"address1": "1841 23rd St", "address2": "", "address3": "", "city": "San Pablo", "zip_code": "94806", "country": "US", "state": "CA", "display_address": ["1841 23rd St", "San Pablo, CA 94806"]}, "phone": "+15102354669", "display_phone": "(510) 235-4669", "distance": 1287.7483265810185}, {"id": "HdmI3sHsuHYrLlxNE-mx-Q", "alias": "centro-latino-cuzcatlan-san-pablo", "name": "Centro Latino Cuzcatlan", "image_url": "", "is_closed": false, "url": "https://www.yelp.com/biz/centro-latino-cuzcatlan-san-pablo?adjust_creative=gJ2vrem5KxinHaV7_d8wAA&utm_campaign=yelp_api_v3&utm_medium=api_v3_business_search&utm_source=gJ2vrem5KxinHaV7_d8wAA", "review_count": 1, "categories": [{"alias": "latin", "title": "Latin American"}], "rating": 5.0, "coordinates": {"latitude": 37.9585917, "longitude": -122.3397523}, "transactions": [], "price": "$$$", "location": {"address1": "13752 San Pablo Ave", "address2": "", "address3": null, "city": "San Pablo", "zip_code": "94806", "country": "US", "state": "CA", "display_address": ["13752 San Pablo Ave", "San Pablo, CA 94806"]}, "phone": "+15102341046", "display_phone": "(510) 234-1046", "distance": 958.5008744517766}, {"id": "7tjB0nGqdBuikQwC3PUbOg", "alias": "cadenas-deli-richmond-2", "name": "Cadenas Deli", "image_url": "https://s3-media2.fl.yelpcdn.com/bphoto/5t4kIWQAIEmDkn_iw9J2-A/o.jpg", "is_closed": false, "url": "https://www.yelp.com/biz/cadenas-deli-richmond-2?adjust_creative=gJ2vrem5KxinHaV7_d8wAA&utm_campaign=yelp_api_v3&utm_medium=api_v3_business_search&utm_source=gJ2vrem5KxinHaV7_d8wAA", "review_count": 4, "categories": [{"alias": "delis", "title": "Delis"}], "rating": 4.5, "coordinates": {"latitude": 37.978143, "longitude": -122.3306233}, "transactions": [], "location": {"address1": "2946 Hilltop Mall Rd", "address2": "", "address3": null, "city": "Richmond", "zip_code": "94806", "country": "US", "state": "CA", "display_address": ["2946 Hilltop Mall Rd", "Richmond, CA 94806"]}, "phone": "+15102435721", "display_phone": "(510) 243-5721", "distance": 1416.6227029820923}, {"id": "BgjJH-eMU9w0BB7N4oSRIw", "alias": "little-caesar-pizza-san-pablo", "name": "Little Caesar Pizza", "image_url": "https://s3-media3.fl.yelpcdn.com/bphoto/-CutC3uLlQuJtrxpgNOW2w/o.jpg", "is_closed": false, "url": "https://www.yelp.com/biz/little-caesar-pizza-san-pablo?adjust_creative=gJ2vrem5KxinHaV7_d8wAA&utm_campaign=yelp_api_v3&utm_medium=api_v3_business_search&utm_source=gJ2vrem5KxinHaV7_d8wAA", "review_count": 17, "categories": [{"alias": "pizza", "title": "Pizza"}], "rating": 2.0, "coordinates": {"latitude": 37.961323, "longitude": -122.346767}, "transactions": [], "price": "$", "location": {"address1": "2071 23rd St", "address2": "", "address3": null, "city": "San Pablo", "zip_code": "94806", "country": "US", "state": "CA", "display_address": ["2071 23rd St", "San Pablo, CA 94806"]}, "phone": "+15102377499", "display_phone": "(510) 237-7499", "distance": 940.4604460299048}, {"id": "dwPNDISvXQiZtWWpqCiBBg", "alias": "americana-pizza-and-taqueria-san-pablo", "name": "Americana Pizza & Taqueria", "image_url": "https://s3-media4.fl.yelpcdn.com/bphoto/vUoYJ3yVdYBV4PlLxtvQbw/o.jpg", "is_closed": false, "url": "https://www.yelp.com/biz/americana-pizza-and-taqueria-san-pablo?adjust_creative=gJ2vrem5KxinHaV7_d8wAA&utm_campaign=yelp_api_v3&utm_medium=api_v3_business_search&utm_source=gJ2vrem5KxinHaV7_d8wAA", "review_count": 255, "categories": [{"alias": "pizza", "title": "Pizza"}, {"alias": "mexican", "title": "Mexican"}, {"alias": "italian", "title": "Italian"}], "rating": 2.5, "coordinates": {"latitude": 37.95485, "longitude": -122.33411}, "transactions": ["pickup", "delivery"], "price": "$$", "location": {"address1": "13350 San Pablo Ave", "address2": "", "address3": "", "city": "San Pablo", "zip_code": "94806", "country": "US", "state": "CA", "display_address": ["13350 San Pablo Ave", "San Pablo, CA 94806"]}, "phone": "+15104122104", "display_phone": "(510) 412-2104", "distance": 1492.3728388162924}, {"id": "NcmgvXbpGxcNyTpWy2nVVg", "alias": "la-chona-restaurant-san-pablo", "name": "La Chona Restaurant", "image_url": "https://s3-media2.fl.yelpcdn.com/bphoto/lA3z7q9r9R1427zfOwKjUA/o.jpg", "is_closed": false, "url": "https://www.yelp.com/biz/la-chona-restaurant-san-pablo?adjust_creative=gJ2vrem5KxinHaV7_d8wAA&utm_campaign=yelp_api_v3&utm_medium=api_v3_business_search&utm_source=gJ2vrem5KxinHaV7_d8wAA", "review_count": 44, "categories": [{"alias": "mexican", "title": "Mexican"}], "rating": 3.0, "coordinates": {"latitude": 37.9576913449517, "longitude": -122.347075939178}, "transactions": ["pickup", "delivery"], "price": "$", "location": {"address1": "1848 23rd St", "address2": "", "address3": "", "city": "San Pablo", "zip_code": "94806", "country": "US", "state": "CA", "display_address": ["1848 23rd St", "San Pablo, CA 94806"]}, "phone": "+15102334655", "display_phone": "(510) 233-4655", "distance": 1276.5366679193612}, {"id": "8-Bn97zQQvow3X30ECENww", "alias": "pizza-hut-san-pablo", "name": "Pizza Hut", "image_url": "https://s3-media2.fl.yelpcdn.com/bphoto/09JlSLTb97tjoc-AT9LloQ/o.jpg", "is_closed": false, "url": "https://www.yelp.com/biz/pizza-hut-san-pablo?adjust_creative=gJ2vrem5KxinHaV7_d8wAA&utm_campaign=yelp_api_v3&utm_medium=api_v3_business_search&utm_source=gJ2vrem5KxinHaV7_d8wAA", "review_count": 89, "categories": [{"alias": "pizza", "title": "Pizza"}, {"alias": "italian", "title": "Italian"}, {"alias": "chicken_wings", "title": "Chicken Wings"}], "rating": 1.5, "coordinates": {"latitude": 37.9680469292535, "longitude": -122.344238162041}, "transactions": [], "price": "$", "location": {"address1": "14501 San Pablo Ave", "address2": "", "address3": "", "city": "San Pablo", "zip_code": "94806", "country": "US", "state": "CA", "display_address": ["14501 San Pablo Ave", "San Pablo, CA 94806"]}, "phone": "+15102332700", "display_phone": "(510) 233-2700", "distance": 423.78758753226066}, {"id": "_2ayx8blo7bIUaW9GW0zpg", "alias": "restaurant-velasquez-san-pablo-2", "name": "Restaurant Velasquez", "image_url": "https://s3-media2.fl.yelpcdn.com/bphoto/HCTpnycz9djLyKDincC0eg/o.jpg", "is_closed": false, "url": "https://www.yelp.com/biz/restaurant-velasquez-san-pablo-2?adjust_creative=gJ2vrem5KxinHaV7_d8wAA&utm_campaign=yelp_api_v3&utm_medium=api_v3_business_search&utm_source=gJ2vrem5KxinHaV7_d8wAA", "review_count": 10, "categories": [{"alias": "mexican", "title": "Mexican"}], "rating": 3.0, "coordinates": {"latitude": 37.966475, "longitude": -122.344893}, "transactions": [], "location": {"address1": "14401 San Pablo Ave", "address2": "", "address3": "", "city": "San Pablo", "zip_code": "94806", "country": "US", "state": "CA", "display_address": ["14401 San Pablo Ave", "San Pablo, CA 94806"]}, "phone": "+15106805652", "display_phone": "(510) 680-5652", "distance": 489.21546538113654}, {"id": "dcWeCV7MjNvIE4qvF1wvGw", "alias": "dominos-pizza-san-pablo", "name": "Domino's Pizza", "image_url": "https://s3-media3.fl.yelpcdn.com/bphoto/QM-YOVdd1ulH5_x9kxmzmA/o.jpg", "is_closed": false, "url": "https://www.yelp.com/biz/dominos-pizza-san-pablo?adjust_creative=gJ2vrem5KxinHaV7_d8wAA&utm_campaign=yelp_api_v3&utm_medium=api_v3_business_search&utm_source=gJ2vrem5KxinHaV7_d8wAA", "review_count": 55, "categories": [{"alias": "pizza", "title": "Pizza"}, {"alias": "chicken_wings", "title": "Chicken Wings"}, {"alias": "sandwiches", "title": "Sandwiches"}], "rating": 1.5, "coordinates": {"latitude": 37.9651826052926, "longitude": -122.343347}, "transactions": [], "price": "$", "location": {"address1": "14350 Laurie Ln", "address2": "", "address3": null, "city": "San Pablo", "zip_code": "94806", "country": "US", "state": "CA", "display_address": ["14350 Laurie Ln", "San Pablo, CA 94806"]}, "phone": "+15105565100", "display_phone": "(510) 556-5100", "distance": 425.6668638632884}, {"id": "Plz8dVeBoMxLiBVnsW--oA", "alias": "pizza-guys-san-pablo-2", "name": "Pizza Guys", "image_url": "https://s3-media1.fl.yelpcdn.com/bphoto/Ye6kneA5Q7xqqXHN4jkfqA/o.jpg", "is_closed": false, "url": "https://www.yelp.com/biz/pizza-guys-san-pablo-2?adjust_creative=gJ2vrem5KxinHaV7_d8wAA&utm_campaign=yelp_api_v3&utm_medium=api_v3_business_search&utm_source=gJ2vrem5KxinHaV7_d8wAA", "review_count": 105, "categories": [{"alias": "pizza", "title": "Pizza"}, {"alias": "comfortfood", "title": "Comfort Food"}, {"alias": "chicken_wings", "title": "Chicken Wings"}], "rating": 3.0, "coordinates": {"latitude": 37.9561325, "longitude": -122.3325344}, "transactions": ["pickup", "delivery"], "price": "$$", "location": {"address1": "501 A San Pablo Towne Ctr", "address2": "", "address3": "", "city": "San Pablo", "zip_code": "94806", "country": "US", "state": "CA", "display_address": ["501 A San Pablo Towne Ctr", "San Pablo, CA 94806"]}, "phone": "+15102155555", "display_phone": "(510) 215-5555", "distance": 1399.7342516214178}, {"id": "q3ZOtUofqg7e3qAiA9gs9w", "alias": "taqueria-la-estrella-richmond", "name": "Taqueria La Estrella", "image_url": "https://s3-media3.fl.yelpcdn.com/bphoto/uj_8OLGuFKDGF_nOsVRcOw/o.jpg", "is_closed": false, "url": "https://www.yelp.com/biz/taqueria-la-estrella-richmond?adjust_creative=gJ2vrem5KxinHaV7_d8wAA&utm_campaign=yelp_api_v3&utm_medium=api_v3_business_search&utm_source=gJ2vrem5KxinHaV7_d8wAA", "review_count": 117, "categories": [{"alias": "mexican", "title": "Mexican"}, {"alias": "vegetarian", "title": "Vegetarian"}, {"alias": "foodtrucks", "title": "Food Trucks"}], "rating": 4.0, "coordinates": {"latitude": 37.93622, "longitude": -122.34797}, "transactions": [], "price": "$", "location": {"address1": "325 23rd St", "address2": "", "address3": "", "city": "Richmond", "zip_code": "94804", "country": "US", "state": "CA", "display_address": ["325 23rd St", "Richmond, CA 94804"]}, "phone": "+15102326955", "display_phone": "(510) 232-6955", "distance": 3548.974709604645}, {"id": "oFMInwQVKgRZJwk9q6Ev8g", "alias": "kfc-san-pablo", "name": "KFC", "image_url": "https://s3-media2.fl.yelpcdn.com/bphoto/G7fLoUpdxmcfxC0gvgdw5w/o.jpg", "is_closed": false, "url": "https://www.yelp.com/biz/kfc-san-pablo?adjust_creative=gJ2vrem5KxinHaV7_d8wAA&utm_campaign=yelp_api_v3&utm_medium=api_v3_business_search&utm_source=gJ2vrem5KxinHaV7_d8wAA", "review_count": 33, "categories": [{"alias": "hotdogs", "title": "Fast Food"}, {"alias": "chicken_wings", "title": "Chicken Wings"}, {"alias": "chickenshop", "title": "Chicken Shop"}], "rating": 1.5, "coordinates": {"latitude": 37.965785, "longitude": -122.34426}, "transactions": ["pickup", "delivery"], "price": "$", "location": {"address1": "14400 San Pablo Ave", "address2": "", "address3": "", "city": "San Pablo", "zip_code": "94806", "country": "US", "state": "CA", "display_address": ["14400 San Pablo Ave", "San Pablo, CA 94806"]}, "phone": "+15109650906", "display_phone": "(510) 965-0906", "distance": 461.58102992914024}, {"id": "O-7BDZpH_AoMo_-9RR25PA", "alias": "lees-garden-san-pablo", "name": "Lee's Garden", "image_url": "https://s3-media3.fl.yelpcdn.com/bphoto/gw2RPQUlasy2rJIFcsaYng/o.jpg", "is_closed": false, "url": "https://www.yelp.com/biz/lees-garden-san-pablo?adjust_creative=gJ2vrem5KxinHaV7_d8wAA&utm_campaign=yelp_api_v3&utm_medium=api_v3_business_search&utm_source=gJ2vrem5KxinHaV7_d8wAA", "review_count": 72, "categories": [{"alias": "chinese", "title": "Chinese"}], "rating": 3.0, "coordinates": {"latitude": 37.9544324, "longitude": -122.3327804}, "transactions": [], "price": "$", "location": {"address1": "107 San Pablo Town Ctr", "address2": "", "address3": "", "city": "San Pablo", "zip_code": "94806", "country": "US", "state": "CA", "display_address": ["107 San Pablo Town Ctr", "San Pablo, CA 94806"]}, "phone": "+15103074338", "display_phone": "(510) 307-4338", "distance": 1508.944183147272}, {"id": "HXDpqhOjLPoc6l2o8LOArQ", "alias": "finas-pizza-san-pablo", "name": "Fina's Pizza", "image_url": "https://s3-media1.fl.yelpcdn.com/bphoto/inFmvU0zdPvuYiYUULhNKw/o.jpg", "is_closed": false, "url": "https://www.yelp.com/biz/finas-pizza-san-pablo?adjust_creative=gJ2vrem5KxinHaV7_d8wAA&utm_campaign=yelp_api_v3&utm_medium=api_v3_business_search&utm_source=gJ2vrem5KxinHaV7_d8wAA", "review_count": 149, "categories": [{"alias": "pizza", "title": "Pizza"}], "rating": 2.5, "coordinates": {"latitude": 37.9582398683202, "longitude": -122.346875517497}, "transactions": ["pickup", "delivery"], "price": "$", "location": {"address1": "1890 23rd St", "address2": "", "address3": "", "city": "San Pablo", "zip_code": "94806", "country": "US", "state": "CA", "display_address": ["1890 23rd St", "San Pablo, CA 94806"]}, "phone": "+15102358686", "display_phone": "(510) 235-8686", "distance": 1215.4804288414953}, {"id": "rM6pPB_qmQ3de5yGpfLT1g", "alias": "lomo-libre-san-francisco-2", "name": "Lomo Libre", "image_url": "https://s3-media1.fl.yelpcdn.com/bphoto/vjnO-EUjFHKoLMy2_JQYvg/o.jpg", "is_closed": false, "url": "https://www.yelp.com/biz/lomo-libre-san-francisco-2?adjust_creative=gJ2vrem5KxinHaV7_d8wAA&utm_campaign=yelp_api_v3&utm_medium=api_v3_business_search&utm_source=gJ2vrem5KxinHaV7_d8wAA", "review_count": 8, "categories": [{"alias": "foodtrucks", "title": "Food Trucks"}, {"alias": "peruvian", "title": "Peruvian"}], "rating": 5.0, "coordinates": {"latitude": 37.799634, "longitude": -122.436301}, "transactions": [], "location": {"address1": "2101 Lombard St", "address2": "", "address3": null, "city": "San Francisco", "zip_code": "94123", "country": "US", "state": "CA", "display_address": ["2101 Lombard St", "San Francisco, CA 94123"]}, "phone": "+14156198149", "display_phone": "(415) 619-8149", "distance": 20507.013697832605}, {"id": "ul4bv8hJeKc28jPpQ2v8YA", "alias": "subway-san-pablo-3", "name": "Subway", "image_url": "https://s3-media3.fl.yelpcdn.com/bphoto/iaYH2-T_1STWr1-Mb_7AXg/o.jpg", "is_closed": false, "url": "https://www.yelp.com/biz/subway-san-pablo-3?adjust_creative=gJ2vrem5KxinHaV7_d8wAA&utm_campaign=yelp_api_v3&utm_medium=api_v3_business_search&utm_source=gJ2vrem5KxinHaV7_d8wAA", "review_count": 4, "categories": [{"alias": "sandwiches", "title": "Sandwiches"}, {"alias": "hotdogs", "title": "Fast Food"}], "rating": 3.0, "coordinates": {"latitude": 37.96865, "longitude": -122.34044}, "transactions": [], "price": "$", "location": {"address1": "2600 Mission Bell Dr", "address2": "", "address3": "Contra Costa College", "city": "San Pablo", "zip_code": "94806", "country": "US", "state": "CA", "display_address": ["2600 Mission Bell Dr", "Contra Costa College", "San Pablo, CA 94806"]}, "phone": "+15102325600", "display_phone": "(510) 232-5600", "distance": 157.21767842730884}, {"id": "WvDRzwkB6ad6i2LkqM7lEQ", "alias": "hoai-huong-vietnamese-coffee-shop-san-pablo", "name": "Hoai Huong Vietnamese Coffee Shop", "image_url": "", "is_closed": false, "url": "https://www.yelp.com/biz/hoai-huong-vietnamese-coffee-shop-san-pablo?adjust_creative=gJ2vrem5KxinHaV7_d8wAA&utm_campaign=yelp_api_v3&utm_medium=api_v3_business_search&utm_source=gJ2vrem5KxinHaV7_d8wAA", "review_count": 2, "categories": [{"alias": "restaurants", "title": "Restaurants"}, {"alias": "coffee", "title": "Coffee & Tea"}], "rating": 3.0, "coordinates": {"latitude": 37.96636, "longitude": -122.34488}, "transactions": [], "location": {"address1": "14409 San Pablo Ave", "address2": "", "address3": "", "city": "San Pablo", "zip_code": "94806", "country": "US", "state": "CA", "display_address": ["14409 San Pablo Ave", "San Pablo, CA 94806"]}, "phone": "+15106200837", "display_phone": "(510) 620-0837", "distance": 483.79808867726166}, {"id": "D_DrRkMf3zpArlQpGJh5gQ", "alias": "mcdonalds-san-pablo", "name": "McDonald's", "image_url": "https://s3-media2.fl.yelpcdn.com/bphoto/425WoHiXYs6HhYFDRqUtmA/o.jpg", "is_closed": false, "url": "https://www.yelp.com/biz/mcdonalds-san-pablo?adjust_creative=gJ2vrem5KxinHaV7_d8wAA&utm_campaign=yelp_api_v3&utm_medium=api_v3_business_search&utm_source=gJ2vrem5KxinHaV7_d8wAA", "review_count": 75, "categories": [{"alias": "burgers", "title": "Burgers"}, {"alias": "hotdogs", "title": "Fast Food"}, {"alias": "coffee", "title": "Coffee & Tea"}], "rating": 2.0, "coordinates": {"latitude": 37.9669135323482, "longitude": -122.34388679266}, "transactions": [], "price": "$", "location": {"address1": "14480 San Pablo Ave", "address2": "", "address3": "", "city": "San Pablo", "zip_code": "94806", "country": "US", "state": "CA", "display_address": ["14480 San Pablo Ave", "San Pablo, CA 94806"]}, "phone": "+15102157478", "display_phone": "(510) 215-7478", "distance": 393.1893512668352}, {"id": "uNAWxsbC170LdGB0ILcCaw", "alias": "dennys-san-pablo-2", "name": "Denny's", "image_url": "https://s3-media2.fl.yelpcdn.com/bphoto/s8npNlNhfxnyFRUG62is-g/o.jpg", "is_closed": false, "url": "https://www.yelp.com/biz/dennys-san-pablo-2?adjust_creative=gJ2vrem5KxinHaV7_d8wAA&utm_campaign=yelp_api_v3&utm_medium=api_v3_business_search&utm_source=gJ2vrem5KxinHaV7_d8wAA", "review_count": 149, "categories": [{"alias": "diners", "title": "Diners"}, {"alias": "tradamerican", "title": "American (Traditional)"}, {"alias": "breakfast_brunch", "title": "Breakfast & Brunch"}], "rating": 2.0, "coordinates": {"latitude": 37.9551529, "longitude": -122.3301974684}, "transactions": [], "price": "$", "location": {"address1": "2526 San Pablo", "address2": "", "address3": "", "city": "San Pablo", "zip_code": "94806", "country": "US", "state": "CA", "display_address": ["2526 San Pablo", "San Pablo, CA 94806"]}, "phone": "+15102326813", "display_phone": "(510) 232-6813", "distance": 1592.6706161366953}, {"id": "psBF4SpI6jRLZOW5RWv3_Q", "alias": "phinthong-restaurant-san-pablo", "name": "PhinThong Restaurant", "image_url": "https://s3-media4.fl.yelpcdn.com/bphoto/Mh_LSoP2RjxEHIeecL65-A/o.jpg", "is_closed": false, "url": "https://www.yelp.com/biz/phinthong-restaurant-san-pablo?adjust_creative=gJ2vrem5KxinHaV7_d8wAA&utm_campaign=yelp_api_v3&utm_medium=api_v3_business_search&utm_source=gJ2vrem5KxinHaV7_d8wAA", "review_count": 8, "categories": [{"alias": "thai", "title": "Thai"}], "rating": 2.5, "coordinates": {"latitude": 37.955455, "longitude": -122.336334}, "transactions": [], "price": "$$", "location": {"address1": "13501 San Pablo Ave", "address2": "Ste B", "address3": "", "city": "San Pablo", "zip_code": "94806", "country": "US", "state": "CA", "display_address": ["13501 San Pablo Ave", "Ste B", "San Pablo, CA 94806"]}, "phone": "+15102322258", "display_phone": "(510) 232-2258", "distance": 1353.0754754734442}, {"id": "EsRKWoHQlh8dqbbeBowEkA", "alias": "subway-restaurants-san-pablo", "name": "Subway Restaurants", "image_url": "https://s3-media1.fl.yelpcdn.com/bphoto/3myqBMNhs9T2Wwm2-Tl5MQ/o.jpg", "is_closed": false, "url": "https://www.yelp.com/biz/subway-restaurants-san-pablo?adjust_creative=gJ2vrem5KxinHaV7_d8wAA&utm_campaign=yelp_api_v3&utm_medium=api_v3_business_search&utm_source=gJ2vrem5KxinHaV7_d8wAA", "review_count": 7, "categories": [{"alias": "sandwiches", "title": "Sandwiches"}], "rating": 2.5, "coordinates": {"latitude": 37.9610834513018, "longitude": -122.344393730164}, "transactions": [], "price": "$", "location": {"address1": "14350 Laurie Lane", "address2": "Suite H", "address3": "", "city": "San Pablo", "zip_code": "94806", "country": "US", "state": "CA", "display_address": ["14350 Laurie Lane", "Suite H", "San Pablo, CA 94806"]}, "phone": "+15102320002", "display_phone": "(510) 232-0002", "distance": 832.0705100696141}, {"id": "PxzM_zNIOy7jdtwT-fbB0w", "alias": "minnie-bells-san-francisco-2", "name": "Minnie Bells", "image_url": "https://s3-media2.fl.yelpcdn.com/bphoto/5YNxEigMmu8anIwGkIsEzg/o.jpg", "is_closed": false, "url": "https://www.yelp.com/biz/minnie-bells-san-francisco-2?adjust_creative=gJ2vrem5KxinHaV7_d8wAA&utm_campaign=yelp_api_v3&utm_medium=api_v3_business_search&utm_source=gJ2vrem5KxinHaV7_d8wAA", "review_count": 15, "categories": [{"alias": "soulfood", "title": "Soul Food"}, {"alias": "foodtrucks", "title": "Food Trucks"}, {"alias": "comfortfood", "title": "Comfort Food"}], "rating": 4.5, "coordinates": {"latitude": 37.7769775466477, "longitude": -122.416963241994}, "transactions": [], "location": {"address1": "", "address2": "", "address3": null, "city": "San Francisco", "zip_code": "94103", "country": "US", "state": "CA", "display_address": ["San Francisco, CA 94103"]}, "phone": "+14152739340", "display_phone": "(415) 273-9340", "distance": 22247.989518881586}, {"id": "xMye9Sv0vNz78nP7iTAejA", "alias": "jack-in-the-box-san-pablo", "name": "Jack in the Box", "image_url": "https://s3-media2.fl.yelpcdn.com/bphoto/1jstO0GITHo6IRvpWjedzQ/o.jpg", "is_closed": false, "url": "https://www.yelp.com/biz/jack-in-the-box-san-pablo?adjust_creative=gJ2vrem5KxinHaV7_d8wAA&utm_campaign=yelp_api_v3&utm_medium=api_v3_business_search&utm_source=gJ2vrem5KxinHaV7_d8wAA", "review_count": 43, "categories": [{"alias": "hotdogs", "title": "Fast Food"}, {"alias": "burgers", "title": "Burgers"}, {"alias": "tacos", "title": "Tacos"}], "rating": 1.5, "coordinates": {"latitude": 37.9658322, "longitude": -122.345069646835}, "transactions": [], "price": "$", "location": {"address1": "14395 San Pablo Ave", "address2": null, "address3": null, "city": "San Pablo", "zip_code": "94806", "country": "US", "state": "CA", "display_address": ["14395 San Pablo Ave", "San Pablo, CA 94806"]}, "phone": "+15102320905", "display_phone": "(510) 232-0905", "distance": 524.7260414084155}, {"id": "CUwBAy6lrFi4x6Neu9eRVw", "alias": "mini-street-burger-alameda-3", "name": "Mini Street Burger", "image_url": "https://s3-media2.fl.yelpcdn.com/bphoto/Kh-OQKBIclWY1dCeIuu57w/o.jpg", "is_closed": false, "url": "https://www.yelp.com/biz/mini-street-burger-alameda-3?adjust_creative=gJ2vrem5KxinHaV7_d8wAA&utm_campaign=yelp_api_v3&utm_medium=api_v3_business_search&utm_source=gJ2vrem5KxinHaV7_d8wAA", "review_count": 28, "categories": [{"alias": "foodtrucks", "title": "Food Trucks"}, {"alias": "burgers", "title": "Burgers"}], "rating": 4.0, "coordinates": {"latitude": 37.82628, "longitude": -122.25101}, "transactions": [], "location": {"address1": null, "address2": null, "address3": null, "city": "Alameda", "zip_code": "94611", "country": "US", "state": "CA", "display_address": ["Alameda, CA 94611"]}, "phone": "+15108278982", "display_phone": "(510) 827-8982", "distance": 19102.257691368894}, {"id": "ZlLnkOJzKQx_QbZf5p2_lw", "alias": "yummysticks-richmond-2", "name": "YummySticks", "image_url": "https://s3-media1.fl.yelpcdn.com/bphoto/7Nfbaqr5CYkV6XM9IfLO9Q/o.jpg", "is_closed": false, "url": "https://www.yelp.com/biz/yummysticks-richmond-2?adjust_creative=gJ2vrem5KxinHaV7_d8wAA&utm_campaign=yelp_api_v3&utm_medium=api_v3_business_search&utm_source=gJ2vrem5KxinHaV7_d8wAA", "review_count": 3, "categories": [{"alias": "foodtrucks", "title": "Food Trucks"}, {"alias": "newamerican", "title": "American (New)"}, {"alias": "catering", "title": "Caterers"}], "rating": 3.5, "coordinates": {"latitude": 37.921329498291, "longitude": -122.341423034668}, "transactions": [], "location": {"address1": "", "address2": null, "address3": null, "city": "Richmond", "zip_code": "94804", "country": "US", "state": "CA", "display_address": ["Richmond, CA 94804"]}, "phone": "+15109923876", "display_phone": "(510) 992-3876", "distance": 5744.425122704095}, {"id": "IM_nbrmaLIEvr-kUJNHwCw", "alias": "subway-restaurants-san-pablo-2", "name": "Subway Restaurants", "image_url": "https://s3-media1.fl.yelpcdn.com/bphoto/zyZuPPGddzx_uAieajd8Dw/o.jpg", "is_closed": false, "url": "https://www.yelp.com/biz/subway-restaurants-san-pablo-2?adjust_creative=gJ2vrem5KxinHaV7_d8wAA&utm_campaign=yelp_api_v3&utm_medium=api_v3_business_search&utm_source=gJ2vrem5KxinHaV7_d8wAA", "review_count": 20, "categories": [{"alias": "sandwiches", "title": "Sandwiches"}], "rating": 2.5, "coordinates": {"latitude": 37.955583, "longitude": -122.336391}, "transactions": [], "price": "$", "location": {"address1": "13501 San Pablo Avenue", "address2": "Space A", "address3": "", "city": "San Pablo", "zip_code": "94806", "country": "US", "state": "CA", "display_address": ["13501 San Pablo Avenue", "Space A", "San Pablo, CA 94806"]}, "phone": "+15102339498", "display_phone": "(510) 233-9498", "distance": 1352.6282584809455}, {"id": "M7sh7NKpHkhcIcPL2D8wmQ", "alias": "mcdonalds-san-pablo-4", "name": "McDonald's", "image_url": "https://s3-media1.fl.yelpcdn.com/bphoto/foo-ZMCj3oQPvRbdRQbgaw/o.jpg", "is_closed": false, "url": "https://www.yelp.com/biz/mcdonalds-san-pablo-4?adjust_creative=gJ2vrem5KxinHaV7_d8wAA&utm_campaign=yelp_api_v3&utm_medium=api_v3_business_search&utm_source=gJ2vrem5KxinHaV7_d8wAA", "review_count": 29, "categories": [{"alias": "burgers", "title": "Burgers"}, {"alias": "hotdogs", "title": "Fast Food"}, {"alias": "coffee", "title": "Coffee & Tea"}], "rating": 2.5, "coordinates": {"latitude": 37.9615570466729, "longitude": -122.326602479461}, "transactions": [], "price": "$", "location": {"address1": "3320 San Pablo Dam Rd", "address2": "", "address3": "", "city": "San Pablo", "zip_code": "94806", "country": "US", "state": "CA", "display_address": ["3320 San Pablo Dam Rd", "San Pablo, CA 94806"]}, "phone": "+15102239226", "display_phone": "(510) 223-9226", "distance": 1305.0847650632038}, {"id": "uIPxHlymMlWF-QB2BWEHFQ", "alias": "martinez-restaurant-san-pablo", "name": "Martinez Restaurant", "image_url": "https://s3-media4.fl.yelpcdn.com/bphoto/SlfUjDOs-jdWrpOU64ko_g/o.jpg", "is_closed": false, "url": "https://www.yelp.com/biz/martinez-restaurant-san-pablo?adjust_creative=gJ2vrem5KxinHaV7_d8wAA&utm_campaign=yelp_api_v3&utm_medium=api_v3_business_search&utm_source=gJ2vrem5KxinHaV7_d8wAA", "review_count": 1, "categories": [{"alias": "mexican", "title": "Mexican"}], "rating": 4.0, "coordinates": {"latitude": 37.95768, "longitude": -122.34692}, "transactions": [], "location": {"address1": "1848 23rd St", "address2": "", "address3": "", "city": "San Pablo", "zip_code": "94806", "country": "US", "state": "CA", "display_address": ["1848 23rd St", "San Pablo, CA 94806"]}, "phone": "+19255652292", "display_phone": "(925) 565-2292", "distance": 1271.900977168754}, {"id": "ho7qe1gUobnTA_33CLiKnQ", "alias": "la-fortuna-taco-truck-san-pablo", "name": "La Fortuna Taco Truck", "image_url": "", "is_closed": false, "url": "https://www.yelp.com/biz/la-fortuna-taco-truck-san-pablo?adjust_creative=gJ2vrem5KxinHaV7_d8wAA&utm_campaign=yelp_api_v3&utm_medium=api_v3_business_search&utm_source=gJ2vrem5KxinHaV7_d8wAA", "review_count": 4, "categories": [{"alias": "mexican", "title": "Mexican"}, {"alias": "foodtrucks", "title": "Food Trucks"}], "rating": 3.5, "coordinates": {"latitude": 37.9603652954102, "longitude": -122.343566894531}, "transactions": [], "location": {"address1": "", "address2": "", "address3": "", "city": "San Pablo", "zip_code": "94806", "country": "US", "state": "CA", "display_address": ["San Pablo, CA 94806"]}, "phone": "", "display_phone": "", "distance": 796.3413303498577}, {"id": "jCcAuXhCpeJP2n-8ol7mxg", "alias": "kolobok-russian-soul-food-truck-oakland", "name": "Kolobok Russian Soul Food Truck", "image_url": "https://s3-media1.fl.yelpcdn.com/bphoto/k8s1Bfc05Iw7SJXE6VJ74Q/o.jpg", "is_closed": false, "url": "https://www.yelp.com/biz/kolobok-russian-soul-food-truck-oakland?adjust_creative=gJ2vrem5KxinHaV7_d8wAA&utm_campaign=yelp_api_v3&utm_medium=api_v3_business_search&utm_source=gJ2vrem5KxinHaV7_d8wAA", "review_count": 47, "categories": [{"alias": "foodtrucks", "title": "Food Trucks"}, {"alias": "russian", "title": "Russian"}], "rating": 4.5, "coordinates": {"latitude": 37.7883087690458, "longitude": -122.309032460882}, "transactions": [], "price": "$$", "location": {"address1": null, "address2": null, "address3": "", "city": "Oakland", "zip_code": "94577", "country": "US", "state": "CA", "display_address": ["Oakland, CA 94577"]}, "phone": "+15105996542", "display_phone": "(510) 599-6542", "distance": 20100.567334898195}, {"id": "UgpER14Qy4CiwlxC5ZwsqA", "alias": "la-cuchara-de-do\u00f1a-rosa-vallejo", "name": "La cuchara de Do\u00f1a Rosa", "image_url": "https://s3-media3.fl.yelpcdn.com/bphoto/IlLx-PG3Jt6VZBcxToYRng/o.jpg", "is_closed": false, "url": "https://www.yelp.com/biz/la-cuchara-de-do%C3%B1a-rosa-vallejo?adjust_creative=gJ2vrem5KxinHaV7_d8wAA&utm_campaign=yelp_api_v3&utm_medium=api_v3_business_search&utm_source=gJ2vrem5KxinHaV7_d8wAA", "review_count": 14, "categories": [{"alias": "foodtrucks", "title": "Food Trucks"}, {"alias": "tacos", "title": "Tacos"}], "rating": 4.0, "coordinates": {"latitude": 38.115436, "longitude": -122.2541558}, "transactions": ["pickup", "delivery"], "price": "$$", "location": {"address1": "105 Couch St", "address2": "", "address3": null, "city": "Vallejo", "zip_code": "94590", "country": "US", "state": "CA", "display_address": ["105 Couch St", "Vallejo, CA 94590"]}, "phone": "+15103138892", "display_phone": "(510) 313-8892", "distance": 18068.966830834666}, {"id": "UNnmL5kqEUyOIROudXRD1Q", "alias": "sopitos-san-pablo", "name": "Sopitos", "image_url": "", "is_closed": false, "url": "https://www.yelp.com/biz/sopitos-san-pablo?adjust_creative=gJ2vrem5KxinHaV7_d8wAA&utm_campaign=yelp_api_v3&utm_medium=api_v3_business_search&utm_source=gJ2vrem5KxinHaV7_d8wAA", "review_count": 1, "categories": [{"alias": "mexican", "title": "Mexican"}], "rating": 4.0, "coordinates": {"latitude": 37.95768, "longitude": -122.34692}, "transactions": [], "location": {"address1": "1848 23rd St", "address2": "", "address3": "", "city": "San Pablo", "zip_code": "94806", "country": "US", "state": "CA", "display_address": ["1848 23rd St", "San Pablo, CA 94806"]}, "phone": "+15107789722", "display_phone": "(510) 778-9722", "distance": 1271.900977168754}, {"id": "Jc_mdhkFIotizoRDzRG6dA", "alias": "jack-in-the-box-san-pablo-2", "name": "Jack in the Box", "image_url": "https://s3-media1.fl.yelpcdn.com/bphoto/_09GJdNMBXPpYBMIOCRycw/o.jpg", "is_closed": false, "url": "https://www.yelp.com/biz/jack-in-the-box-san-pablo-2?adjust_creative=gJ2vrem5KxinHaV7_d8wAA&utm_campaign=yelp_api_v3&utm_medium=api_v3_business_search&utm_source=gJ2vrem5KxinHaV7_d8wAA", "review_count": 33, "categories": [{"alias": "hotdogs", "title": "Fast Food"}, {"alias": "burgers", "title": "Burgers"}, {"alias": "tacos", "title": "Tacos"}], "rating": 2.0, "coordinates": {"latitude": 37.9554339, "longitude": -122.330824434757}, "transactions": [], "price": "$", "location": {"address1": "50 San Pablo Towne Ctr", "address2": null, "address3": null, "city": "San Pablo", "zip_code": "94806", "country": "US", "state": "CA", "display_address": ["50 San Pablo Towne Ctr", "San Pablo, CA 94806"]}, "phone": "+15104129712", "display_phone": "(510) 412-9712", "distance": 1538.0886989344774}, {"id": "RsgxKM4y5V_po23Iy3lTww", "alias": "fiya-spice-caribbean-pittsburg", "name": "Fiya Spice Caribbean", "image_url": "https://s3-media1.fl.yelpcdn.com/bphoto/7NBUdJXMLVWdJqIumy-GBg/o.jpg", "is_closed": false, "url": "https://www.yelp.com/biz/fiya-spice-caribbean-pittsburg?adjust_creative=gJ2vrem5KxinHaV7_d8wAA&utm_campaign=yelp_api_v3&utm_medium=api_v3_business_search&utm_source=gJ2vrem5KxinHaV7_d8wAA", "review_count": 1, "categories": [{"alias": "foodtrucks", "title": "Food Trucks"}, {"alias": "caribbean", "title": "Caribbean"}, {"alias": "catering", "title": "Caterers"}], "rating": 5.0, "coordinates": {"latitude": 38.011279, "longitude": -121.876098}, "transactions": [], "location": {"address1": "", "address2": null, "address3": "", "city": "Pittsburg", "zip_code": "94565", "country": "US", "state": "CA", "display_address": ["Pittsburg, CA 94565"]}, "phone": "+15106863325", "display_phone": "(510) 686-3325", "distance": 40897.80859812194}, {"id": "jW66693LVPlyDtzAoeb7KQ", "alias": "travelin-joe-espresso-berkeley", "name": "Travelin Joe Espresso", "image_url": "https://s3-media2.fl.yelpcdn.com/bphoto/XiqMQnnnbGe4g2SzU4Wm-A/o.jpg", "is_closed": false, "url": "https://www.yelp.com/biz/travelin-joe-espresso-berkeley?adjust_creative=gJ2vrem5KxinHaV7_d8wAA&utm_campaign=yelp_api_v3&utm_medium=api_v3_business_search&utm_source=gJ2vrem5KxinHaV7_d8wAA", "review_count": 33, "categories": [{"alias": "coffee", "title": "Coffee & Tea"}, {"alias": "foodstands", "title": "Food Stands"}, {"alias": "waffles", "title": "Waffles"}], "rating": 4.5, "coordinates": {"latitude": 37.85571, "longitude": -122.2893}, "transactions": [], "price": "$$", "location": {"address1": "1016 Grayson St", "address2": "", "address3": "", "city": "Berkeley", "zip_code": "94710", "country": "US", "state": "CA", "display_address": ["1016 Grayson St", "Berkeley, CA 94710"]}, "phone": "+15109197279", "display_phone": "(510) 919-7279", "distance": 13179.418176508621}, {"id": "Ew3CYlztcXq9IrwfLt2y-A", "alias": "taqueria-mendoza-san-pablo", "name": "Taqueria Mendoza", "image_url": "", "is_closed": false, "url": "https://www.yelp.com/biz/taqueria-mendoza-san-pablo?adjust_creative=gJ2vrem5KxinHaV7_d8wAA&utm_campaign=yelp_api_v3&utm_medium=api_v3_business_search&utm_source=gJ2vrem5KxinHaV7_d8wAA", "review_count": 1, "categories": [{"alias": "restaurants", "title": "Restaurants"}], "rating": 1.0, "coordinates": {"latitude": 37.96131, "longitude": -122.34683}, "transactions": [], "price": "$", "location": {"address1": "2031 23rd St", "address2": "", "address3": "", "city": "San Pablo", "zip_code": "94806", "country": "US", "state": "CA", "display_address": ["2031 23rd St", "San Pablo, CA 94806"]}, "phone": "+15102159065", "display_phone": "(510) 215-9065", "distance": 929.2154848946014}, {"id": "p_dxpqU9MPM4QjotODVw9w", "alias": "la-guarecita-taqueria-y-mercado-san-pablo", "name": "La Guarecita Taqueria y Mercado", "image_url": "", "is_closed": false, "url": "https://www.yelp.com/biz/la-guarecita-taqueria-y-mercado-san-pablo?adjust_creative=gJ2vrem5KxinHaV7_d8wAA&utm_campaign=yelp_api_v3&utm_medium=api_v3_business_search&utm_source=gJ2vrem5KxinHaV7_d8wAA", "review_count": 2, "categories": [{"alias": "mexican", "title": "Mexican"}], "rating": 3.0, "coordinates": {"latitude": 37.95768, "longitude": -122.34692}, "transactions": [], "location": {"address1": "1848 23rd St", "address2": "", "address3": "", "city": "San Pablo", "zip_code": "94806", "country": "US", "state": "CA", "display_address": ["1848 23rd St", "San Pablo, CA 94806"]}, "phone": "+15102361644", "display_phone": "(510) 236-1644", "distance": 1271.900977168754}, {"id": "uuouQQIFQ1B9mkmcxaAKFA", "alias": "tacos-el-rey-oakland", "name": "Tacos El Rey", "image_url": "https://s3-media2.fl.yelpcdn.com/bphoto/DblyFrtT9uyPCQAUfPbYbQ/o.jpg", "is_closed": false, "url": "https://www.yelp.com/biz/tacos-el-rey-oakland?adjust_creative=gJ2vrem5KxinHaV7_d8wAA&utm_campaign=yelp_api_v3&utm_medium=api_v3_business_search&utm_source=gJ2vrem5KxinHaV7_d8wAA", "review_count": 9, "categories": [{"alias": "foodtrucks", "title": "Food Trucks"}, {"alias": "mexican", "title": "Mexican"}], "rating": 4.0, "coordinates": {"latitude": 37.8294034, "longitude": -122.2875758}, "transactions": [], "price": "$", "location": {"address1": "40th & Horton", "address2": "", "address3": null, "city": "Oakland", "zip_code": "94608", "country": "US", "state": "CA", "display_address": ["40th & Horton", "Oakland, CA 94608"]}, "phone": "+15108130232", "display_phone": "(510) 813-0232", "distance": 16013.59124246362}, {"id": "C8QSWh3j0xkXwiWC8h-7ag", "alias": "three-amigos-market-and-deli-oakland", "name": "Three Amigos Market & Deli", "image_url": "https://s3-media1.fl.yelpcdn.com/bphoto/B4LNxfyWsiyHibJqkrK1gQ/o.jpg", "is_closed": false, "url": "https://www.yelp.com/biz/three-amigos-market-and-deli-oakland?adjust_creative=gJ2vrem5KxinHaV7_d8wAA&utm_campaign=yelp_api_v3&utm_medium=api_v3_business_search&utm_source=gJ2vrem5KxinHaV7_d8wAA", "review_count": 9, "categories": [{"alias": "grocery", "title": "Grocery"}, {"alias": "sandwiches", "title": "Sandwiches"}, {"alias": "delis", "title": "Delis"}], "rating": 4.5, "coordinates": {"latitude": 37.791048, "longitude": -122.245431}, "transactions": [], "price": "$", "location": {"address1": "1554 13th Ave", "address2": "", "address3": "", "city": "Oakland", "zip_code": "94606", "country": "US", "state": "CA", "display_address": ["1554 13th Ave", "Oakland, CA 94606"]}, "phone": "+15102612353", "display_phone": "(510) 261-2353", "distance": 21282.89141254125}, {"id": "XTJJ_PUQoJKIh31ZIzsFzw", "alias": "cochinita-food-truck-san-francisco-6", "name": "Cochinita Food Truck", "image_url": "https://s3-media2.fl.yelpcdn.com/bphoto/w77SOd2jVJjOh1lwuYQ42w/o.jpg", "is_closed": false, "url": "https://www.yelp.com/biz/cochinita-food-truck-san-francisco-6?adjust_creative=gJ2vrem5KxinHaV7_d8wAA&utm_campaign=yelp_api_v3&utm_medium=api_v3_business_search&utm_source=gJ2vrem5KxinHaV7_d8wAA", "review_count": 49, "categories": [{"alias": "foodtrucks", "title": "Food Trucks"}, {"alias": "mexican", "title": "Mexican"}], "rating": 4.5, "coordinates": {"latitude": 37.770753, "longitude": -122.3916722}, "transactions": [], "price": "$", "location": {"address1": "601 Mission Blvd N", "address2": null, "address3": "", "city": "San Francisco", "zip_code": "94103", "country": "US", "state": "CA", "display_address": ["601 Mission Blvd N", "San Francisco, CA 94103"]}, "phone": "+14159883663", "display_phone": "(415) 988-3663", "distance": 22349.495068731125}, {"id": "DC42MrpWtqEeWRmMsn6Z8w", "alias": "the-everest-momo-fremont-2", "name": "The Everest Momo", "image_url": "https://s3-media2.fl.yelpcdn.com/bphoto/T2f7tUQ1c104otx9oSdqYw/o.jpg", "is_closed": false, "url": "https://www.yelp.com/biz/the-everest-momo-fremont-2?adjust_creative=gJ2vrem5KxinHaV7_d8wAA&utm_campaign=yelp_api_v3&utm_medium=api_v3_business_search&utm_source=gJ2vrem5KxinHaV7_d8wAA", "review_count": 23, "categories": [{"alias": "foodtrucks", "title": "Food Trucks"}, {"alias": "indpak", "title": "Indian"}, {"alias": "himalayan", "title": "Himalayan/Nepalese"}], "rating": 4.5, "coordinates": {"latitude": 37.54643, "longitude": -121.98512}, "transactions": [], "price": "$", "location": {"address1": "39233 Fremont Blvd", "address2": null, "address3": null, "city": "Fremont", "zip_code": "94538", "country": "US", "state": "CA", "display_address": ["39233 Fremont Blvd", "Fremont, CA 94538"]}, "phone": "+14088406369", "display_phone": "(408) 840-6369", "distance": 56230.272104976844}, {"id": "i6ZwMjYIbmFZ8EGYz6x5Bw", "alias": "phat-salads-and-wraps-napa", "name": "Phat Salads and Wraps", "image_url": "https://s3-media2.fl.yelpcdn.com/bphoto/FbrUwtrVIx2cLXiPdBhHkw/o.jpg", "is_closed": false, "url": "https://www.yelp.com/biz/phat-salads-and-wraps-napa?adjust_creative=gJ2vrem5KxinHaV7_d8wAA&utm_campaign=yelp_api_v3&utm_medium=api_v3_business_search&utm_source=gJ2vrem5KxinHaV7_d8wAA", "review_count": 48, "categories": [{"alias": "foodtrucks", "title": "Food Trucks"}, {"alias": "wraps", "title": "Wraps"}], "rating": 4.0, "coordinates": {"latitude": 38.3234491, "longitude": -122.3023962}, "transactions": [], "price": "$", "location": {"address1": "", "address2": "", "address3": "", "city": "Napa", "zip_code": "94558", "country": "US", "state": "CA", "display_address": ["Napa, CA 94558"]}, "phone": "+17073639658", "display_phone": "(707) 363-9658", "distance": 39714.90217597233}, {"id": "lgheXsHqe66AEZwoPDIEpw", "alias": "taco-coma-newark", "name": "Taco Coma", "image_url": "https://s3-media3.fl.yelpcdn.com/bphoto/DDz5lZDL5lDiRR_Ph0L4Sg/o.jpg", "is_closed": false, "url": "https://www.yelp.com/biz/taco-coma-newark?adjust_creative=gJ2vrem5KxinHaV7_d8wAA&utm_campaign=yelp_api_v3&utm_medium=api_v3_business_search&utm_source=gJ2vrem5KxinHaV7_d8wAA", "review_count": 3, "categories": [{"alias": "foodstands", "title": "Food Stands"}, {"alias": "tacos", "title": "Tacos"}], "rating": 5.0, "coordinates": {"latitude": 37.53453, "longitude": -122.03284}, "transactions": [], "location": {"address1": "", "address2": null, "address3": "", "city": "Newark", "zip_code": "94560", "country": "US", "state": "CA", "display_address": ["Newark, CA 94560"]}, "phone": "+15106971448", "display_phone": "(510) 697-1448", "distance": 55382.647025821956}, {"id": "8SNGFcMWZkvS4GWDUL8w1Q", "alias": "noon-o-kabob-san-jose-4", "name": "Noon O Kabob", "image_url": "https://s3-media2.fl.yelpcdn.com/bphoto/5GmY5FRw0m0XEWC5XXbVlA/o.jpg", "is_closed": false, "url": "https://www.yelp.com/biz/noon-o-kabob-san-jose-4?adjust_creative=gJ2vrem5KxinHaV7_d8wAA&utm_campaign=yelp_api_v3&utm_medium=api_v3_business_search&utm_source=gJ2vrem5KxinHaV7_d8wAA", "review_count": 29, "categories": [{"alias": "foodtrucks", "title": "Food Trucks"}, {"alias": "kebab", "title": "Kebab"}, {"alias": "persian", "title": "Persian/Iranian"}], "rating": 4.5, "coordinates": {"latitude": 37.3940232, "longitude": -122.0288052}, "transactions": [], "price": "$$", "location": {"address1": null, "address2": null, "address3": null, "city": "San Jose", "zip_code": "95101", "country": "US", "state": "CA", "display_address": ["San Jose, CA 95101"]}, "phone": "+14083346777", "display_phone": "(408) 334-6777", "distance": 69378.16138195315}, {"id": "sR0Wy3LYGdYV9HLszRlMmw", "alias": "tacos-la-palmita-stockton", "name": "Tacos La Palmita", "image_url": "https://s3-media2.fl.yelpcdn.com/bphoto/pzYoRmZjUQqxZ7qOyU7hUQ/o.jpg", "is_closed": false, "url": "https://www.yelp.com/biz/tacos-la-palmita-stockton?adjust_creative=gJ2vrem5KxinHaV7_d8wAA&utm_campaign=yelp_api_v3&utm_medium=api_v3_business_search&utm_source=gJ2vrem5KxinHaV7_d8wAA", "review_count": 90, "categories": [{"alias": "tacos", "title": "Tacos"}, {"alias": "foodtrucks", "title": "Food Trucks"}], "rating": 4.5, "coordinates": {"latitude": 38.008129, "longitude": -121.320219}, "transactions": ["pickup", "delivery"], "price": "$", "location": {"address1": "6393 Pacific Ave", "address2": null, "address3": null, "city": "Stockton", "zip_code": "95207", "country": "US", "state": "CA", "display_address": ["6393 Pacific Ave", "Stockton, CA 95207"]}, "phone": "+12093026825", "display_phone": "(209) 302-6825", "distance": 89437.22952996468}, {"id": "C9uewBH5505NV0EWYBIJAA", "alias": "lady-and-l-aperitivo-san-jose", "name": "Lady & L'Aperitivo", "image_url": "https://s3-media4.fl.yelpcdn.com/bphoto/3nz0sRE9MlOq_4xVRQRt9w/o.jpg", "is_closed": false, "url": "https://www.yelp.com/biz/lady-and-l-aperitivo-san-jose?adjust_creative=gJ2vrem5KxinHaV7_d8wAA&utm_campaign=yelp_api_v3&utm_medium=api_v3_business_search&utm_source=gJ2vrem5KxinHaV7_d8wAA", "review_count": 1, "categories": [{"alias": "bakeries", "title": "Bakeries"}, {"alias": "desserts", "title": "Desserts"}, {"alias": "cheesesteaks", "title": "Cheesesteaks"}], "rating": 5.0, "coordinates": {"latitude": 37.2208938598633, "longitude": -121.861633300781}, "transactions": [], "location": {"address1": null, "address2": null, "address3": "", "city": "San Jose", "zip_code": "95120", "country": "US", "state": "CA", "display_address": ["San Jose, CA 95120"]}, "phone": "", "display_phone": "", "distance": 98839.44437090869}, {"id": "SbjAjfh2riT7rWxo2OITJA", "alias": "candies-kitchen-sacramento", "name": "Candies Kitchen", "image_url": "https://s3-media1.fl.yelpcdn.com/bphoto/wZehoZn9-gQLuWPX4QIOLA/o.jpg", "is_closed": false, "url": "https://www.yelp.com/biz/candies-kitchen-sacramento?adjust_creative=gJ2vrem5KxinHaV7_d8wAA&utm_campaign=yelp_api_v3&utm_medium=api_v3_business_search&utm_source=gJ2vrem5KxinHaV7_d8wAA", "review_count": 2, "categories": [{"alias": "cajun", "title": "Cajun/Creole"}, {"alias": "soulfood", "title": "Soul Food"}, {"alias": "foodtrucks", "title": "Food Trucks"}], "rating": 3.5, "coordinates": {"latitude": 38.59429, "longitude": -121.48536}, "transactions": [], "location": {"address1": "1100 Richards Blvd", "address2": null, "address3": "", "city": "Sacramento", "zip_code": "95811", "country": "US", "state": "CA", "display_address": ["1100 Richards Blvd", "Sacramento, CA 95811"]}, "phone": "+19164399922", "display_phone": "(916) 439-9922", "distance": 102063.2320815588}, {"id": "Mij1ZvLLpqvNmJFWNz9IsQ", "alias": "paquitas-mexican-grill-sacramento-2", "name": "Paquitas Mexican Grill", "image_url": "https://s3-media2.fl.yelpcdn.com/bphoto/Onav96dKMe8cWeFXMNFcyQ/o.jpg", "is_closed": false, "url": "https://www.yelp.com/biz/paquitas-mexican-grill-sacramento-2?adjust_creative=gJ2vrem5KxinHaV7_d8wAA&utm_campaign=yelp_api_v3&utm_medium=api_v3_business_search&utm_source=gJ2vrem5KxinHaV7_d8wAA", "review_count": 73, "categories": [{"alias": "foodtrucks", "title": "Food Trucks"}, {"alias": "mexican", "title": "Mexican"}], "rating": 4.0, "coordinates": {"latitude": 38.549732, "longitude": -121.406281}, "transactions": [], "price": "$", "location": {"address1": "49 Bicentennial Cir", "address2": null, "address3": "", "city": "Sacramento", "zip_code": "95826", "country": "US", "state": "CA", "display_address": ["49 Bicentennial Cir", "Sacramento, CA 95826"]}, "phone": "+15308484666", "display_phone": "(530) 848-4666", "distance": 104068.62139168552}, {"id": "7ETh5878KSnGQnLxLE_yaQ", "alias": "gyrostop-sacramento", "name": "GyroStop", "image_url": "https://s3-media1.fl.yelpcdn.com/bphoto/xQsct4YKnW0qSJOmK_gsxw/o.jpg", "is_closed": false, "url": "https://www.yelp.com/biz/gyrostop-sacramento?adjust_creative=gJ2vrem5KxinHaV7_d8wAA&utm_campaign=yelp_api_v3&utm_medium=api_v3_business_search&utm_source=gJ2vrem5KxinHaV7_d8wAA", "review_count": 74, "categories": [{"alias": "mediterranean", "title": "Mediterranean"}, {"alias": "foodtrucks", "title": "Food Trucks"}], "rating": 4.0, "coordinates": {"latitude": 38.6621589660645, "longitude": -121.336738586426}, "transactions": [], "price": "$$", "location": {"address1": "", "address2": "", "address3": "", "city": "Sacramento", "zip_code": "95841", "country": "US", "state": "CA", "display_address": ["Sacramento, CA 95841"]}, "phone": "+19163044976", "display_phone": "(916) 304-4976", "distance": 115888.15088241463}]}