{"location": "San Carlos, CA", "term": "restaurant", "radius": 2134, "businesses": [{"id": "oNXgnm_Z7TDo9Rg97oFT_g", "alias": "stamp-bar-and-grill-san-carlos", "name": "Stamp Bar & Grill", "image_url": "https://s3-media1.fl.yelpcdn.com/bphoto/qObMw7Qd7T6wAJG75yy-ig/o.jpg", "is_closed": false, "url": "https://www.yelp.com/biz/stamp-bar-and-grill-san-carlos?adjust_creative=gJ2vrem5KxinHaV7_d8wAA&utm_campaign=yelp_api_v3&utm_medium=api_v3_business_search&utm_source=gJ2vrem5KxinHaV7_d8wAA", "review_count": 139, "categories": [{"alias": "newamerican", "title": "American (New)"}, {"alias": "bars", "title": "Bars"}, {"alias": "tapasmallplates", "title": "Tapas/Small Plates"}], "rating": 4.5, "coordinates": {"latitude": 37.504416, "longitude": -122.258336}, "transactions": ["pickup", "delivery", "restaurant_reservation"], "price": "$$", "location": {"address1": "773 Laurel St", "address2": "", "address3": null, "city": "San Carlos", "zip_code": "94070", "country": "US", "state": "CA", "display_address": ["773 Laurel St", "San Carlos, CA 94070"]}, "phone": "+16502265164", "display_phone": "(650) 226-5164", "distance": 161.65226014646237}, {"id": "sWq4Zr_p3b8guJx6Jeyrzw", "alias": "noelanis-island-grill-san-carlos", "name": "Noelani's Island Grill", "image_url": "https://s3-media4.fl.yelpcdn.com/bphoto/a1DyfHZitwcFaEnhJrww4g/o.jpg", "is_closed": false, "url": "https://www.yelp.com/biz/noelanis-island-grill-san-carlos?adjust_creative=gJ2vrem5KxinHaV7_d8wAA&utm_campaign=yelp_api_v3&utm_medium=api_v3_business_search&utm_source=gJ2vrem5KxinHaV7_d8wAA", "review_count": 757, "categories": [{"alias": "hawaiian", "title": "Hawaiian"}, {"alias": "asianfusion", "title": "Asian Fusion"}], "rating": 4.0, "coordinates": {"latitude": 37.5008811950684, "longitude": -122.253913879395}, "transactions": ["pickup", "delivery", "restaurant_reservation"], "price": "$$", "location": {"address1": "1037 Laurel St", "address2": "", "address3": "", "city": "San Carlos", "zip_code": "94070", "country": "US", "state": "CA", "display_address": ["1037 Laurel St", "San Carlos, CA 94070"]}, "phone": "+16503948169", "display_phone": "(650) 394-8169", "distance": 431.2386321826525}, {"id": "jzvcgyesg-5YYiJ0aQqIlg", "alias": "taurus-steakhouse-san-carlos", "name": "Taurus Steakhouse", "image_url": "https://s3-media1.fl.yelpcdn.com/bphoto/ds3HNHUVCk7FVR4yqh7pZw/o.jpg", "is_closed": false, "url": "https://www.yelp.com/biz/taurus-steakhouse-san-carlos?adjust_creative=gJ2vrem5KxinHaV7_d8wAA&utm_campaign=yelp_api_v3&utm_medium=api_v3_business_search&utm_source=gJ2vrem5KxinHaV7_d8wAA", "review_count": 2, "categories": [{"alias": "steak", "title": "Steakhouses"}, {"alias": "wine_bars", "title": "Wine Bars"}], "rating": 5.0, "coordinates": {"latitude": 37.504928, "longitude": -122.259067}, "transactions": [], "location": {"address1": "727 Laurel St", "address2": null, "address3": "", "city": "San Carlos", "zip_code": "94070", "country": "US", "state": "CA", "display_address": ["727 Laurel St", "San Carlos, CA 94070"]}, "phone": "+16503948878", "display_phone": "(650) 394-8878", "distance": 238.9668278943387}, {"id": "MdC58SY_qMGoN132IO-boA", "alias": "rustic-house-oyster-bar-and-grill-san-carlos-san-carlos", "name": "Rustic House Oyster Bar and Grill- San Carlos", "image_url": "https://s3-media2.fl.yelpcdn.com/bphoto/PO9CXDkpc5Z6mOC-zbg5qQ/o.jpg", "is_closed": false, "url": "https://www.yelp.com/biz/rustic-house-oyster-bar-and-grill-san-carlos-san-carlos?adjust_creative=gJ2vrem5KxinHaV7_d8wAA&utm_campaign=yelp_api_v3&utm_medium=api_v3_business_search&utm_source=gJ2vrem5KxinHaV7_d8wAA", "review_count": 766, "categories": [{"alias": "seafood", "title": "Seafood"}, {"alias": "bars", "title": "Bars"}, {"alias": "tradamerican", "title": "American (Traditional)"}], "rating": 4.0, "coordinates": {"latitude": 37.50268, "longitude": -122.25533}, "transactions": ["pickup", "restaurant_reservation"], "price": "$$", "location": {"address1": "920 El Camino Real", "address2": null, "address3": "", "city": "San Carlos", "zip_code": "94070", "country": "US", "state": "CA", "display_address": ["920 El Camino Real", "San Carlos, CA 94070"]}, "phone": "+16503944534", "display_phone": "(650) 394-4534", "distance": 198.19289233243782}, {"id": "KQiiaN8eNDv_gGsyRe5jcQ", "alias": "pho-82-san-carlos", "name": "Pho 82", "image_url": "https://s3-media2.fl.yelpcdn.com/bphoto/BMhNQGeRDUMVq1QX8qJA4g/o.jpg", "is_closed": false, "url": "https://www.yelp.com/biz/pho-82-san-carlos?adjust_creative=gJ2vrem5KxinHaV7_d8wAA&utm_campaign=yelp_api_v3&utm_medium=api_v3_business_search&utm_source=gJ2vrem5KxinHaV7_d8wAA", "review_count": 18, "categories": [{"alias": "vietnamese", "title": "Vietnamese"}], "rating": 3.5, "coordinates": {"latitude": 37.50102, "longitude": -122.25338}, "transactions": [], "location": {"address1": "1050 El Camino Real", "address2": null, "address3": "", "city": "San Carlos", "zip_code": "94070", "country": "US", "state": "CA", "display_address": ["1050 El Camino Real", "San Carlos, CA 94070"]}, "phone": "+16508028081", "display_phone": "(650) 802-8081", "distance": 447.18552970125705}, {"id": "Hvwnv5ehieWLeHnPxKR7Jw", "alias": "spasso-ristorante-and-wine-bar-san-carlos", "name": "Spasso Ristorante & Wine Bar", "image_url": "https://s3-media2.fl.yelpcdn.com/bphoto/epFYSgMUCwAytsrHGMTobw/o.jpg", "is_closed": false, "url": "https://www.yelp.com/biz/spasso-ristorante-and-wine-bar-san-carlos?adjust_creative=gJ2vrem5KxinHaV7_d8wAA&utm_campaign=yelp_api_v3&utm_medium=api_v3_business_search&utm_source=gJ2vrem5KxinHaV7_d8wAA", "review_count": 517, "categories": [{"alias": "wine_bars", "title": "Wine Bars"}, {"alias": "italian", "title": "Italian"}], "rating": 4.0, "coordinates": {"latitude": 37.50448, "longitude": -122.25829}, "transactions": ["pickup", "delivery", "restaurant_reservation"], "price": "$$", "location": {"address1": "769 Laurel St", "address2": "", "address3": "", "city": "San Carlos", "zip_code": "94070", "country": "US", "state": "CA", "display_address": ["769 Laurel St", "San Carlos, CA 94070"]}, "phone": "+16505925886", "display_phone": "(650) 592-5886", "distance": 168.39746761789092}, {"id": "kn7uvNMFhmrg3xCXOihVUw", "alias": "v-and-v-delicious-crepes-san-carlos-2", "name": "V&V Delicious Crepes", "image_url": "https://s3-media4.fl.yelpcdn.com/bphoto/MpI7rTkpVsWE6yBg7WlM8g/o.jpg", "is_closed": false, "url": "https://www.yelp.com/biz/v-and-v-delicious-crepes-san-carlos-2?adjust_creative=gJ2vrem5KxinHaV7_d8wAA&utm_campaign=yelp_api_v3&utm_medium=api_v3_business_search&utm_source=gJ2vrem5KxinHaV7_d8wAA", "review_count": 77, "categories": [{"alias": "creperies", "title": "Creperies"}, {"alias": "vegan", "title": "Vegan"}, {"alias": "vegetarian", "title": "Vegetarian"}], "rating": 5.0, "coordinates": {"latitude": 37.507779, "longitude": -122.25938}, "transactions": [], "price": "$$", "location": {"address1": "601 Old County Rd", "address2": null, "address3": "", "city": "San Carlos", "zip_code": "94070", "country": "US", "state": "CA", "display_address": ["601 Old County Rd", "San Carlos, CA 94070"]}, "phone": "+16504861251", "display_phone": "(650) 486-1251", "distance": 464.7821731894313}, {"id": "O7XGoT2boPrYDGcJw2pDXg", "alias": "town-san-carlos-san-carlos", "name": "TOWN San Carlos", "image_url": "https://s3-media2.fl.yelpcdn.com/bphoto/tpHTZwLrbZ17tYBhSx4AZA/o.jpg", "is_closed": false, "url": "https://www.yelp.com/biz/town-san-carlos-san-carlos?adjust_creative=gJ2vrem5KxinHaV7_d8wAA&utm_campaign=yelp_api_v3&utm_medium=api_v3_business_search&utm_source=gJ2vrem5KxinHaV7_d8wAA", "review_count": 2523, "categories": [{"alias": "steak", "title": "Steakhouses"}, {"alias": "tradamerican", "title": "American (Traditional)"}, {"alias": "bars", "title": "Bars"}], "rating": 4.0, "coordinates": {"latitude": 37.504776, "longitude": -122.259526}, "transactions": ["pickup", "delivery"], "price": "$$$", "location": {"address1": "716 Laurel St", "address2": null, "address3": "", "city": "San Carlos", "zip_code": "94070", "country": "US", "state": "CA", "display_address": ["716 Laurel St", "San Carlos, CA 94070"]}, "phone": "+16505953003", "display_phone": "(650) 595-3003", "distance": 272.2194579268454}, {"id": "Ai3lX7eWklU9ptEXc_ds3g", "alias": "number5kitchen-san-carlos", "name": "number5kitchen", "image_url": "https://s3-media3.fl.yelpcdn.com/bphoto/wk0BetVpR45hj1avGSIv8w/o.jpg", "is_closed": false, "url": "https://www.yelp.com/biz/number5kitchen-san-carlos?adjust_creative=gJ2vrem5KxinHaV7_d8wAA&utm_campaign=yelp_api_v3&utm_medium=api_v3_business_search&utm_source=gJ2vrem5KxinHaV7_d8wAA", "review_count": 89, "categories": [{"alias": "newamerican", "title": "American (New)"}], "rating": 4.0, "coordinates": {"latitude": 37.50572, "longitude": -122.25977}, "transactions": [], "location": {"address1": "663 Laurel St", "address2": null, "address3": "", "city": "San Carlos", "zip_code": "94070", "country": "US", "state": "CA", "display_address": ["663 Laurel St", "San Carlos, CA 94070"]}, "phone": "+16506659655", "display_phone": "(650) 665-9655", "distance": 334.34742169379217}, {"id": "_UsFlSAC6UMFjhYQacOzzg", "alias": "creola-san-carlos", "name": "CreoLa", "image_url": "https://s3-media3.fl.yelpcdn.com/bphoto/4yheHoumDgQg76BQNyqfiw/o.jpg", "is_closed": false, "url": "https://www.yelp.com/biz/creola-san-carlos?adjust_creative=gJ2vrem5KxinHaV7_d8wAA&utm_campaign=yelp_api_v3&utm_medium=api_v3_business_search&utm_source=gJ2vrem5KxinHaV7_d8wAA", "review_count": 1077, "categories": [{"alias": "cajun", "title": "Cajun/Creole"}], "rating": 4.0, "coordinates": {"latitude": 37.5097645, "longitude": -122.2636395}, "transactions": ["pickup"], "price": "$$", "location": {"address1": "344 El Camino Real", "address2": "", "address3": "", "city": "San Carlos", "zip_code": "94070", "country": "US", "state": "CA", "display_address": ["344 El Camino Real", "San Carlos, CA 94070"]}, "phone": "+16506540882", "display_phone": "(650) 654-0882", "distance": 884.6874766244423}, {"id": "To9wxlh92XtBbPd9835aUg", "alias": "delizie-san-carlos", "name": "Delizie", "image_url": "https://s3-media1.fl.yelpcdn.com/bphoto/_l2bWIe-hbtRlFYNMWoRzA/o.jpg", "is_closed": false, "url": "https://www.yelp.com/biz/delizie-san-carlos?adjust_creative=gJ2vrem5KxinHaV7_d8wAA&utm_campaign=yelp_api_v3&utm_medium=api_v3_business_search&utm_source=gJ2vrem5KxinHaV7_d8wAA", "review_count": 450, "categories": [{"alias": "italian", "title": "Italian"}], "rating": 4.5, "coordinates": {"latitude": 37.506908, "longitude": -122.260425}, "transactions": ["pickup"], "price": "$$", "location": {"address1": "1107 San Carlos Ave", "address2": null, "address3": "", "city": "San Carlos", "zip_code": "94070", "country": "US", "state": "CA", "display_address": ["1107 San Carlos Ave", "San Carlos, CA 94070"]}, "phone": "+16504861539", "display_phone": "(650) 486-1539", "distance": 460.23945572998184}, {"id": "U8uVJMPVh6orDLjiAwyXXA", "alias": "pranzi-san-carlos-5", "name": "Pranzi", "image_url": "https://s3-media1.fl.yelpcdn.com/bphoto/zzm1IirerWzDv5EvPioCVg/o.jpg", "is_closed": false, "url": "https://www.yelp.com/biz/pranzi-san-carlos-5?adjust_creative=gJ2vrem5KxinHaV7_d8wAA&utm_campaign=yelp_api_v3&utm_medium=api_v3_business_search&utm_source=gJ2vrem5KxinHaV7_d8wAA", "review_count": 290, "categories": [{"alias": "italian", "title": "Italian"}, {"alias": "tradamerican", "title": "American (Traditional)"}, {"alias": "seafood", "title": "Seafood"}], "rating": 4.0, "coordinates": {"latitude": 37.50438, "longitude": -122.25817}, "transactions": ["pickup"], "price": "$$", "location": {"address1": "777 Laurel St", "address2": "", "address3": "", "city": "San Carlos", "zip_code": "94070", "country": "US", "state": "CA", "display_address": ["777 Laurel St", "San Carlos, CA 94070"]}, "phone": "+16504533768", "display_phone": "(650) 453-3768", "distance": 157.33945634010712}, {"id": "rzlJ2q1nZNPS3NuqOKVDaA", "alias": "cuisinett-san-carlos-2", "name": "Cuisinett", "image_url": "https://s3-media1.fl.yelpcdn.com/bphoto/BOM5AY0OKWlEHHNw2Iz4CA/o.jpg", "is_closed": false, "url": "https://www.yelp.com/biz/cuisinett-san-carlos-2?adjust_creative=gJ2vrem5KxinHaV7_d8wAA&utm_campaign=yelp_api_v3&utm_medium=api_v3_business_search&utm_source=gJ2vrem5KxinHaV7_d8wAA", "review_count": 795, "categories": [{"alias": "french", "title": "French"}, {"alias": "comfortfood", "title": "Comfort Food"}], "rating": 4.5, "coordinates": {"latitude": 37.50691, "longitude": -122.26031}, "transactions": ["pickup"], "price": "$$", "location": {"address1": "1105 San Carlos Ave", "address2": "", "address3": "", "city": "San Carlos", "zip_code": "94070", "country": "US", "state": "CA", "display_address": ["1105 San Carlos Ave", "San Carlos, CA 94070"]}, "phone": "+16504533390", "display_phone": "(650) 453-3390", "distance": 453.23130471469176}, {"id": "2pmQJbgp6v1qm8eECwNUJA", "alias": "pazzo-san-carlos-2", "name": "Pazzo", "image_url": "https://s3-media2.fl.yelpcdn.com/bphoto/AsvXq6Ffiaw6P0Sry5QjIg/o.jpg", "is_closed": false, "url": "https://www.yelp.com/biz/pazzo-san-carlos-2?adjust_creative=gJ2vrem5KxinHaV7_d8wAA&utm_campaign=yelp_api_v3&utm_medium=api_v3_business_search&utm_source=gJ2vrem5KxinHaV7_d8wAA", "review_count": 308, "categories": [{"alias": "pizza", "title": "Pizza"}, {"alias": "italian", "title": "Italian"}], "rating": 4.5, "coordinates": {"latitude": 37.4992981, "longitude": -122.2520981}, "transactions": ["pickup"], "price": "$$", "location": {"address1": "1179 Laurel St", "address2": null, "address3": "", "city": "San Carlos", "zip_code": "94070", "country": "US", "state": "CA", "display_address": ["1179 Laurel St", "San Carlos, CA 94070"]}, "phone": "+16505911075", "display_phone": "(650) 591-1075", "distance": 666.6575614634435}, {"id": "iEuMs7WPPO02rBQOIdgA4A", "alias": "nick-the-greek-san-carlos", "name": "Nick the Greek", "image_url": "https://s3-media3.fl.yelpcdn.com/bphoto/NBmeqHT5tlEc39k7AAXnBg/o.jpg", "is_closed": false, "url": "https://www.yelp.com/biz/nick-the-greek-san-carlos?adjust_creative=gJ2vrem5KxinHaV7_d8wAA&utm_campaign=yelp_api_v3&utm_medium=api_v3_business_search&utm_source=gJ2vrem5KxinHaV7_d8wAA", "review_count": 92, "categories": [{"alias": "greek", "title": "Greek"}], "rating": 4.5, "coordinates": {"latitude": 37.504651, "longitude": -122.25928}, "transactions": [], "price": "$$", "location": {"address1": "732 Laurel St", "address2": null, "address3": "", "city": "San Carlos", "zip_code": "94070", "country": "US", "state": "CA", "display_address": ["732 Laurel St", "San Carlos, CA 94070"]}, "phone": "+16503944311", "display_phone": "(650) 394-4311", "distance": 248.8287254112916}, {"id": "7b3Gsc5rdyBVLeakDRZG1g", "alias": "the-refuge-san-carlos", "name": "The Refuge", "image_url": "https://s3-media1.fl.yelpcdn.com/bphoto/KMjVOAHx9vNEpmpnmS2g1g/o.jpg", "is_closed": false, "url": "https://www.yelp.com/biz/the-refuge-san-carlos?adjust_creative=gJ2vrem5KxinHaV7_d8wAA&utm_campaign=yelp_api_v3&utm_medium=api_v3_business_search&utm_source=gJ2vrem5KxinHaV7_d8wAA", "review_count": 2019, "categories": [{"alias": "sandwiches", "title": "Sandwiches"}, {"alias": "burgers", "title": "Burgers"}, {"alias": "gastropubs", "title": "Gastropubs"}], "rating": 4.0, "coordinates": {"latitude": 37.5018365346501, "longitude": -122.255331046627}, "transactions": [], "price": "$$", "location": {"address1": "963 Laurel St", "address2": "", "address3": "", "city": "San Carlos", "zip_code": "94070", "country": "US", "state": "CA", "display_address": ["963 Laurel St", "San Carlos, CA 94070"]}, "phone": "+16505989813", "display_phone": "(650) 598-9813", "distance": 277.63796927879434}, {"id": "tUiZu8-XJ-RO10t4zICdVg", "alias": "blind-tasting-wine-and-beer-bar-san-carlos", "name": "Blind Tasting Wine And Beer Bar", "image_url": "https://s3-media3.fl.yelpcdn.com/bphoto/Dr6gzRIimB9pyooRYGZwJQ/o.jpg", "is_closed": false, "url": "https://www.yelp.com/biz/blind-tasting-wine-and-beer-bar-san-carlos?adjust_creative=gJ2vrem5KxinHaV7_d8wAA&utm_campaign=yelp_api_v3&utm_medium=api_v3_business_search&utm_source=gJ2vrem5KxinHaV7_d8wAA", "review_count": 105, "categories": [{"alias": "wine_bars", "title": "Wine Bars"}, {"alias": "beerbar", "title": "Beer Bar"}, {"alias": "newamerican", "title": "American (New)"}], "rating": 4.0, "coordinates": {"latitude": 37.50473, "longitude": -122.25859}, "transactions": ["pickup", "delivery", "restaurant_reservation"], "price": "$$", "location": {"address1": "749 Laurel St", "address2": null, "address3": "", "city": "San Carlos", "zip_code": "94070", "country": "US", "state": "CA", "display_address": ["749 Laurel St", "San Carlos, CA 94070"]}, "phone": "+16502648221", "display_phone": "(650) 264-8221", "distance": 201.68645539666392}, {"id": "rTBE6mP18p7-3kH4bCNnQw", "alias": "trattoria-da-vittorio-san-carlos-san-carlos-3", "name": "Trattoria da Vittorio - San Carlos", "image_url": "https://s3-media2.fl.yelpcdn.com/bphoto/_CY21t9cwCZjBAXwVFBmoA/o.jpg", "is_closed": false, "url": "https://www.yelp.com/biz/trattoria-da-vittorio-san-carlos-san-carlos-3?adjust_creative=gJ2vrem5KxinHaV7_d8wAA&utm_campaign=yelp_api_v3&utm_medium=api_v3_business_search&utm_source=gJ2vrem5KxinHaV7_d8wAA", "review_count": 228, "categories": [{"alias": "italian", "title": "Italian"}, {"alias": "wine_bars", "title": "Wine Bars"}, {"alias": "pizza", "title": "Pizza"}], "rating": 4.0, "coordinates": {"latitude": 37.5063171, "longitude": -122.2605368}, "transactions": ["pickup", "delivery", "restaurant_reservation"], "price": "$$$", "location": {"address1": "617 Laurel St", "address2": null, "address3": "", "city": "San Carlos", "zip_code": "94070", "country": "US", "state": "CA", "display_address": ["617 Laurel St", "San Carlos, CA 94070"]}, "phone": "+16505915700", "display_phone": "(650) 591-5700", "distance": 427.2424309193361}, {"id": "WmxvC0SXDSVlo-NVH9U-bA", "alias": "eats-meets-west-bowls-belmont", "name": "Eats Meets West Bowls", "image_url": "https://s3-media3.fl.yelpcdn.com/bphoto/v0USi4nmDXWIGsKe-92Dlw/o.jpg", "is_closed": false, "url": "https://www.yelp.com/biz/eats-meets-west-bowls-belmont?adjust_creative=gJ2vrem5KxinHaV7_d8wAA&utm_campaign=yelp_api_v3&utm_medium=api_v3_business_search&utm_source=gJ2vrem5KxinHaV7_d8wAA", "review_count": 8, "categories": [{"alias": "indpak", "title": "Indian"}, {"alias": "salad", "title": "Salad"}, {"alias": "asianfusion", "title": "Asian Fusion"}], "rating": 4.5, "coordinates": {"latitude": 37.514346, "longitude": -122.269092}, "transactions": ["pickup", "delivery"], "location": {"address1": "1602 El Camino Real", "address2": "Ste A", "address3": "", "city": "Belmont", "zip_code": "94002", "country": "US", "state": "CA", "display_address": ["1602 El Camino Real", "Ste A", "Belmont, CA 94002"]}, "phone": "+16505441744", "display_phone": "(650) 544-1744", "distance": 1587.3652945588112}, {"id": "PXaCXjxJ-papf5p2dt_ppQ", "alias": "johnstons-saltbox-san-carlos", "name": "Johnston's Saltbox", "image_url": "https://s3-media2.fl.yelpcdn.com/bphoto/UODiz1Kwct_fIq6HJa3YBg/o.jpg", "is_closed": false, "url": "https://www.yelp.com/biz/johnstons-saltbox-san-carlos?adjust_creative=gJ2vrem5KxinHaV7_d8wAA&utm_campaign=yelp_api_v3&utm_medium=api_v3_business_search&utm_source=gJ2vrem5KxinHaV7_d8wAA", "review_count": 797, "categories": [{"alias": "newamerican", "title": "American (New)"}], "rating": 4.0, "coordinates": {"latitude": 37.49403, "longitude": -122.24664}, "transactions": [], "price": "$$", "location": {"address1": "1696 Laurel St", "address2": "", "address3": "", "city": "San Carlos", "zip_code": "94070", "country": "US", "state": "CA", "display_address": ["1696 Laurel St", "San Carlos, CA 94070"]}, "phone": "+16505927258", "display_phone": "(650) 592-7258", "distance": 1422.1363049883798}, {"id": "pGzTLt_0UqJgk8mvsiF0Ag", "alias": "kabul-afghan-cuisine-san-carlos", "name": "Kabul Afghan Cuisine", "image_url": "https://s3-media2.fl.yelpcdn.com/bphoto/rrmjMuO7REbXJY0lqtJ4yw/o.jpg", "is_closed": false, "url": "https://www.yelp.com/biz/kabul-afghan-cuisine-san-carlos?adjust_creative=gJ2vrem5KxinHaV7_d8wAA&utm_campaign=yelp_api_v3&utm_medium=api_v3_business_search&utm_source=gJ2vrem5KxinHaV7_d8wAA", "review_count": 1266, "categories": [{"alias": "afghani", "title": "Afghan"}], "rating": 4.5, "coordinates": {"latitude": 37.512194, "longitude": -122.266481}, "transactions": [], "price": "$$", "location": {"address1": "135 El Camino Real", "address2": "", "address3": "", "city": "San Carlos", "zip_code": "94070", "country": "US", "state": "CA", "display_address": ["135 El Camino Real", "San Carlos, CA 94070"]}, "phone": "+16505942840", "display_phone": "(650) 594-2840", "distance": 1253.007080773511}, {"id": "VDDSkLrPRCeycvSSG_noTQ", "alias": "rangoon-ruby-san-carlos", "name": "Rangoon Ruby", "image_url": "https://s3-media4.fl.yelpcdn.com/bphoto/Xc-HdoktvKxRQWcs8mUfRg/o.jpg", "is_closed": false, "url": "https://www.yelp.com/biz/rangoon-ruby-san-carlos?adjust_creative=gJ2vrem5KxinHaV7_d8wAA&utm_campaign=yelp_api_v3&utm_medium=api_v3_business_search&utm_source=gJ2vrem5KxinHaV7_d8wAA", "review_count": 567, "categories": [{"alias": "burmese", "title": "Burmese"}, {"alias": "asianfusion", "title": "Asian Fusion"}, {"alias": "catering", "title": "Caterers"}], "rating": 3.5, "coordinates": {"latitude": 37.5052324653467, "longitude": -122.259946498145}, "transactions": ["pickup", "delivery", "restaurant_reservation"], "price": "$$", "location": {"address1": "680 Laurel St", "address2": "", "address3": "", "city": "San Carlos", "zip_code": "94070", "country": "US", "state": "CA", "display_address": ["680 Laurel St", "San Carlos, CA 94070"]}, "phone": "+16505921852", "display_phone": "(650) 592-1852", "distance": 323.6304631728054}, {"id": "fVtT4yx_bUkqGUnnKZfmAQ", "alias": "mayan-restaurant-san-carlos-2", "name": "Mayan Restaurant", "image_url": "https://s3-media1.fl.yelpcdn.com/bphoto/rv24xsL5Arz_95NLgzfj2g/o.jpg", "is_closed": false, "url": "https://www.yelp.com/biz/mayan-restaurant-san-carlos-2?adjust_creative=gJ2vrem5KxinHaV7_d8wAA&utm_campaign=yelp_api_v3&utm_medium=api_v3_business_search&utm_source=gJ2vrem5KxinHaV7_d8wAA", "review_count": 49, "categories": [{"alias": "mexican", "title": "Mexican"}], "rating": 4.5, "coordinates": {"latitude": 37.50656, "longitude": -122.260638}, "transactions": [], "price": "$$", "location": {"address1": "1163 San Carlos Ave", "address2": null, "address3": "", "city": "San Carlos", "zip_code": "94070", "country": "US", "state": "CA", "display_address": ["1163 San Carlos Ave", "San Carlos, CA 94070"]}, "phone": "+16508321683", "display_phone": "(650) 832-1683", "distance": 451.230577661172}, {"id": "sREhlgk1mkxe0xrhlPyrIA", "alias": "seiya-japanese-restaurant-san-carlos", "name": "Seiya Japanese Restaurant", "image_url": "https://s3-media1.fl.yelpcdn.com/bphoto/G3BFLG7NHI7TgWm-fWkc7g/o.jpg", "is_closed": false, "url": "https://www.yelp.com/biz/seiya-japanese-restaurant-san-carlos?adjust_creative=gJ2vrem5KxinHaV7_d8wAA&utm_campaign=yelp_api_v3&utm_medium=api_v3_business_search&utm_source=gJ2vrem5KxinHaV7_d8wAA", "review_count": 496, "categories": [{"alias": "japanese", "title": "Japanese"}, {"alias": "seafood", "title": "Seafood"}, {"alias": "sushi", "title": "Sushi Bars"}], "rating": 4.0, "coordinates": {"latitude": 37.5048, "longitude": -122.25867}, "transactions": ["pickup", "delivery"], "price": "$$$", "location": {"address1": "741 Laurel St", "address2": "", "address3": "", "city": "San Carlos", "zip_code": "94070", "country": "US", "state": "CA", "display_address": ["741 Laurel St", "San Carlos, CA 94070"]}, "phone": "+16505088888", "display_phone": "(650) 508-8888", "distance": 226.3113344968686}, {"id": "uMu3grYWk3ERsw8fXlFGvw", "alias": "panda-dumpling-san-carlos", "name": "Panda Dumpling", "image_url": "https://s3-media2.fl.yelpcdn.com/bphoto/sZJdWBat0c22wZ5iBOt7LQ/o.jpg", "is_closed": false, "url": "https://www.yelp.com/biz/panda-dumpling-san-carlos?adjust_creative=gJ2vrem5KxinHaV7_d8wAA&utm_campaign=yelp_api_v3&utm_medium=api_v3_business_search&utm_source=gJ2vrem5KxinHaV7_d8wAA", "review_count": 588, "categories": [{"alias": "chinese", "title": "Chinese"}], "rating": 4.0, "coordinates": {"latitude": 37.49904, "longitude": -122.25199}, "transactions": [], "price": "$$", "location": {"address1": "1195 Laurel St", "address2": "", "address3": "", "city": "San Carlos", "zip_code": "94070", "country": "US", "state": "CA", "display_address": ["1195 Laurel St", "San Carlos, CA 94070"]}, "phone": "+16505938888", "display_phone": "(650) 593-8888", "distance": 694.6470724541498}, {"id": "bnKsZLJChHEnFV9g7mkxnA", "alias": "yans-garden-san-carlos", "name": "Yan's Garden", "image_url": "https://s3-media2.fl.yelpcdn.com/bphoto/Tnt1ZJCFBMMH4Acs9HNmVg/o.jpg", "is_closed": false, "url": "https://www.yelp.com/biz/yans-garden-san-carlos?adjust_creative=gJ2vrem5KxinHaV7_d8wAA&utm_campaign=yelp_api_v3&utm_medium=api_v3_business_search&utm_source=gJ2vrem5KxinHaV7_d8wAA", "review_count": 339, "categories": [{"alias": "chinese", "title": "Chinese"}], "rating": 4.0, "coordinates": {"latitude": 37.5028084428936, "longitude": -122.256572279751}, "transactions": ["pickup", "delivery"], "price": "$$", "location": {"address1": "885 Laurel St", "address2": null, "address3": "", "city": "San Carlos", "zip_code": "94070", "country": "US", "state": "CA", "display_address": ["885 Laurel St", "San Carlos, CA 94070"]}, "phone": "+16505939777", "display_phone": "(650) 593-9777", "distance": 148.0640958024708}, {"id": "9rI2N7vOl35lTqBAGB-dlg", "alias": "west-park-bistro-san-carlos-5", "name": "West Park Bistro", "image_url": "https://s3-media2.fl.yelpcdn.com/bphoto/--aTR2flRDAcBL1Ktk_8CQ/o.jpg", "is_closed": false, "url": "https://www.yelp.com/biz/west-park-bistro-san-carlos-5?adjust_creative=gJ2vrem5KxinHaV7_d8wAA&utm_campaign=yelp_api_v3&utm_medium=api_v3_business_search&utm_source=gJ2vrem5KxinHaV7_d8wAA", "review_count": 269, "categories": [{"alias": "newamerican", "title": "American (New)"}], "rating": 4.0, "coordinates": {"latitude": 37.5038932, "longitude": -122.2584242}, "transactions": ["pickup"], "price": "$$$", "location": {"address1": "788 Laurel St", "address2": "", "address3": "", "city": "San Carlos", "zip_code": "94070", "country": "US", "state": "CA", "display_address": ["788 Laurel St", "San Carlos, CA 94070"]}, "phone": "+16504533313", "display_phone": "(650) 453-3313", "distance": 167.9327947301045}, {"id": "7ZMQ3Z-LgQyhbVvBQO3qug", "alias": "saffron-indian-bistro-san-carlos", "name": "Saffron Indian Bistro", "image_url": "https://s3-media2.fl.yelpcdn.com/bphoto/kWCJKu9vuTqGJk8Y1XWf2w/o.jpg", "is_closed": false, "url": "https://www.yelp.com/biz/saffron-indian-bistro-san-carlos?adjust_creative=gJ2vrem5KxinHaV7_d8wAA&utm_campaign=yelp_api_v3&utm_medium=api_v3_business_search&utm_source=gJ2vrem5KxinHaV7_d8wAA", "review_count": 942, "categories": [{"alias": "indpak", "title": "Indian"}], "rating": 3.5, "coordinates": {"latitude": 37.5067812, "longitude": -122.2606943}, "transactions": ["pickup", "delivery", "restaurant_reservation"], "price": "$$", "location": {"address1": "1143 San Carlos Ave", "address2": "", "address3": "", "city": "San Carlos", "zip_code": "94070", "country": "US", "state": "CA", "display_address": ["1143 San Carlos Ave", "San Carlos, CA 94070"]}, "phone": "+16505934269", "display_phone": "(650) 593-4269", "distance": 469.21235695872025}, {"id": "djeT3NLexRySkpSF-pKIcg", "alias": "888-italiano-ristorante-san-carlos-2", "name": "888 Italiano Ristorante", "image_url": "https://s3-media4.fl.yelpcdn.com/bphoto/iufpjPXRFhf0JUsexckbSg/o.jpg", "is_closed": false, "url": "https://www.yelp.com/biz/888-italiano-ristorante-san-carlos-2?adjust_creative=gJ2vrem5KxinHaV7_d8wAA&utm_campaign=yelp_api_v3&utm_medium=api_v3_business_search&utm_source=gJ2vrem5KxinHaV7_d8wAA", "review_count": 203, "categories": [{"alias": "italian", "title": "Italian"}, {"alias": "desserts", "title": "Desserts"}, {"alias": "wine_bars", "title": "Wine Bars"}], "rating": 4.0, "coordinates": {"latitude": 37.502574, "longitude": -122.256883}, "transactions": ["pickup", "delivery"], "price": "$$$", "location": {"address1": "888 Laurel St", "address2": "", "address3": "", "city": "San Carlos", "zip_code": "94070", "country": "US", "state": "CA", "display_address": ["888 Laurel St", "San Carlos, CA 94070"]}, "phone": "+16505910920", "display_phone": "(650) 591-0920", "distance": 168.36594363305247}, {"id": "sH6TpUdmO6EX7_HWy4_uKA", "alias": "emergency-bbq-san-carlos", "name": "Emergency BBQ", "image_url": "https://s3-media2.fl.yelpcdn.com/bphoto/zXrQjB05hjFtd8jUlH-Oaw/o.jpg", "is_closed": false, "url": "https://www.yelp.com/biz/emergency-bbq-san-carlos?adjust_creative=gJ2vrem5KxinHaV7_d8wAA&utm_campaign=yelp_api_v3&utm_medium=api_v3_business_search&utm_source=gJ2vrem5KxinHaV7_d8wAA", "review_count": 257, "categories": [{"alias": "bbq", "title": "Barbeque"}], "rating": 4.0, "coordinates": {"latitude": 37.5056141, "longitude": -122.2569233}, "transactions": [], "price": "$$", "location": {"address1": "765 Old County Rd", "address2": "", "address3": "", "city": "San Carlos", "zip_code": "94070", "country": "US", "state": "CA", "display_address": ["765 Old County Rd", "San Carlos, CA 94070"]}, "phone": "+16505929117", "display_phone": "(650) 592-9117", "distance": 175.8889623777715}, {"id": "wKA5p-m1KYyp7sLwTNRAyA", "alias": "3-pigs-bbq-san-carlos-3", "name": "3 Pigs BBQ", "image_url": "https://s3-media3.fl.yelpcdn.com/bphoto/_vmYwqFGitS7yGfBxy8GSA/o.jpg", "is_closed": false, "url": "https://www.yelp.com/biz/3-pigs-bbq-san-carlos-3?adjust_creative=gJ2vrem5KxinHaV7_d8wAA&utm_campaign=yelp_api_v3&utm_medium=api_v3_business_search&utm_source=gJ2vrem5KxinHaV7_d8wAA", "review_count": 656, "categories": [{"alias": "bbq", "title": "Barbeque"}, {"alias": "tradamerican", "title": "American (Traditional)"}], "rating": 4.0, "coordinates": {"latitude": 37.4936594308975, "longitude": -122.245919356314}, "transactions": ["pickup"], "price": "$$", "location": {"address1": "1754 Laurel St", "address2": "", "address3": "", "city": "San Carlos", "zip_code": "94070", "country": "US", "state": "CA", "display_address": ["1754 Laurel St", "San Carlos, CA 94070"]}, "phone": "+16505924227", "display_phone": "(650) 592-4227", "distance": 1495.63439490901}, {"id": "cYCXa_lfNmj-E7RiT11u6Q", "alias": "red-hot-chilli-pepper-san-carlos", "name": "Red Hot Chilli Pepper", "image_url": "https://s3-media4.fl.yelpcdn.com/bphoto/PUmvsVPC5g7GefjCcsz14A/o.jpg", "is_closed": false, "url": "https://www.yelp.com/biz/red-hot-chilli-pepper-san-carlos?adjust_creative=gJ2vrem5KxinHaV7_d8wAA&utm_campaign=yelp_api_v3&utm_medium=api_v3_business_search&utm_source=gJ2vrem5KxinHaV7_d8wAA", "review_count": 1209, "categories": [{"alias": "chinese", "title": "Chinese"}, {"alias": "asianfusion", "title": "Asian Fusion"}, {"alias": "indpak", "title": "Indian"}], "rating": 3.5, "coordinates": {"latitude": 37.5067563, "longitude": -122.2604517}, "transactions": ["pickup", "delivery", "restaurant_reservation"], "price": "$$", "location": {"address1": "1125 San Carlos Ave", "address2": "", "address3": "", "city": "San Carlos", "zip_code": "94070", "country": "US", "state": "CA", "display_address": ["1125 San Carlos Ave", "San Carlos, CA 94070"]}, "phone": "+16504533055", "display_phone": "(650) 453-3055", "distance": 450.93038991779326}, {"id": "wRQkNaBqUk3lWfaUd3flyA", "alias": "spoon-and-fork-belmont", "name": "Spoon & Fork", "image_url": "https://s3-media4.fl.yelpcdn.com/bphoto/ZekKdFjlhjNW2H5QR4fuyg/o.jpg", "is_closed": false, "url": "https://www.yelp.com/biz/spoon-and-fork-belmont?adjust_creative=gJ2vrem5KxinHaV7_d8wAA&utm_campaign=yelp_api_v3&utm_medium=api_v3_business_search&utm_source=gJ2vrem5KxinHaV7_d8wAA", "review_count": 69, "categories": [{"alias": "thai", "title": "Thai"}], "rating": 4.0, "coordinates": {"latitude": 37.516322, "longitude": -122.2714368}, "transactions": [], "price": "$$", "location": {"address1": "1480 El Camino Real", "address2": "", "address3": null, "city": "Belmont", "zip_code": "94002", "country": "US", "state": "CA", "display_address": ["1480 El Camino Real", "Belmont, CA 94002"]}, "phone": "+16508321517", "display_phone": "(650) 832-1517", "distance": 1886.8049680302322}, {"id": "35SXZ-4k3PJJFqtOpANH0A", "alias": "emelinas-peruvian-restaurant-san-carlos-2", "name": "Emelina's Peruvian Restaurant", "image_url": "https://s3-media2.fl.yelpcdn.com/bphoto/4FgVxWh7J5QsircZvHd-nA/o.jpg", "is_closed": false, "url": "https://www.yelp.com/biz/emelinas-peruvian-restaurant-san-carlos-2?adjust_creative=gJ2vrem5KxinHaV7_d8wAA&utm_campaign=yelp_api_v3&utm_medium=api_v3_business_search&utm_source=gJ2vrem5KxinHaV7_d8wAA", "review_count": 323, "categories": [{"alias": "peruvian", "title": "Peruvian"}, {"alias": "latin", "title": "Latin American"}, {"alias": "seafood", "title": "Seafood"}], "rating": 4.0, "coordinates": {"latitude": 37.5092855147669, "longitude": -122.260506333946}, "transactions": ["pickup"], "price": "$$", "location": {"address1": "1065 Holly St", "address2": "Ste D", "address3": "", "city": "San Carlos", "zip_code": "94070", "country": "US", "state": "CA", "display_address": ["1065 Holly St", "Ste D", "San Carlos, CA 94070"]}, "phone": "+16505911133", "display_phone": "(650) 591-1133", "distance": 670.3835242616724}, {"id": "4IOGdgeHuuY5ntSetpI_Rw", "alias": "farm-house-belmont-5", "name": "Farm House", "image_url": "https://s3-media4.fl.yelpcdn.com/bphoto/vzvDIipbkWx6qSjYuc5QPA/o.jpg", "is_closed": false, "url": "https://www.yelp.com/biz/farm-house-belmont-5?adjust_creative=gJ2vrem5KxinHaV7_d8wAA&utm_campaign=yelp_api_v3&utm_medium=api_v3_business_search&utm_source=gJ2vrem5KxinHaV7_d8wAA", "review_count": 304, "categories": [{"alias": "newamerican", "title": "American (New)"}, {"alias": "breakfast_brunch", "title": "Breakfast & Brunch"}, {"alias": "wine_bars", "title": "Wine Bars"}], "rating": 4.0, "coordinates": {"latitude": 37.5174066, "longitude": -122.2749972}, "transactions": [], "price": "$$", "location": {"address1": "1301 Sixth Ave", "address2": null, "address3": "", "city": "Belmont", "zip_code": "94002", "country": "US", "state": "CA", "display_address": ["1301 Sixth Ave", "Belmont, CA 94002"]}, "phone": "+16505937311", "display_phone": "(650) 593-7311", "distance": 2191.4120231451384}, {"id": "DFkOjgYOmOXqBa5jSAoUWA", "alias": "agora-greek-and-mediterranean-cuisine-san-carlos-2", "name": "Agora Greek & Mediterranean Cuisine", "image_url": "https://s3-media2.fl.yelpcdn.com/bphoto/Ta4ie1qbO31WGsFnztiCag/o.jpg", "is_closed": false, "url": "https://www.yelp.com/biz/agora-greek-and-mediterranean-cuisine-san-carlos-2?adjust_creative=gJ2vrem5KxinHaV7_d8wAA&utm_campaign=yelp_api_v3&utm_medium=api_v3_business_search&utm_source=gJ2vrem5KxinHaV7_d8wAA", "review_count": 228, "categories": [{"alias": "greek", "title": "Greek"}, {"alias": "mediterranean", "title": "Mediterranean"}], "rating": 4.0, "coordinates": {"latitude": 37.50703, "longitude": -122.26105}, "transactions": ["pickup", "delivery"], "price": "$$", "location": {"address1": "1152 San Carlos Ave", "address2": "", "address3": null, "city": "San Carlos", "zip_code": "94070", "country": "US", "state": "CA", "display_address": ["1152 San Carlos Ave", "San Carlos, CA 94070"]}, "phone": "+16502327877", "display_phone": "(650) 232-7877", "distance": 506.66009845972354}, {"id": "yyQfc5Pjr3wlCfO8KEdfBA", "alias": "shiki-bistro-san-carlos", "name": "Shiki Bistro", "image_url": "https://s3-media4.fl.yelpcdn.com/bphoto/rjQtbYrBg2WZWZl4oj0vuA/o.jpg", "is_closed": false, "url": "https://www.yelp.com/biz/shiki-bistro-san-carlos?adjust_creative=gJ2vrem5KxinHaV7_d8wAA&utm_campaign=yelp_api_v3&utm_medium=api_v3_business_search&utm_source=gJ2vrem5KxinHaV7_d8wAA", "review_count": 406, "categories": [{"alias": "japanese", "title": "Japanese"}, {"alias": "sushi", "title": "Sushi Bars"}], "rating": 3.5, "coordinates": {"latitude": 37.50356, "longitude": -122.25718}, "transactions": ["restaurant_reservation"], "price": "$$", "location": {"address1": "825 Laurel St", "address2": "", "address3": "", "city": "San Carlos", "zip_code": "94070", "country": "US", "state": "CA", "display_address": ["825 Laurel St", "San Carlos, CA 94070"]}, "phone": "+16505932275", "display_phone": "(650) 593-2275", "distance": 92.07884023605699}, {"id": "BAA2DbAKbfLyYzp2zDQR5w", "alias": "san-carlos-bar-and-grill-san-carlos", "name": "San Carlos Bar & Grill", "image_url": "https://s3-media3.fl.yelpcdn.com/bphoto/wCcj6yoMp500d01QsPDpow/o.jpg", "is_closed": false, "url": "https://www.yelp.com/biz/san-carlos-bar-and-grill-san-carlos?adjust_creative=gJ2vrem5KxinHaV7_d8wAA&utm_campaign=yelp_api_v3&utm_medium=api_v3_business_search&utm_source=gJ2vrem5KxinHaV7_d8wAA", "review_count": 279, "categories": [{"alias": "mexican", "title": "Mexican"}, {"alias": "seafood", "title": "Seafood"}, {"alias": "bars", "title": "Bars"}], "rating": 4.0, "coordinates": {"latitude": 37.5062964022202, "longitude": -122.259499886836}, "transactions": ["pickup", "delivery"], "price": "$$", "location": {"address1": "648 El Camino Real", "address2": null, "address3": "", "city": "San Carlos", "zip_code": "94070", "country": "US", "state": "CA", "display_address": ["648 El Camino Real", "San Carlos, CA 94070"]}, "phone": "+16505937019", "display_phone": "(650) 593-7019", "distance": 354.11201357713946}, {"id": "USkhY8AMdWHKEHYatEHxcg", "alias": "the-toss-san-carlos", "name": "The Toss", "image_url": "https://s3-media2.fl.yelpcdn.com/bphoto/ggopwEw7eDgxnaK9JH99NA/o.jpg", "is_closed": false, "url": "https://www.yelp.com/biz/the-toss-san-carlos?adjust_creative=gJ2vrem5KxinHaV7_d8wAA&utm_campaign=yelp_api_v3&utm_medium=api_v3_business_search&utm_source=gJ2vrem5KxinHaV7_d8wAA", "review_count": 180, "categories": [{"alias": "salad", "title": "Salad"}, {"alias": "soup", "title": "Soup"}], "rating": 4.5, "coordinates": {"latitude": 37.4944345, "longitude": -122.2464864}, "transactions": ["pickup", "delivery"], "price": "$$", "location": {"address1": "1673 Laurel St", "address2": "", "address3": null, "city": "San Carlos", "zip_code": "94070", "country": "US", "state": "CA", "display_address": ["1673 Laurel St", "San Carlos, CA 94070"]}, "phone": "+16504861520", "display_phone": "(650) 486-1520", "distance": 1383.9222668620118}, {"id": "shNPUuTFMWDqsJ_WiISmrg", "alias": "el-maguey-taqueria-san-carlos", "name": "El Maguey Taqueria", "image_url": "https://s3-media1.fl.yelpcdn.com/bphoto/BzzOA-6_gCOtKnDGl3HF8w/o.jpg", "is_closed": false, "url": "https://www.yelp.com/biz/el-maguey-taqueria-san-carlos?adjust_creative=gJ2vrem5KxinHaV7_d8wAA&utm_campaign=yelp_api_v3&utm_medium=api_v3_business_search&utm_source=gJ2vrem5KxinHaV7_d8wAA", "review_count": 339, "categories": [{"alias": "mexican", "title": "Mexican"}], "rating": 4.5, "coordinates": {"latitude": 37.509181, "longitude": -122.26065}, "transactions": [], "price": "$", "location": {"address1": "1065 Holly St", "address2": "Ste B", "address3": "", "city": "San Carlos", "zip_code": "94070", "country": "US", "state": "CA", "display_address": ["1065 Holly St", "Ste B", "San Carlos, CA 94070"]}, "phone": "+16505913520", "display_phone": "(650) 591-3520", "distance": 667.2817329259456}, {"id": "G9Slc9RL25KslNMqGH_mMw", "alias": "mints-and-honey-san-carlos-3", "name": "Mints & Honey", "image_url": "https://s3-media2.fl.yelpcdn.com/bphoto/1cxrngrTjlliT8ZpR7zUKg/o.jpg", "is_closed": false, "url": "https://www.yelp.com/biz/mints-and-honey-san-carlos-3?adjust_creative=gJ2vrem5KxinHaV7_d8wAA&utm_campaign=yelp_api_v3&utm_medium=api_v3_business_search&utm_source=gJ2vrem5KxinHaV7_d8wAA", "review_count": 492, "categories": [{"alias": "venues", "title": "Venues & Event Spaces"}, {"alias": "coffee", "title": "Coffee & Tea"}, {"alias": "breakfast_brunch", "title": "Breakfast & Brunch"}], "rating": 4.5, "coordinates": {"latitude": 37.49613, "longitude": -122.2477}, "transactions": ["pickup", "delivery"], "price": "$$", "location": {"address1": "1524 El Camino Real", "address2": "", "address3": "", "city": "San Carlos", "zip_code": "94070", "country": "US", "state": "CA", "display_address": ["1524 El Camino Real", "San Carlos, CA 94070"]}, "phone": "+16505540515", "display_phone": "(650) 554-0515", "distance": 1181.7609764587035}, {"id": "pGzJDewuXbLJT9HKiX4ScA", "alias": "the-cask-san-carlos", "name": "The Cask", "image_url": "https://s3-media4.fl.yelpcdn.com/bphoto/eAnk_NwbGJQaOUa7e-68Gw/o.jpg", "is_closed": false, "url": "https://www.yelp.com/biz/the-cask-san-carlos?adjust_creative=gJ2vrem5KxinHaV7_d8wAA&utm_campaign=yelp_api_v3&utm_medium=api_v3_business_search&utm_source=gJ2vrem5KxinHaV7_d8wAA", "review_count": 330, "categories": [{"alias": "wine_bars", "title": "Wine Bars"}, {"alias": "newamerican", "title": "American (New)"}, {"alias": "burgers", "title": "Burgers"}], "rating": 3.5, "coordinates": {"latitude": 37.50393, "longitude": -122.25851}, "transactions": ["pickup"], "price": "$$", "location": {"address1": "782 Laurel St", "address2": "", "address3": "", "city": "San Carlos", "zip_code": "94070", "country": "US", "state": "CA", "display_address": ["782 Laurel St", "San Carlos, CA 94070"]}, "phone": "+16506100438", "display_phone": "(650) 610-0438", "distance": 176.44714162281426}, {"id": "W4NaG7rQzxWi_x3ZW1atiA", "alias": "the-grill-house-redwood-city", "name": "The Grill House", "image_url": "https://s3-media1.fl.yelpcdn.com/bphoto/koYGiEb10yjyYXJKtXTQEA/o.jpg", "is_closed": false, "url": "https://www.yelp.com/biz/the-grill-house-redwood-city?adjust_creative=gJ2vrem5KxinHaV7_d8wAA&utm_campaign=yelp_api_v3&utm_medium=api_v3_business_search&utm_source=gJ2vrem5KxinHaV7_d8wAA", "review_count": 340, "categories": [{"alias": "bbq", "title": "Barbeque"}, {"alias": "beerbar", "title": "Beer Bar"}, {"alias": "burgers", "title": "Burgers"}], "rating": 4.0, "coordinates": {"latitude": 37.5218127, "longitude": -122.2527064}, "transactions": [], "price": "$$", "location": {"address1": "246 Redwood Shores Pkwy", "address2": "", "address3": "", "city": "Redwood City", "zip_code": "94065", "country": "US", "state": "CA", "display_address": ["246 Redwood Shores Pkwy", "Redwood City, CA 94065"]}, "phone": "+16502648017", "display_phone": "(650) 264-8017", "distance": 2047.1741274894912}, {"id": "Qwp4qfJGUdvxY6G9RDN9Zw", "alias": "sumac-mediterranean-grill-belmont-6", "name": "Sumac Mediterranean Grill", "image_url": "https://s3-media3.fl.yelpcdn.com/bphoto/gZInjON3jB7eIdoBqQg-QA/o.jpg", "is_closed": false, "url": "https://www.yelp.com/biz/sumac-mediterranean-grill-belmont-6?adjust_creative=gJ2vrem5KxinHaV7_d8wAA&utm_campaign=yelp_api_v3&utm_medium=api_v3_business_search&utm_source=gJ2vrem5KxinHaV7_d8wAA", "review_count": 383, "categories": [{"alias": "mediterranean", "title": "Mediterranean"}, {"alias": "greek", "title": "Greek"}], "rating": 4.5, "coordinates": {"latitude": 37.5174230273066, "longitude": -122.272085480694}, "transactions": ["pickup", "delivery"], "price": "$$", "location": {"address1": "1397 El Camino Real", "address2": null, "address3": "", "city": "Belmont", "zip_code": "94002", "country": "US", "state": "CA", "display_address": ["1397 El Camino Real", "Belmont, CA 94002"]}, "phone": "+16505922107", "display_phone": "(650) 592-2107", "distance": 2015.0061784312504}, {"id": "Wm6tcuiGCiNQqWN-00FG1Q", "alias": "siamese-kitchen-san-carlos", "name": "Siamese Kitchen", "image_url": "https://s3-media1.fl.yelpcdn.com/bphoto/1eO-1ZJgFvuuWbTuke8JIQ/o.jpg", "is_closed": false, "url": "https://www.yelp.com/biz/siamese-kitchen-san-carlos?adjust_creative=gJ2vrem5KxinHaV7_d8wAA&utm_campaign=yelp_api_v3&utm_medium=api_v3_business_search&utm_source=gJ2vrem5KxinHaV7_d8wAA", "review_count": 236, "categories": [{"alias": "thai", "title": "Thai"}], "rating": 4.0, "coordinates": {"latitude": 37.5060002, "longitude": -122.2603456}, "transactions": [], "price": "$$", "location": {"address1": "637 Laurel St", "address2": "", "address3": "", "city": "San Carlos", "zip_code": "94070", "country": "US", "state": "CA", "display_address": ["637 Laurel St", "San Carlos, CA 94070"]}, "phone": "+16505923277", "display_phone": "(650) 592-3277", "distance": 382.36728858847886}, {"id": "J8Fa82Leo_Um3rpi3eT7pg", "alias": "blue-line-pizza-san-carlos", "name": "Blue Line Pizza", "image_url": "https://s3-media2.fl.yelpcdn.com/bphoto/d499LQDBnKC9_CLWbhpbfw/o.jpg", "is_closed": false, "url": "https://www.yelp.com/biz/blue-line-pizza-san-carlos?adjust_creative=gJ2vrem5KxinHaV7_d8wAA&utm_campaign=yelp_api_v3&utm_medium=api_v3_business_search&utm_source=gJ2vrem5KxinHaV7_d8wAA", "review_count": 381, "categories": [{"alias": "pizza", "title": "Pizza"}, {"alias": "salad", "title": "Salad"}, {"alias": "gluten_free", "title": "Gluten-Free"}], "rating": 4.0, "coordinates": {"latitude": 37.5062026977539, "longitude": -122.261192321777}, "transactions": [], "price": "$$", "location": {"address1": "1201 San Carlos Ave", "address2": null, "address3": "", "city": "San Carlos", "zip_code": "94070", "country": "US", "state": "CA", "display_address": ["1201 San Carlos Ave", "San Carlos, CA 94070"]}, "phone": "+16506100200", "display_phone": "(650) 610-0200", "distance": 469.67411424267584}, {"id": "WildwZK_MrC-nIxrtzOEng", "alias": "osteria-at-domenico-winery-san-carlos", "name": "Osteria at Domenico Winery", "image_url": "https://s3-media3.fl.yelpcdn.com/bphoto/H-ycV1Hlwfc-lyfH446uuw/o.jpg", "is_closed": false, "url": "https://www.yelp.com/biz/osteria-at-domenico-winery-san-carlos?adjust_creative=gJ2vrem5KxinHaV7_d8wAA&utm_campaign=yelp_api_v3&utm_medium=api_v3_business_search&utm_source=gJ2vrem5KxinHaV7_d8wAA", "review_count": 19, "categories": [{"alias": "italian", "title": "Italian"}, {"alias": "wine_bars", "title": "Wine Bars"}, {"alias": "winetastingroom", "title": "Wine Tasting Room"}], "rating": 4.5, "coordinates": {"latitude": 37.49917, "longitude": -122.24154}, "transactions": [], "location": {"address1": "1697 Industrial Rd", "address2": "", "address3": "Domenico Winery", "city": "San Carlos", "zip_code": "94070", "country": "US", "state": "CA", "display_address": ["1697 Industrial Rd", "Domenico Winery", "San Carlos, CA 94070"]}, "phone": "+16505932335", "display_phone": "(650) 593-2335", "distance": 1435.2753827987895}, {"id": "DW9d8HfWfIfc8dqpZp-F7Q", "alias": "wine-gallery-san-carlos-3", "name": "Wine Gallery", "image_url": "https://s3-media1.fl.yelpcdn.com/bphoto/w32rZQMdpbZ6aOdDjcAzRQ/o.jpg", "is_closed": false, "url": "https://www.yelp.com/biz/wine-gallery-san-carlos-3?adjust_creative=gJ2vrem5KxinHaV7_d8wAA&utm_campaign=yelp_api_v3&utm_medium=api_v3_business_search&utm_source=gJ2vrem5KxinHaV7_d8wAA", "review_count": 47, "categories": [{"alias": "wine_bars", "title": "Wine Bars"}, {"alias": "lounges", "title": "Lounges"}, {"alias": "tapasmallplates", "title": "Tapas/Small Plates"}], "rating": 5.0, "coordinates": {"latitude": 37.50259, "longitude": -122.25686}, "transactions": [], "price": "$$", "location": {"address1": "890 Laurel St", "address2": null, "address3": "", "city": "San Carlos", "zip_code": "94070", "country": "US", "state": "CA", "display_address": ["890 Laurel St", "San Carlos, CA 94070"]}, "phone": "+16504861740", "display_phone": "(650) 486-1740", "distance": 170.7038357777129}, {"id": "a6YM6lvO5ATmvnX3Ozdq9Q", "alias": "hot-wok-bistro-too-san-carlos-2", "name": "Hot Wok Bistro Too", "image_url": "https://s3-media1.fl.yelpcdn.com/bphoto/JeGbwhkzpWZ2kkHUzFGaTQ/o.jpg", "is_closed": false, "url": "https://www.yelp.com/biz/hot-wok-bistro-too-san-carlos-2?adjust_creative=gJ2vrem5KxinHaV7_d8wAA&utm_campaign=yelp_api_v3&utm_medium=api_v3_business_search&utm_source=gJ2vrem5KxinHaV7_d8wAA", "review_count": 245, "categories": [{"alias": "chinese", "title": "Chinese"}], "rating": 4.0, "coordinates": {"latitude": 37.4957223292802, "longitude": -122.248010847522}, "transactions": ["pickup"], "price": "$", "location": {"address1": "1541 Laurel St", "address2": null, "address3": "", "city": "San Carlos", "zip_code": "94070", "country": "US", "state": "CA", "display_address": ["1541 Laurel St", "San Carlos, CA 94070"]}, "phone": "+16506224979", "display_phone": "(650) 622-4979", "distance": 1201.2475518695467}, {"id": "20vWBsWzv7PSkJ02W7wa7w", "alias": "the-iron-gate-belmont", "name": "The Iron Gate", "image_url": "https://s3-media3.fl.yelpcdn.com/bphoto/xq1TBxK8M9RCpKzFeEr6dg/o.jpg", "is_closed": false, "url": "https://www.yelp.com/biz/the-iron-gate-belmont?adjust_creative=gJ2vrem5KxinHaV7_d8wAA&utm_campaign=yelp_api_v3&utm_medium=api_v3_business_search&utm_source=gJ2vrem5KxinHaV7_d8wAA", "review_count": 476, "categories": [{"alias": "french", "title": "French"}, {"alias": "tradamerican", "title": "American (Traditional)"}], "rating": 4.0, "coordinates": {"latitude": 37.51756, "longitude": -122.27305}, "transactions": [], "price": "$$$", "location": {"address1": "1360 El Camino Real", "address2": "", "address3": "", "city": "Belmont", "zip_code": "94002", "country": "US", "state": "CA", "display_address": ["1360 El Camino Real", "Belmont, CA 94002"]}, "phone": "+16505927893", "display_phone": "(650) 592-7893", "distance": 2072.5785837954736}, {"id": "xj75H5C7QL_4GMH9c_TZNQ", "alias": "my-breakfast-house-san-carlos", "name": "My Breakfast House", "image_url": "https://s3-media3.fl.yelpcdn.com/bphoto/7VXk8qpqJ9oGQjYeylCvJA/o.jpg", "is_closed": false, "url": "https://www.yelp.com/biz/my-breakfast-house-san-carlos?adjust_creative=gJ2vrem5KxinHaV7_d8wAA&utm_campaign=yelp_api_v3&utm_medium=api_v3_business_search&utm_source=gJ2vrem5KxinHaV7_d8wAA", "review_count": 319, "categories": [{"alias": "breakfast_brunch", "title": "Breakfast & Brunch"}], "rating": 4.0, "coordinates": {"latitude": 37.4997711181641, "longitude": -122.252647399902}, "transactions": [], "price": "$$", "location": {"address1": "1137 Laurel St", "address2": "", "address3": "", "city": "San Carlos", "zip_code": "94070", "country": "US", "state": "CA", "display_address": ["1137 Laurel St", "San Carlos, CA 94070"]}, "phone": "+16505987600", "display_phone": "(650) 598-7600", "distance": 596.1260596208771}, {"id": "zBNZGTjQFBdIjHfhRcQ2wQ", "alias": "godfathers-burger-lounge-belmont", "name": "Godfather's Burger Lounge", "image_url": "https://s3-media1.fl.yelpcdn.com/bphoto/4xRxv9iOCgHbj0TYSH3ciA/o.jpg", "is_closed": false, "url": "https://www.yelp.com/biz/godfathers-burger-lounge-belmont?adjust_creative=gJ2vrem5KxinHaV7_d8wAA&utm_campaign=yelp_api_v3&utm_medium=api_v3_business_search&utm_source=gJ2vrem5KxinHaV7_d8wAA", "review_count": 1585, "categories": [{"alias": "burgers", "title": "Burgers"}, {"alias": "newamerican", "title": "American (New)"}], "rating": 4.0, "coordinates": {"latitude": 37.5161166, "longitude": -122.2710947}, "transactions": ["delivery", "pickup"], "price": "$$", "location": {"address1": "1500 El Camino Real", "address2": "", "address3": "", "city": "Belmont", "zip_code": "94002", "country": "US", "state": "CA", "display_address": ["1500 El Camino Real", "Belmont, CA 94002"]}, "phone": "+16506379257", "display_phone": "(650) 637-9257", "distance": 1849.412911879902}, {"id": "_N6SyCvNVyysgLg0I-8usQ", "alias": "blue-sky-caf\u00e9-belmont-3", "name": "Blue Sky Caf\u00e9", "image_url": "https://s3-media3.fl.yelpcdn.com/bphoto/dV_vvmSyyd4qBC54Yw_VCw/o.jpg", "is_closed": false, "url": "https://www.yelp.com/biz/blue-sky-caf%C3%A9-belmont-3?adjust_creative=gJ2vrem5KxinHaV7_d8wAA&utm_campaign=yelp_api_v3&utm_medium=api_v3_business_search&utm_source=gJ2vrem5KxinHaV7_d8wAA", "review_count": 254, "categories": [{"alias": "chinese", "title": "Chinese"}], "rating": 4.0, "coordinates": {"latitude": 37.51447, "longitude": -122.268369}, "transactions": [], "price": "$$", "location": {"address1": "1625 El Camino Real", "address2": "Ste 9", "address3": "", "city": "Belmont", "zip_code": "94002", "country": "US", "state": "CA", "display_address": ["1625 El Camino Real", "Ste 9", "Belmont, CA 94002"]}, "phone": "+16505950228", "display_phone": "(650) 595-0228", "distance": 1551.4390698373218}, {"id": "JgV24XyoBtK2MhmGkW2gBQ", "alias": "sneakers-american-grill-san-carlos", "name": "Sneakers American Grill", "image_url": "https://s3-media1.fl.yelpcdn.com/bphoto/HHItuvO1nEwFqlMsVcg_QQ/o.jpg", "is_closed": false, "url": "https://www.yelp.com/biz/sneakers-american-grill-san-carlos?adjust_creative=gJ2vrem5KxinHaV7_d8wAA&utm_campaign=yelp_api_v3&utm_medium=api_v3_business_search&utm_source=gJ2vrem5KxinHaV7_d8wAA", "review_count": 142, "categories": [{"alias": "tradamerican", "title": "American (Traditional)"}, {"alias": "pubs", "title": "Pubs"}, {"alias": "tex-mex", "title": "Tex-Mex"}], "rating": 3.0, "coordinates": {"latitude": 37.5056831, "longitude": -122.2604194}, "transactions": [], "price": "$$", "location": {"address1": "650 Laurel St", "address2": "", "address3": null, "city": "San Carlos", "zip_code": "94070", "country": "US", "state": "CA", "display_address": ["650 Laurel St", "San Carlos, CA 94070"]}, "phone": "+16508020177", "display_phone": "(650) 802-0177", "distance": 377.4951234355372}, {"id": "aaDMjwSVAMXHCpS5VAm0Hw", "alias": "sirayvah-organic-thai-san-carlos-2", "name": "Sirayvah Organic Thai", "image_url": "https://s3-media2.fl.yelpcdn.com/bphoto/SCXu0NZxOGMQNjMnEIfIHg/o.jpg", "is_closed": false, "url": "https://www.yelp.com/biz/sirayvah-organic-thai-san-carlos-2?adjust_creative=gJ2vrem5KxinHaV7_d8wAA&utm_campaign=yelp_api_v3&utm_medium=api_v3_business_search&utm_source=gJ2vrem5KxinHaV7_d8wAA", "review_count": 408, "categories": [{"alias": "thai", "title": "Thai"}, {"alias": "desserts", "title": "Desserts"}, {"alias": "seafood", "title": "Seafood"}], "rating": 3.5, "coordinates": {"latitude": 37.509564, "longitude": -122.263426}, "transactions": ["delivery", "pickup"], "price": "$$", "location": {"address1": "366 El Camino Real", "address2": "", "address3": "", "city": "San Carlos", "zip_code": "94070", "country": "US", "state": "CA", "display_address": ["366 El Camino Real", "San Carlos, CA 94070"]}, "phone": "+16506371500", "display_phone": "(650) 637-1500", "distance": 854.2013247221563}, {"id": "kO980r26wvu7g8SbZHKX5A", "alias": "pho-vinh-san-carlos-3", "name": "Pho Vinh", "image_url": "https://s3-media1.fl.yelpcdn.com/bphoto/cwhsxM-xKlTCS5mQ5nfL9g/o.jpg", "is_closed": false, "url": "https://www.yelp.com/biz/pho-vinh-san-carlos-3?adjust_creative=gJ2vrem5KxinHaV7_d8wAA&utm_campaign=yelp_api_v3&utm_medium=api_v3_business_search&utm_source=gJ2vrem5KxinHaV7_d8wAA", "review_count": 313, "categories": [{"alias": "vietnamese", "title": "Vietnamese"}, {"alias": "comfortfood", "title": "Comfort Food"}, {"alias": "seafood", "title": "Seafood"}], "rating": 3.5, "coordinates": {"latitude": 37.5091881, "longitude": -122.2607236}, "transactions": ["delivery", "pickup"], "price": "$", "location": {"address1": "1065 Holly St", "address2": "Ste A", "address3": "", "city": "San Carlos", "zip_code": "94070", "country": "US", "state": "CA", "display_address": ["1065 Holly St", "Ste A", "San Carlos, CA 94070"]}, "phone": "+16506379238", "display_phone": "(650) 637-9238", "distance": 671.4858080175638}, {"id": "5Lkd8n47QVTfsrbZeOqhnw", "alias": "patxis-pizza-san-carlos", "name": "Patxi's Pizza", "image_url": "https://s3-media2.fl.yelpcdn.com/bphoto/8UUCc4S4dpmxXI2zhb_9nQ/o.jpg", "is_closed": false, "url": "https://www.yelp.com/biz/patxis-pizza-san-carlos?adjust_creative=gJ2vrem5KxinHaV7_d8wAA&utm_campaign=yelp_api_v3&utm_medium=api_v3_business_search&utm_source=gJ2vrem5KxinHaV7_d8wAA", "review_count": 410, "categories": [{"alias": "pizza", "title": "Pizza"}, {"alias": "italian", "title": "Italian"}, {"alias": "salad", "title": "Salad"}], "rating": 3.0, "coordinates": {"latitude": 37.5055466373758, "longitude": -122.259812571953}, "transactions": ["pickup"], "price": "$$", "location": {"address1": "677 Laurel St", "address2": "", "address3": "", "city": "San Carlos", "zip_code": "94070", "country": "US", "state": "CA", "display_address": ["677 Laurel St", "San Carlos, CA 94070"]}, "phone": "+16508321112", "display_phone": "(650) 832-1112", "distance": 327.86809063749234}, {"id": "1xCh-ru7ILYC8imYyjnZxg", "alias": "the-crepe-stop-san-carlos-2", "name": "The Crepe Stop", "image_url": "https://s3-media3.fl.yelpcdn.com/bphoto/sF2c7u0xnlS7O14d5xHZFw/o.jpg", "is_closed": false, "url": "https://www.yelp.com/biz/the-crepe-stop-san-carlos-2?adjust_creative=gJ2vrem5KxinHaV7_d8wAA&utm_campaign=yelp_api_v3&utm_medium=api_v3_business_search&utm_source=gJ2vrem5KxinHaV7_d8wAA", "review_count": 188, "categories": [{"alias": "creperies", "title": "Creperies"}, {"alias": "gelato", "title": "Gelato"}, {"alias": "waffles", "title": "Waffles"}], "rating": 4.0, "coordinates": {"latitude": 37.5029, "longitude": -122.25724}, "transactions": ["pickup"], "price": "$", "location": {"address1": "852 Laurel St", "address2": null, "address3": "", "city": "San Carlos", "zip_code": "94070", "country": "US", "state": "CA", "display_address": ["852 Laurel St", "San Carlos, CA 94070"]}, "phone": "+16502648126", "display_phone": "(650) 264-8126", "distance": 148.44666167525568}, {"id": "wUD62Cn72RzRKyAjQuYeAw", "alias": "kaya-bbq-and-tofu-san-carlos-2", "name": "Kaya BBQ & Tofu", "image_url": "https://s3-media1.fl.yelpcdn.com/bphoto/sN5TY3R1fxvdm9saU_iWSw/o.jpg", "is_closed": false, "url": "https://www.yelp.com/biz/kaya-bbq-and-tofu-san-carlos-2?adjust_creative=gJ2vrem5KxinHaV7_d8wAA&utm_campaign=yelp_api_v3&utm_medium=api_v3_business_search&utm_source=gJ2vrem5KxinHaV7_d8wAA", "review_count": 94, "categories": [{"alias": "korean", "title": "Korean"}, {"alias": "bbq", "title": "Barbeque"}, {"alias": "seafood", "title": "Seafood"}], "rating": 3.5, "coordinates": {"latitude": 37.5129547984714, "longitude": -122.26632177813}, "transactions": [], "price": "$$", "location": {"address1": "39 El Camino Real", "address2": "", "address3": null, "city": "San Carlos", "zip_code": "94070", "country": "US", "state": "CA", "display_address": ["39 El Camino Real", "San Carlos, CA 94070"]}, "phone": "+16505959292", "display_phone": "(650) 595-9292", "distance": 1305.4822744800624}, {"id": "JkFwcwAda2cYUuD3Djtfxw", "alias": "taqueria-el-metate-belmont", "name": "Taqueria El Metate", "image_url": "https://s3-media4.fl.yelpcdn.com/bphoto/CU1JEhh41qrIPOV3Ny6DEA/o.jpg", "is_closed": false, "url": "https://www.yelp.com/biz/taqueria-el-metate-belmont?adjust_creative=gJ2vrem5KxinHaV7_d8wAA&utm_campaign=yelp_api_v3&utm_medium=api_v3_business_search&utm_source=gJ2vrem5KxinHaV7_d8wAA", "review_count": 440, "categories": [{"alias": "mexican", "title": "Mexican"}], "rating": 4.0, "coordinates": {"latitude": 37.52181, "longitude": -122.26688}, "transactions": [], "price": "$", "location": {"address1": "120 Harbor Blvd", "address2": "", "address3": "", "city": "Belmont", "zip_code": "94002", "country": "US", "state": "CA", "display_address": ["120 Harbor Blvd", "Belmont, CA 94002"]}, "phone": "+16505951110", "display_phone": "(650) 595-1110", "distance": 2165.7486976245727}, {"id": "Kz_L97nCIyzS4lwbIsw-ZA", "alias": "santorini-san-carlos", "name": "Santorini", "image_url": "https://s3-media2.fl.yelpcdn.com/bphoto/9fJDRPyJ2J95ayEgnuv0Nw/o.jpg", "is_closed": false, "url": "https://www.yelp.com/biz/santorini-san-carlos?adjust_creative=gJ2vrem5KxinHaV7_d8wAA&utm_campaign=yelp_api_v3&utm_medium=api_v3_business_search&utm_source=gJ2vrem5KxinHaV7_d8wAA", "review_count": 306, "categories": [{"alias": "greek", "title": "Greek"}, {"alias": "mediterranean", "title": "Mediterranean"}, {"alias": "wraps", "title": "Wraps"}], "rating": 3.5, "coordinates": {"latitude": 37.504645993392, "longitude": -122.2586795939}, "transactions": ["pickup"], "price": "$$", "location": {"address1": "753 Laurel St", "address2": "", "address3": "", "city": "San Carlos", "zip_code": "94070", "country": "US", "state": "CA", "display_address": ["753 Laurel St", "San Carlos, CA 94070"]}, "phone": "+16506378283", "display_phone": "(650) 637-8283", "distance": 196.44057790184917}, {"id": "abSjSZ-x2gwORMPEJKx3PQ", "alias": "ryu-sushi-bistro-san-carlos", "name": "Ryu Sushi Bistro", "image_url": "https://s3-media2.fl.yelpcdn.com/bphoto/97qjmroXM7xWRqWKCa5a0g/o.jpg", "is_closed": false, "url": "https://www.yelp.com/biz/ryu-sushi-bistro-san-carlos?adjust_creative=gJ2vrem5KxinHaV7_d8wAA&utm_campaign=yelp_api_v3&utm_medium=api_v3_business_search&utm_source=gJ2vrem5KxinHaV7_d8wAA", "review_count": 210, "categories": [{"alias": "japanese", "title": "Japanese"}, {"alias": "sushi", "title": "Sushi Bars"}], "rating": 4.0, "coordinates": {"latitude": 37.498729, "longitude": -122.251635}, "transactions": ["pickup"], "price": "$$", "location": {"address1": "1201 Laurel St", "address2": "", "address3": "", "city": "San Carlos", "zip_code": "94070", "country": "US", "state": "CA", "display_address": ["1201 Laurel St", "San Carlos, CA 94070"]}, "phone": "+16505088800", "display_phone": "(650) 508-8800", "distance": 741.402819666564}, {"id": "tI73pn0I7k3qyPrlWCaqkA", "alias": "king-chuan-restaurant-san-carlos", "name": "King Chuan Restaurant", "image_url": "https://s3-media2.fl.yelpcdn.com/bphoto/sc-6WUFxgicW_cQ7sMjdgQ/o.jpg", "is_closed": false, "url": "https://www.yelp.com/biz/king-chuan-restaurant-san-carlos?adjust_creative=gJ2vrem5KxinHaV7_d8wAA&utm_campaign=yelp_api_v3&utm_medium=api_v3_business_search&utm_source=gJ2vrem5KxinHaV7_d8wAA", "review_count": 244, "categories": [{"alias": "chinese", "title": "Chinese"}], "rating": 3.5, "coordinates": {"latitude": 37.5068016, "longitude": -122.2613068}, "transactions": ["pickup", "delivery"], "price": "$$", "location": {"address1": "1188 San Carlos Ave", "address2": "", "address3": "", "city": "San Carlos", "zip_code": "94070", "country": "US", "state": "CA", "display_address": ["1188 San Carlos Ave", "San Carlos, CA 94070"]}, "phone": "+16505931035", "display_phone": "(650) 593-1035", "distance": 510.02528102505994}, {"id": "BsN_ypeZd6SRC3fe42F6bA", "alias": "the-office-bar-and-grill-san-carlos", "name": "The Office Bar & Grill", "image_url": "https://s3-media3.fl.yelpcdn.com/bphoto/QxT4sDn1ZmzVvrn8qP4P8A/o.jpg", "is_closed": false, "url": "https://www.yelp.com/biz/the-office-bar-and-grill-san-carlos?adjust_creative=gJ2vrem5KxinHaV7_d8wAA&utm_campaign=yelp_api_v3&utm_medium=api_v3_business_search&utm_source=gJ2vrem5KxinHaV7_d8wAA", "review_count": 672, "categories": [{"alias": "bars", "title": "Bars"}, {"alias": "newamerican", "title": "American (New)"}, {"alias": "burgers", "title": "Burgers"}], "rating": 3.5, "coordinates": {"latitude": 37.49409, "longitude": -122.24536}, "transactions": ["pickup"], "price": "$$", "location": {"address1": "1748 El Camino Real", "address2": "", "address3": "", "city": "San Carlos", "zip_code": "94070", "country": "US", "state": "CA", "display_address": ["1748 El Camino Real", "San Carlos, CA 94070"]}, "phone": "+16505989740", "display_phone": "(650) 598-9740", "distance": 1483.1620543648908}, {"id": "gFn2B0aP7wjdTjKhYbsd0Q", "alias": "ryoshin-sushi-belmont-3", "name": "Ryoshin Sushi", "image_url": "https://s3-media2.fl.yelpcdn.com/bphoto/T-MkQpGNKGjAi0J9jjb-zA/o.jpg", "is_closed": false, "url": "https://www.yelp.com/biz/ryoshin-sushi-belmont-3?adjust_creative=gJ2vrem5KxinHaV7_d8wAA&utm_campaign=yelp_api_v3&utm_medium=api_v3_business_search&utm_source=gJ2vrem5KxinHaV7_d8wAA", "review_count": 222, "categories": [{"alias": "sushi", "title": "Sushi Bars"}, {"alias": "japanese", "title": "Japanese"}], "rating": 4.0, "coordinates": {"latitude": 37.5143002961103, "longitude": -122.26903051047}, "transactions": ["pickup"], "price": "$$", "location": {"address1": "1602 El Camino Real", "address2": "Ste C", "address3": "", "city": "Belmont", "zip_code": "94002", "country": "US", "state": "CA", "display_address": ["1602 El Camino Real", "Ste C", "Belmont, CA 94002"]}, "phone": "+16504861897", "display_phone": "(650) 486-1897", "distance": 1577.6802641471832}, {"id": "S8ecMU_Sx0esyI7YDC_5Yw", "alias": "amazing-wok-san-carlos", "name": "Amazing Wok", "image_url": "https://s3-media2.fl.yelpcdn.com/bphoto/IaGxUcoP-iEm2B57OeqlSQ/o.jpg", "is_closed": false, "url": "https://www.yelp.com/biz/amazing-wok-san-carlos?adjust_creative=gJ2vrem5KxinHaV7_d8wAA&utm_campaign=yelp_api_v3&utm_medium=api_v3_business_search&utm_source=gJ2vrem5KxinHaV7_d8wAA", "review_count": 318, "categories": [{"alias": "chinese", "title": "Chinese"}], "rating": 4.0, "coordinates": {"latitude": 37.49475, "longitude": -122.24667}, "transactions": ["delivery", "pickup"], "price": "$$", "location": {"address1": "1653 Laurel St", "address2": "", "address3": "", "city": "San Carlos", "zip_code": "94070", "country": "US", "state": "CA", "display_address": ["1653 Laurel St", "San Carlos, CA 94070"]}, "phone": "+16505952031", "display_phone": "(650) 595-2031", "distance": 1356.6601330265996}, {"id": "fvkyeXbPxQSsqVUE87BkqQ", "alias": "just-panini-san-carlos", "name": "Just Panini", "image_url": "https://s3-media3.fl.yelpcdn.com/bphoto/2to1GquHWmLgEY6AbMNrJQ/o.jpg", "is_closed": false, "url": "https://www.yelp.com/biz/just-panini-san-carlos?adjust_creative=gJ2vrem5KxinHaV7_d8wAA&utm_campaign=yelp_api_v3&utm_medium=api_v3_business_search&utm_source=gJ2vrem5KxinHaV7_d8wAA", "review_count": 67, "categories": [{"alias": "sandwiches", "title": "Sandwiches"}, {"alias": "salad", "title": "Salad"}], "rating": 4.0, "coordinates": {"latitude": 37.50512, "longitude": -122.25906}, "transactions": ["pickup", "delivery"], "price": "$$", "location": {"address1": "711 Laurel St", "address2": "", "address3": null, "city": "San Carlos", "zip_code": "94070", "country": "US", "state": "CA", "display_address": ["711 Laurel St", "San Carlos, CA 94070"]}, "phone": "+16504861162", "display_phone": "(650) 486-1162", "distance": 268.0476415025533}, {"id": "jS4NHsomrGlxZpEcRBxHRQ", "alias": "izzys-san-carlos-san-carlos", "name": "Izzy's San Carlos", "image_url": "https://s3-media4.fl.yelpcdn.com/bphoto/OMnhQF6BKcirNbBybEa8MA/o.jpg", "is_closed": false, "url": "https://www.yelp.com/biz/izzys-san-carlos-san-carlos?adjust_creative=gJ2vrem5KxinHaV7_d8wAA&utm_campaign=yelp_api_v3&utm_medium=api_v3_business_search&utm_source=gJ2vrem5KxinHaV7_d8wAA", "review_count": 761, "categories": [{"alias": "steak", "title": "Steakhouses"}, {"alias": "tradamerican", "title": "American (Traditional)"}, {"alias": "seafood", "title": "Seafood"}], "rating": 3.5, "coordinates": {"latitude": 37.51423, "longitude": -122.25381}, "transactions": ["pickup", "delivery"], "price": "$$$", "location": {"address1": "525 Skyway Rd", "address2": null, "address3": "", "city": "San Carlos", "zip_code": "94070", "country": "US", "state": "CA", "display_address": ["525 Skyway Rd", "San Carlos, CA 94070"]}, "phone": "+16506542822", "display_phone": "(650) 654-2822", "distance": 1146.5277892674546}, {"id": "TFr8J3qjzshCyHt3zPax1Q", "alias": "la-corneta-taqueria-san-carlos", "name": "La Corneta Taqueria", "image_url": "https://s3-media2.fl.yelpcdn.com/bphoto/cdtkn4BGgMVZ2-MnmLmsmw/o.jpg", "is_closed": false, "url": "https://www.yelp.com/biz/la-corneta-taqueria-san-carlos?adjust_creative=gJ2vrem5KxinHaV7_d8wAA&utm_campaign=yelp_api_v3&utm_medium=api_v3_business_search&utm_source=gJ2vrem5KxinHaV7_d8wAA", "review_count": 236, "categories": [{"alias": "mexican", "title": "Mexican"}, {"alias": "catering", "title": "Caterers"}], "rating": 4.0, "coordinates": {"latitude": 37.50661, "longitude": -122.26055}, "transactions": ["pickup"], "price": "$", "location": {"address1": "1147 San Carlos Ave", "address2": "", "address3": "", "city": "San Carlos", "zip_code": "94070", "country": "US", "state": "CA", "display_address": ["1147 San Carlos Ave", "San Carlos, CA 94070"]}, "phone": "+16505511400", "display_phone": "(650) 551-1400", "distance": 449.1982256009712}, {"id": "-DQQSvxnMtAmGvdpSP6GkQ", "alias": "zest-bakery-san-carlos", "name": "Zest Bakery", "image_url": "https://s3-media2.fl.yelpcdn.com/bphoto/NTYxMIRkWLv4W4_G6AGDrQ/o.jpg", "is_closed": false, "url": "https://www.yelp.com/biz/zest-bakery-san-carlos?adjust_creative=gJ2vrem5KxinHaV7_d8wAA&utm_campaign=yelp_api_v3&utm_medium=api_v3_business_search&utm_source=gJ2vrem5KxinHaV7_d8wAA", "review_count": 279, "categories": [{"alias": "gluten_free", "title": "Gluten-Free"}, {"alias": "bakeries", "title": "Bakeries"}], "rating": 4.0, "coordinates": {"latitude": 37.4989271, "longitude": -122.2507879}, "transactions": [], "price": "$", "location": {"address1": "1240 El Camino Real", "address2": "", "address3": "", "city": "San Carlos", "zip_code": "94070", "country": "US", "state": "CA", "display_address": ["1240 El Camino Real", "San Carlos, CA 94070"]}, "phone": "+16502419378", "display_phone": "(650) 241-9378", "distance": 770.7060686555676}, {"id": "HgBVtAMbnPSNpTqYNP3Zww", "alias": "falafel-tazah-redwood-city", "name": "Falafel Tazah", "image_url": "https://s3-media2.fl.yelpcdn.com/bphoto/AStB6egNdgU1nH7i-S5x2g/o.jpg", "is_closed": false, "url": "https://www.yelp.com/biz/falafel-tazah-redwood-city?adjust_creative=gJ2vrem5KxinHaV7_d8wAA&utm_campaign=yelp_api_v3&utm_medium=api_v3_business_search&utm_source=gJ2vrem5KxinHaV7_d8wAA", "review_count": 344, "categories": [{"alias": "mideastern", "title": "Middle Eastern"}, {"alias": "falafel", "title": "Falafel"}], "rating": 4.5, "coordinates": {"latitude": 37.522525, "longitude": -122.252172}, "transactions": ["delivery", "pickup"], "price": "$$", "location": {"address1": "256 Redwood Shores Pkwy", "address2": null, "address3": "", "city": "Redwood City", "zip_code": "94065", "country": "US", "state": "CA", "display_address": ["256 Redwood Shores Pkwy", "Redwood City, CA 94065"]}, "phone": "+16506229983", "display_phone": "(650) 622-9983", "distance": 2080.4164293064173}, {"id": "W8Ns-Onks-svoijxQua6_Q", "alias": "sunrice-cafe-belmont-2", "name": "SunRice Cafe", "image_url": "https://s3-media2.fl.yelpcdn.com/bphoto/v8gc5TwephIdSqim45jSgw/o.jpg", "is_closed": false, "url": "https://www.yelp.com/biz/sunrice-cafe-belmont-2?adjust_creative=gJ2vrem5KxinHaV7_d8wAA&utm_campaign=yelp_api_v3&utm_medium=api_v3_business_search&utm_source=gJ2vrem5KxinHaV7_d8wAA", "review_count": 52, "categories": [{"alias": "filipino", "title": "Filipino"}, {"alias": "breakfast_brunch", "title": "Breakfast & Brunch"}], "rating": 4.5, "coordinates": {"latitude": 37.51602, "longitude": -122.27118}, "transactions": [], "price": "$$", "location": {"address1": "1504 El Camino Real", "address2": "", "address3": null, "city": "Belmont", "zip_code": "94002", "country": "US", "state": "CA", "display_address": ["1504 El Camino Real", "Belmont, CA 94002"]}, "phone": "+16505924837", "display_phone": "(650) 592-4837", "distance": 1845.945796430086}, {"id": "IvK__7MYd7tMD-E0wNqvog", "alias": "iguey-taqueria-san-carlos", "name": "iGuey Taqueria", "image_url": "https://s3-media4.fl.yelpcdn.com/bphoto/tyNcHdsC1hew4zNOgAFpdg/o.jpg", "is_closed": false, "url": "https://www.yelp.com/biz/iguey-taqueria-san-carlos?adjust_creative=gJ2vrem5KxinHaV7_d8wAA&utm_campaign=yelp_api_v3&utm_medium=api_v3_business_search&utm_source=gJ2vrem5KxinHaV7_d8wAA", "review_count": 132, "categories": [{"alias": "mexican", "title": "Mexican"}], "rating": 4.0, "coordinates": {"latitude": 37.496438842905, "longitude": -122.248153333333}, "transactions": ["pickup"], "price": "$", "location": {"address1": "1494 El Camino Real", "address2": "", "address3": null, "city": "San Carlos", "zip_code": "94070", "country": "US", "state": "CA", "display_address": ["1494 El Camino Real", "San Carlos, CA 94070"]}, "phone": "+16504533018", "display_phone": "(650) 453-3018", "distance": 1131.9995159535192}, {"id": "WpcR4UNiIWaKCxbl1N9JyQ", "alias": "jersey-joes-cheesesteak-san-carlos-2", "name": "Jersey Joe's Cheesesteak", "image_url": "https://s3-media2.fl.yelpcdn.com/bphoto/sf2uGElefjqQfaRT4XUi7w/o.jpg", "is_closed": false, "url": "https://www.yelp.com/biz/jersey-joes-cheesesteak-san-carlos-2?adjust_creative=gJ2vrem5KxinHaV7_d8wAA&utm_campaign=yelp_api_v3&utm_medium=api_v3_business_search&utm_source=gJ2vrem5KxinHaV7_d8wAA", "review_count": 1074, "categories": [{"alias": "cheesesteaks", "title": "Cheesesteaks"}, {"alias": "beer_and_wine", "title": "Beer, Wine & Spirits"}, {"alias": "hotdogs", "title": "Fast Food"}], "rating": 4.0, "coordinates": {"latitude": 37.51272, "longitude": -122.26648}, "transactions": [], "price": "$$", "location": {"address1": "21 El Camino Real", "address2": "", "address3": "", "city": "San Carlos", "zip_code": "94070", "country": "US", "state": "CA", "display_address": ["21 El Camino Real", "San Carlos, CA 94070"]}, "phone": "+16505927317", "display_phone": "(650) 592-7317", "distance": 1294.150994212869}, {"id": "wV9umYGOubIPnA_e8GwiBg", "alias": "blue-truck-bakery-san-carlos", "name": "Blue Truck Bakery", "image_url": "https://s3-media4.fl.yelpcdn.com/bphoto/IWeCVet7MaCQdnmQT7MFcA/o.jpg", "is_closed": false, "url": "https://www.yelp.com/biz/blue-truck-bakery-san-carlos?adjust_creative=gJ2vrem5KxinHaV7_d8wAA&utm_campaign=yelp_api_v3&utm_medium=api_v3_business_search&utm_source=gJ2vrem5KxinHaV7_d8wAA", "review_count": 2, "categories": [{"alias": "bakeries", "title": "Bakeries"}, {"alias": "foodstands", "title": "Food Stands"}], "rating": 5.0, "coordinates": {"latitude": 37.49928, "longitude": -122.25351}, "transactions": [], "location": {"address1": "1125 Walnut St", "address2": null, "address3": "", "city": "San Carlos", "zip_code": "94070", "country": "US", "state": "CA", "display_address": ["1125 Walnut St", "San Carlos, CA 94070"]}, "phone": "+16504303047", "display_phone": "(650) 430-3047", "distance": 604.5592043482596}, {"id": "o35SS9sIvByM0Y1Jk_HPnQ", "alias": "hikari-sushi-and-grill-redwood-city-3", "name": "Hikari Sushi & grill", "image_url": "https://s3-media2.fl.yelpcdn.com/bphoto/wzbTLMG6HmjA6oqcszoD-A/o.jpg", "is_closed": false, "url": "https://www.yelp.com/biz/hikari-sushi-and-grill-redwood-city-3?adjust_creative=gJ2vrem5KxinHaV7_d8wAA&utm_campaign=yelp_api_v3&utm_medium=api_v3_business_search&utm_source=gJ2vrem5KxinHaV7_d8wAA", "review_count": 172, "categories": [{"alias": "japanese", "title": "Japanese"}], "rating": 4.0, "coordinates": {"latitude": 37.49031, "longitude": -122.24042}, "transactions": ["pickup", "delivery"], "price": "$$", "location": {"address1": "490 El Camino Real", "address2": "Ste 140", "address3": null, "city": "Redwood City", "zip_code": "94062", "country": "US", "state": "CA", "display_address": ["490 El Camino Real", "Ste 140", "Redwood City, CA 94062"]}, "phone": "+16502573712", "display_phone": "(650) 257-3712", "distance": 2102.7787870348525}, {"id": "K1rb3_R2v8PUP5yMjWjt2A", "alias": "lunch-box-san-carlos", "name": "Lunch Box", "image_url": "https://s3-media3.fl.yelpcdn.com/bphoto/bX9rQtKbeU3kkYWun8jQzw/o.jpg", "is_closed": false, "url": "https://www.yelp.com/biz/lunch-box-san-carlos?adjust_creative=gJ2vrem5KxinHaV7_d8wAA&utm_campaign=yelp_api_v3&utm_medium=api_v3_business_search&utm_source=gJ2vrem5KxinHaV7_d8wAA", "review_count": 17, "categories": [{"alias": "hotdog", "title": "Hot Dogs"}, {"alias": "sandwiches", "title": "Sandwiches"}], "rating": 4.0, "coordinates": {"latitude": 37.50644, "longitude": -122.2608674}, "transactions": [], "location": {"address1": "603 Laurel Ave", "address2": "", "address3": "", "city": "San Carlos", "zip_code": "94070", "country": "US", "state": "CA", "display_address": ["603 Laurel Ave", "San Carlos, CA 94070"]}, "phone": "+16505968031", "display_phone": "(650) 596-8031", "distance": 459.044717972316}, {"id": "bukE6fUdIOCcJSP0iq63mQ", "alias": "el-charrito-san-carlos", "name": "El Charrito", "image_url": "https://s3-media4.fl.yelpcdn.com/bphoto/qA7PKOaDg7kkro53twz0Kg/o.jpg", "is_closed": false, "url": "https://www.yelp.com/biz/el-charrito-san-carlos?adjust_creative=gJ2vrem5KxinHaV7_d8wAA&utm_campaign=yelp_api_v3&utm_medium=api_v3_business_search&utm_source=gJ2vrem5KxinHaV7_d8wAA", "review_count": 254, "categories": [{"alias": "mexican", "title": "Mexican"}, {"alias": "importedfood", "title": "Imported Food"}], "rating": 4.0, "coordinates": {"latitude": 37.508572530552, "longitude": -122.26220613746}, "transactions": ["pickup"], "price": "$", "location": {"address1": "1100 Holly St", "address2": "", "address3": "", "city": "San Carlos", "zip_code": "94070", "country": "US", "state": "CA", "display_address": ["1100 Holly St", "San Carlos, CA 94070"]}, "phone": "+16506541400", "display_phone": "(650) 654-1400", "distance": 701.5813620778695}, {"id": "2S6l4NVzddUj8O4kWSwK_w", "alias": "maverick-jacks-san-carlos", "name": "Maverick Jack's", "image_url": "https://s3-media3.fl.yelpcdn.com/bphoto/V_aLjFz2ylrkNSE0vnQ3zQ/o.jpg", "is_closed": false, "url": "https://www.yelp.com/biz/maverick-jacks-san-carlos?adjust_creative=gJ2vrem5KxinHaV7_d8wAA&utm_campaign=yelp_api_v3&utm_medium=api_v3_business_search&utm_source=gJ2vrem5KxinHaV7_d8wAA", "review_count": 86, "categories": [{"alias": "burgers", "title": "Burgers"}], "rating": 3.5, "coordinates": {"latitude": 37.5061511094716, "longitude": -122.260855976397}, "transactions": [], "price": "$$", "location": {"address1": "622 Laurel St", "address2": "", "address3": null, "city": "San Carlos", "zip_code": "94070", "country": "US", "state": "CA", "display_address": ["622 Laurel St", "San Carlos, CA 94070"]}, "phone": "+16508305868", "display_phone": "(650) 830-5868", "distance": 441.0843305043613}, {"id": "vBVvVGd4u7Jzkxa2Rj_z6Q", "alias": "in-n-out-burger-san-carlos", "name": "In-N-Out Burger", "image_url": "https://s3-media1.fl.yelpcdn.com/bphoto/0IX_wJs_jOZcH0HbsJ_k2A/o.jpg", "is_closed": false, "url": "https://www.yelp.com/biz/in-n-out-burger-san-carlos?adjust_creative=gJ2vrem5KxinHaV7_d8wAA&utm_campaign=yelp_api_v3&utm_medium=api_v3_business_search&utm_source=gJ2vrem5KxinHaV7_d8wAA", "review_count": 283, "categories": [{"alias": "burgers", "title": "Burgers"}, {"alias": "hotdogs", "title": "Fast Food"}], "rating": 4.0, "coordinates": {"latitude": 37.5129358470743, "longitude": -122.258600423279}, "transactions": [], "price": "$", "location": {"address1": "445 Industrial Rd", "address2": "", "address3": "", "city": "San Carlos", "zip_code": "94070", "country": "US", "state": "CA", "display_address": ["445 Industrial Rd", "San Carlos, CA 94070"]}, "phone": "+18007861000", "display_phone": "(800) 786-1000", "distance": 994.7141641836081}, {"id": "PrWKVmojds_hlS2TENQ4yA", "alias": "ozuma-restaurant-san-carlos", "name": "Ozuma Restaurant", "image_url": "https://s3-media3.fl.yelpcdn.com/bphoto/gfpumpcj-m9Z0bIJQ2Lxzw/o.jpg", "is_closed": false, "url": "https://www.yelp.com/biz/ozuma-restaurant-san-carlos?adjust_creative=gJ2vrem5KxinHaV7_d8wAA&utm_campaign=yelp_api_v3&utm_medium=api_v3_business_search&utm_source=gJ2vrem5KxinHaV7_d8wAA", "review_count": 239, "categories": [{"alias": "japanese", "title": "Japanese"}], "rating": 3.0, "coordinates": {"latitude": 37.50259, "longitude": -122.25686}, "transactions": [], "price": "$$", "location": {"address1": "894 Laurel St", "address2": "", "address3": "", "city": "San Carlos", "zip_code": "94070", "country": "US", "state": "CA", "display_address": ["894 Laurel St", "San Carlos, CA 94070"]}, "phone": "+16506379793", "display_phone": "(650) 637-9793", "distance": 176.19548163145066}, {"id": "keldin1awa83UjwRJg4p-w", "alias": "marshas-lunchbox-san-carlos", "name": "Marsha's Lunchbox", "image_url": "https://s3-media3.fl.yelpcdn.com/bphoto/hZ1rhY19kT4Dn5rgLUb6qQ/o.jpg", "is_closed": false, "url": "https://www.yelp.com/biz/marshas-lunchbox-san-carlos?adjust_creative=gJ2vrem5KxinHaV7_d8wAA&utm_campaign=yelp_api_v3&utm_medium=api_v3_business_search&utm_source=gJ2vrem5KxinHaV7_d8wAA", "review_count": 62, "categories": [{"alias": "delis", "title": "Delis"}], "rating": 4.0, "coordinates": {"latitude": 37.5079803, "longitude": -122.2528229}, "transactions": ["pickup", "delivery"], "price": "$", "location": {"address1": "760 Industrial Rd", "address2": "", "address3": "", "city": "San Carlos", "zip_code": "94070", "country": "US", "state": "CA", "display_address": ["760 Industrial Rd", "San Carlos, CA 94070"]}, "phone": "+16505938061", "display_phone": "(650) 593-8061", "distance": 560.1342659472728}, {"id": "5bqRPrxb_sI-WCFqaqhMtw", "alias": "mediterranean-delite-san-carlos", "name": "Mediterranean Delite", "image_url": "https://s3-media2.fl.yelpcdn.com/bphoto/im4h2sbNdM0imDTKiiMxYQ/o.jpg", "is_closed": false, "url": "https://www.yelp.com/biz/mediterranean-delite-san-carlos?adjust_creative=gJ2vrem5KxinHaV7_d8wAA&utm_campaign=yelp_api_v3&utm_medium=api_v3_business_search&utm_source=gJ2vrem5KxinHaV7_d8wAA", "review_count": 632, "categories": [{"alias": "delis", "title": "Delis"}, {"alias": "catering", "title": "Caterers"}, {"alias": "mediterranean", "title": "Mediterranean"}], "rating": 3.5, "coordinates": {"latitude": 37.495251457204, "longitude": -122.24652193446}, "transactions": [], "price": "$$", "location": {"address1": "1620 El Camino Real", "address2": "", "address3": "", "city": "San Carlos", "zip_code": "94070", "country": "US", "state": "CA", "display_address": ["1620 El Camino Real", "San Carlos, CA 94070"]}, "phone": "+16506549172", "display_phone": "(650) 654-9172", "distance": 1326.1984986849109}, {"id": "492ILX-ch8onD-BJn8ecwA", "alias": "sakura-teppanyaki-and-sushi-san-carlos", "name": "Sakura Teppanyaki & Sushi", "image_url": "https://s3-media3.fl.yelpcdn.com/bphoto/cFi7gN5qlL1OPbDOXimTzA/o.jpg", "is_closed": false, "url": "https://www.yelp.com/biz/sakura-teppanyaki-and-sushi-san-carlos?adjust_creative=gJ2vrem5KxinHaV7_d8wAA&utm_campaign=yelp_api_v3&utm_medium=api_v3_business_search&utm_source=gJ2vrem5KxinHaV7_d8wAA", "review_count": 75, "categories": [{"alias": "sushi", "title": "Sushi Bars"}, {"alias": "steak", "title": "Steakhouses"}, {"alias": "teppanyaki", "title": "Teppanyaki"}], "rating": 3.5, "coordinates": {"latitude": 37.5044832, "longitude": -122.2589747}, "transactions": ["pickup", "delivery"], "price": "$$", "location": {"address1": "744 Laurel St", "address2": "", "address3": null, "city": "San Carlos", "zip_code": "94070", "country": "US", "state": "CA", "display_address": ["744 Laurel St", "San Carlos, CA 94070"]}, "phone": "+16508321254", "display_phone": "(650) 832-1254", "distance": 229.8601901444017}, {"id": "UDTRB2JlOqYuixBZRFe4wg", "alias": "china-village-seafood-restaurant-belmont", "name": "China Village Seafood Restaurant", "image_url": "https://s3-media2.fl.yelpcdn.com/bphoto/lM0sqSC3lEIQBnAPh9vigg/o.jpg", "is_closed": false, "url": "https://www.yelp.com/biz/china-village-seafood-restaurant-belmont?adjust_creative=gJ2vrem5KxinHaV7_d8wAA&utm_campaign=yelp_api_v3&utm_medium=api_v3_business_search&utm_source=gJ2vrem5KxinHaV7_d8wAA", "review_count": 465, "categories": [{"alias": "dimsum", "title": "Dim Sum"}, {"alias": "seafood", "title": "Seafood"}], "rating": 3.5, "coordinates": {"latitude": 37.5217801293954, "longitude": -122.27469222438}, "transactions": ["pickup", "delivery"], "price": "$$", "location": {"address1": "600 Ralston Ave", "address2": "", "address3": "", "city": "Belmont", "zip_code": "94002", "country": "US", "state": "CA", "display_address": ["600 Ralston Ave", "Belmont, CA 94002"]}, "phone": "+16505931831", "display_phone": "(650) 593-1831", "distance": 2531.635615168248}, {"id": "mkRgY0POoCHE0PZkKG0Ltg", "alias": "otoko-sushi-redwood-city", "name": "Otoko Sushi", "image_url": "https://s3-media2.fl.yelpcdn.com/bphoto/vOSdWOCPsx9E2r_dWaPadQ/o.jpg", "is_closed": false, "url": "https://www.yelp.com/biz/otoko-sushi-redwood-city?adjust_creative=gJ2vrem5KxinHaV7_d8wAA&utm_campaign=yelp_api_v3&utm_medium=api_v3_business_search&utm_source=gJ2vrem5KxinHaV7_d8wAA", "review_count": 116, "categories": [{"alias": "sushi", "title": "Sushi Bars"}, {"alias": "ramen", "title": "Ramen"}], "rating": 3.5, "coordinates": {"latitude": 37.521471, "longitude": -122.2525115}, "transactions": ["pickup", "delivery"], "price": "$$", "location": {"address1": "240 Redwood Shores Pkwy", "address2": "", "address3": null, "city": "Redwood City", "zip_code": "94065", "country": "US", "state": "CA", "display_address": ["240 Redwood Shores Pkwy", "Redwood City, CA 94065"]}, "phone": "+16502648418", "display_phone": "(650) 264-8418", "distance": 2055.495931501908}, {"id": "RXBHho829_fNN4eyaMvETQ", "alias": "scroll-bar-waterside-kitchen-redwood-city-3", "name": "Scroll Bar Waterside Kitchen", "image_url": "https://s3-media1.fl.yelpcdn.com/bphoto/HOOaKqlnmWExd3mhL5m9Xw/o.jpg", "is_closed": false, "url": "https://www.yelp.com/biz/scroll-bar-waterside-kitchen-redwood-city-3?adjust_creative=gJ2vrem5KxinHaV7_d8wAA&utm_campaign=yelp_api_v3&utm_medium=api_v3_business_search&utm_source=gJ2vrem5KxinHaV7_d8wAA", "review_count": 42, "categories": [{"alias": "newamerican", "title": "American (New)"}, {"alias": "seafood", "title": "Seafood"}, {"alias": "cocktailbars", "title": "Cocktail Bars"}], "rating": 3.0, "coordinates": {"latitude": 37.523261, "longitude": -122.261189}, "transactions": [], "price": "$$$", "location": {"address1": "223 Twin Dolphin Dr", "address2": "", "address3": null, "city": "Redwood City", "zip_code": "94065", "country": "US", "state": "CA", "display_address": ["223 Twin Dolphin Dr", "Redwood City, CA 94065"]}, "phone": "+16505989000", "display_phone": "(650) 598-9000", "distance": 2165.2503420983912}, {"id": "_moP8rSNkM9VGf64NHQ11Q", "alias": "wingstop-san-carlos", "name": "Wingstop", "image_url": "https://s3-media3.fl.yelpcdn.com/bphoto/K79ryZKuoS45-wHi1RqgDA/o.jpg", "is_closed": false, "url": "https://www.yelp.com/biz/wingstop-san-carlos?adjust_creative=gJ2vrem5KxinHaV7_d8wAA&utm_campaign=yelp_api_v3&utm_medium=api_v3_business_search&utm_source=gJ2vrem5KxinHaV7_d8wAA", "review_count": 380, "categories": [{"alias": "chicken_wings", "title": "Chicken Wings"}], "rating": 2.5, "coordinates": {"latitude": 37.50222, "longitude": -122.24497}, "transactions": [], "price": "$$", "location": {"address1": "1135 Industrial Rd", "address2": "Ste E", "address3": "", "city": "San Carlos", "zip_code": "94070", "country": "US", "state": "CA", "display_address": ["1135 Industrial Rd", "Ste E", "San Carlos, CA 94070"]}, "phone": "+16505929464", "display_phone": "(650) 592-9464", "distance": 928.5226181539994}, {"id": "J_QD2jB5jPYD9UEq5f6dkw", "alias": "st-james-gate-bar-and-restaurant-belmont-2", "name": "St James Gate Bar and Restaurant", "image_url": "https://s3-media2.fl.yelpcdn.com/bphoto/T8vleyMTKziNoiKaSAfIHg/o.jpg", "is_closed": false, "url": "https://www.yelp.com/biz/st-james-gate-bar-and-restaurant-belmont-2?adjust_creative=gJ2vrem5KxinHaV7_d8wAA&utm_campaign=yelp_api_v3&utm_medium=api_v3_business_search&utm_source=gJ2vrem5KxinHaV7_d8wAA", "review_count": 262, "categories": [{"alias": "tradamerican", "title": "American (Traditional)"}, {"alias": "bars", "title": "Bars"}, {"alias": "breakfast_brunch", "title": "Breakfast & Brunch"}], "rating": 3.5, "coordinates": {"latitude": 37.5166757, "longitude": -122.270162}, "transactions": ["pickup"], "price": "$$", "location": {"address1": "1410 Old County Rd", "address2": "", "address3": "", "city": "Belmont", "zip_code": "94002", "country": "US", "state": "CA", "display_address": ["1410 Old County Rd", "Belmont, CA 94002"]}, "phone": "+16505925923", "display_phone": "(650) 592-5923", "distance": 1839.9438109819798}, {"id": "1P0omFcQzjvmBc1hz7ZMAQ", "alias": "the-sandwich-spot-san-carlos", "name": "The Sandwich Spot", "image_url": "https://s3-media3.fl.yelpcdn.com/bphoto/bqD1pFmKCoXfdX0Zr_q9Xw/o.jpg", "is_closed": false, "url": "https://www.yelp.com/biz/the-sandwich-spot-san-carlos?adjust_creative=gJ2vrem5KxinHaV7_d8wAA&utm_campaign=yelp_api_v3&utm_medium=api_v3_business_search&utm_source=gJ2vrem5KxinHaV7_d8wAA", "review_count": 247, "categories": [{"alias": "sandwiches", "title": "Sandwiches"}, {"alias": "delis", "title": "Delis"}, {"alias": "juicebars", "title": "Juice Bars & Smoothies"}], "rating": 4.0, "coordinates": {"latitude": 37.498283, "longitude": -122.2511424}, "transactions": [], "price": "$", "location": {"address1": "1312 Laurel St", "address2": "", "address3": "", "city": "San Carlos", "zip_code": "94070", "country": "US", "state": "CA", "display_address": ["1312 Laurel St", "San Carlos, CA 94070"]}, "phone": "+16503944770", "display_phone": "(650) 394-4770", "distance": 807.0654941747359}, {"id": "m2_rTmlzmM52OaEyrtVEPA", "alias": "aya-sushi-san-carlos", "name": "Aya Sushi", "image_url": "https://s3-media3.fl.yelpcdn.com/bphoto/pCcBLY2SHSAmcw_1tYhQpw/o.jpg", "is_closed": false, "url": "https://www.yelp.com/biz/aya-sushi-san-carlos?adjust_creative=gJ2vrem5KxinHaV7_d8wAA&utm_campaign=yelp_api_v3&utm_medium=api_v3_business_search&utm_source=gJ2vrem5KxinHaV7_d8wAA", "review_count": 232, "categories": [{"alias": "japanese", "title": "Japanese"}, {"alias": "sushi", "title": "Sushi Bars"}, {"alias": "noodles", "title": "Noodles"}], "rating": 3.5, "coordinates": {"latitude": 37.509434, "longitude": -122.2609159}, "transactions": [], "price": "$$", "location": {"address1": "1070 Holly St", "address2": "", "address3": "", "city": "San Carlos", "zip_code": "94070", "country": "US", "state": "CA", "display_address": ["1070 Holly St", "San Carlos, CA 94070"]}, "phone": "+16506541212", "display_phone": "(650) 654-1212", "distance": 728.2077969484675}, {"id": "Ei9xQx92mmYVMCEZ2nP8tA", "alias": "la-hacienda-san-carlos", "name": "La Hacienda", "image_url": "https://s3-media2.fl.yelpcdn.com/bphoto/Vx_BYsSTkcm1mTZTpwZdJQ/o.jpg", "is_closed": false, "url": "https://www.yelp.com/biz/la-hacienda-san-carlos?adjust_creative=gJ2vrem5KxinHaV7_d8wAA&utm_campaign=yelp_api_v3&utm_medium=api_v3_business_search&utm_source=gJ2vrem5KxinHaV7_d8wAA", "review_count": 98, "categories": [{"alias": "mexican", "title": "Mexican"}], "rating": 3.5, "coordinates": {"latitude": 37.4973108619452, "longitude": -122.249998748302}, "transactions": [], "price": "$$", "location": {"address1": "1377 Laurel St", "address2": "", "address3": "", "city": "San Carlos", "zip_code": "94070", "country": "US", "state": "CA", "display_address": ["1377 Laurel St", "San Carlos, CA 94070"]}, "phone": "+16505919711", "display_phone": "(650) 591-9711", "distance": 951.4769681118574}, {"id": "RgGT0LIwUVJAKGd-by0BvQ", "alias": "mountain-mikes-pizza-san-carlos", "name": "Mountain Mike's Pizza", "image_url": "https://s3-media1.fl.yelpcdn.com/bphoto/dpm1PSt-l2oMDY6uPheGXQ/o.jpg", "is_closed": false, "url": "https://www.yelp.com/biz/mountain-mikes-pizza-san-carlos?adjust_creative=gJ2vrem5KxinHaV7_d8wAA&utm_campaign=yelp_api_v3&utm_medium=api_v3_business_search&utm_source=gJ2vrem5KxinHaV7_d8wAA", "review_count": 65, "categories": [{"alias": "pizza", "title": "Pizza"}], "rating": 3.0, "coordinates": {"latitude": 37.504906, "longitude": -122.257714}, "transactions": ["pickup", "delivery"], "price": "$$", "location": {"address1": "774 El Camino Real", "address2": "", "address3": "", "city": "San Carlos", "zip_code": "94070", "country": "US", "state": "CA", "display_address": ["774 El Camino Real", "San Carlos, CA 94070"]}, "phone": "+16503669090", "display_phone": "(650) 366-9090", "distance": 134.53214537653793}, {"id": "4U7IZTddZQsj6_y4dMp-8A", "alias": "lulus-on-laurel-san-carlos-4", "name": "LuLu's on Laurel", "image_url": "https://s3-media3.fl.yelpcdn.com/bphoto/FH3kHJ_uNSHoEWNpPWR_BA/o.jpg", "is_closed": false, "url": "https://www.yelp.com/biz/lulus-on-laurel-san-carlos-4?adjust_creative=gJ2vrem5KxinHaV7_d8wAA&utm_campaign=yelp_api_v3&utm_medium=api_v3_business_search&utm_source=gJ2vrem5KxinHaV7_d8wAA", "review_count": 287, "categories": [{"alias": "mexican", "title": "Mexican"}], "rating": 2.5, "coordinates": {"latitude": 37.50265, "longitude": -122.25707}, "transactions": ["delivery", "pickup"], "price": "$$", "location": {"address1": "876 Laurel St", "address2": "", "address3": "", "city": "San Carlos", "zip_code": "94070", "country": "US", "state": "CA", "display_address": ["876 Laurel St", "San Carlos, CA 94070"]}, "phone": "+16505968226", "display_phone": "(650) 596-8226", "distance": 164.1590828583714}, {"id": "Uj7IRZtMU3-L9zS-j3XOYQ", "alias": "thai-tamarind-restaurant-belmont", "name": "Thai Tamarind Restaurant", "image_url": "https://s3-media2.fl.yelpcdn.com/bphoto/xnRgslsNPRrAEOSwEoLpyA/o.jpg", "is_closed": false, "url": "https://www.yelp.com/biz/thai-tamarind-restaurant-belmont?adjust_creative=gJ2vrem5KxinHaV7_d8wAA&utm_campaign=yelp_api_v3&utm_medium=api_v3_business_search&utm_source=gJ2vrem5KxinHaV7_d8wAA", "review_count": 418, "categories": [{"alias": "thai", "title": "Thai"}], "rating": 3.5, "coordinates": {"latitude": 37.51815, "longitude": -122.27377}, "transactions": ["pickup", "delivery"], "price": "$$", "location": {"address1": "1316 El Camino Real", "address2": "", "address3": "", "city": "Belmont", "zip_code": "94002", "country": "US", "state": "CA", "display_address": ["1316 El Camino Real", "Belmont, CA 94002"]}, "phone": "+16505919888", "display_phone": "(650) 591-9888", "distance": 2176.960839200446}, {"id": "Z56xohgVbOmv-6-EMKlctQ", "alias": "amicis-east-coast-pizzeria-redwood-shores", "name": "Amici's East Coast Pizzeria", "image_url": "https://s3-media3.fl.yelpcdn.com/bphoto/CR-ReuJ_gjyFhEyJLSe6ow/o.jpg", "is_closed": false, "url": "https://www.yelp.com/biz/amicis-east-coast-pizzeria-redwood-shores?adjust_creative=gJ2vrem5KxinHaV7_d8wAA&utm_campaign=yelp_api_v3&utm_medium=api_v3_business_search&utm_source=gJ2vrem5KxinHaV7_d8wAA", "review_count": 351, "categories": [{"alias": "pizza", "title": "Pizza"}], "rating": 3.5, "coordinates": {"latitude": 37.5219, "longitude": -122.251543}, "transactions": ["pickup", "delivery"], "price": "$$", "location": {"address1": "226 Redwood Shores Pkwy", "address2": "", "address3": "", "city": "Redwood Shores", "zip_code": "94065", "country": "US", "state": "CA", "display_address": ["226 Redwood Shores Pkwy", "Redwood Shores, CA 94065"]}, "phone": "+16506543333", "display_phone": "(650) 654-3333", "distance": 2023.5363176577525}, {"id": "skl_-hT7wcOnFy8PAWrWKQ", "alias": "new-canton-restaurant-san-carlos", "name": "New Canton Restaurant", "image_url": "https://s3-media1.fl.yelpcdn.com/bphoto/A-VGLlFFdJr2vG3UJ_-Chw/o.jpg", "is_closed": false, "url": "https://www.yelp.com/biz/new-canton-restaurant-san-carlos?adjust_creative=gJ2vrem5KxinHaV7_d8wAA&utm_campaign=yelp_api_v3&utm_medium=api_v3_business_search&utm_source=gJ2vrem5KxinHaV7_d8wAA", "review_count": 217, "categories": [{"alias": "chinese", "title": "Chinese"}], "rating": 3.5, "coordinates": {"latitude": 37.4991, "longitude": -122.25273}, "transactions": ["pickup", "delivery"], "price": "$$", "location": {"address1": "1160 Laurel St", "address2": "", "address3": "", "city": "San Carlos", "zip_code": "94070", "country": "US", "state": "CA", "display_address": ["1160 Laurel St", "San Carlos, CA 94070"]}, "phone": "+16505914952", "display_phone": "(650) 591-4952", "distance": 636.6587524664004}, {"id": "qKU4ibsYUWk-x2LRmQmzgg", "alias": "sky-kitchen-san-carlos", "name": "Sky Kitchen", "image_url": "https://s3-media2.fl.yelpcdn.com/bphoto/NpgB0A8UsfJalzAecrFeuQ/o.jpg", "is_closed": false, "url": "https://www.yelp.com/biz/sky-kitchen-san-carlos?adjust_creative=gJ2vrem5KxinHaV7_d8wAA&utm_campaign=yelp_api_v3&utm_medium=api_v3_business_search&utm_source=gJ2vrem5KxinHaV7_d8wAA", "review_count": 210, "categories": [{"alias": "breakfast_brunch", "title": "Breakfast & Brunch"}, {"alias": "tradamerican", "title": "American (Traditional)"}], "rating": 4.0, "coordinates": {"latitude": 37.5152605441784, "longitude": -122.250605938655}, "transactions": ["delivery", "pickup"], "price": "$$", "location": {"address1": "620 Airport Dr", "address2": "", "address3": "", "city": "San Carlos", "zip_code": "94070", "country": "US", "state": "CA", "display_address": ["620 Airport Dr", "San Carlos, CA 94070"]}, "phone": "+16505950464", "display_phone": "(650) 595-0464", "distance": 1342.9848054714944}, {"id": "ig90VggWkyvxdOn47vzmwA", "alias": "falafel-and-things-redwood-city-2", "name": "Falafel and Things", "image_url": "https://s3-media2.fl.yelpcdn.com/bphoto/xt69z9UoISBfYucpicUsUw/o.jpg", "is_closed": false, "url": "https://www.yelp.com/biz/falafel-and-things-redwood-city-2?adjust_creative=gJ2vrem5KxinHaV7_d8wAA&utm_campaign=yelp_api_v3&utm_medium=api_v3_business_search&utm_source=gJ2vrem5KxinHaV7_d8wAA", "review_count": 41, "categories": [{"alias": "foodtrucks", "title": "Food Trucks"}, {"alias": "falafel", "title": "Falafel"}, {"alias": "mideastern", "title": "Middle Eastern"}], "rating": 5.0, "coordinates": {"latitude": 37.4833666, "longitude": -122.2055989}, "transactions": [], "price": "$$", "location": {"address1": "2766 Bay Rd", "address2": null, "address3": "", "city": "Redwood City", "zip_code": "94063", "country": "US", "state": "CA", "display_address": ["2766 Bay Rd", "Redwood City, CA 94063"]}, "phone": "+15103616207", "display_phone": "(510) 361-6207", "distance": 5053.559031420723}, {"id": "1VhNJHU4Cs0yUVqDmKuQNQ", "alias": "house-of-bagels-san-carlos", "name": "House of Bagels", "image_url": "https://s3-media2.fl.yelpcdn.com/bphoto/TloUIWR-ZMnEc5xRaQBXfw/o.jpg", "is_closed": false, "url": "https://www.yelp.com/biz/house-of-bagels-san-carlos?adjust_creative=gJ2vrem5KxinHaV7_d8wAA&utm_campaign=yelp_api_v3&utm_medium=api_v3_business_search&utm_source=gJ2vrem5KxinHaV7_d8wAA", "review_count": 216, "categories": [{"alias": "bagels", "title": "Bagels"}, {"alias": "breakfast_brunch", "title": "Breakfast & Brunch"}, {"alias": "coffee", "title": "Coffee & Tea"}], "rating": 4.0, "coordinates": {"latitude": 37.5064296, "longitude": -122.2608718}, "transactions": [], "price": "$", "location": {"address1": "605 Laurel St", "address2": "", "address3": "", "city": "San Carlos", "zip_code": "94070", "country": "US", "state": "CA", "display_address": ["605 Laurel St", "San Carlos, CA 94070"]}, "phone": "+16506378277", "display_phone": "(650) 637-8277", "distance": 457.2303008610083}, {"id": "z_dlRQPlCYLyoBd4W1blbA", "alias": "chipotle-mexican-grill-san-carlos-3", "name": "Chipotle Mexican Grill", "image_url": "https://s3-media3.fl.yelpcdn.com/bphoto/0oKMoC9jAgucApYgMYKDeQ/o.jpg", "is_closed": false, "url": "https://www.yelp.com/biz/chipotle-mexican-grill-san-carlos-3?adjust_creative=gJ2vrem5KxinHaV7_d8wAA&utm_campaign=yelp_api_v3&utm_medium=api_v3_business_search&utm_source=gJ2vrem5KxinHaV7_d8wAA", "review_count": 170, "categories": [{"alias": "hotdogs", "title": "Fast Food"}, {"alias": "mexican", "title": "Mexican"}], "rating": 3.0, "coordinates": {"latitude": 37.5022084563597, "longitude": -122.246372624175}, "transactions": [], "price": "$", "location": {"address1": "1135 Industrial Rd", "address2": "Ste C", "address3": "", "city": "San Carlos", "zip_code": "94070", "country": "US", "state": "CA", "display_address": ["1135 Industrial Rd", "Ste C", "San Carlos, CA 94070"]}, "phone": "+16505980847", "display_phone": "(650) 598-0847", "distance": 922.7653348940088}, {"id": "N3S2XKVA-hiJq_r6Z9GqIw", "alias": "broiler-express-san-carlos", "name": "Broiler Express", "image_url": "https://s3-media2.fl.yelpcdn.com/bphoto/BYyLvaI8KVvJPnbsFFYtqw/o.jpg", "is_closed": false, "url": "https://www.yelp.com/biz/broiler-express-san-carlos?adjust_creative=gJ2vrem5KxinHaV7_d8wAA&utm_campaign=yelp_api_v3&utm_medium=api_v3_business_search&utm_source=gJ2vrem5KxinHaV7_d8wAA", "review_count": 168, "categories": [{"alias": "mexican", "title": "Mexican"}, {"alias": "burgers", "title": "Burgers"}, {"alias": "sandwiches", "title": "Sandwiches"}], "rating": 3.5, "coordinates": {"latitude": 37.5028318, "longitude": -122.2565444}, "transactions": ["pickup", "delivery"], "price": "$", "location": {"address1": "895 Laurel St", "address2": "", "address3": "", "city": "San Carlos", "zip_code": "94070", "country": "US", "state": "CA", "display_address": ["895 Laurel St", "San Carlos, CA 94070"]}, "phone": "+16505932222", "display_phone": "(650) 593-2222", "distance": 146.70215549982456}, {"id": "R6m8SV3QcoZJj89zZDDMQQ", "alias": "finas-cafe-san-carlos-3", "name": "Fina's Cafe", "image_url": "https://s3-media2.fl.yelpcdn.com/bphoto/JIZa1C14aYMBHh7ZFBQrCQ/o.jpg", "is_closed": false, "url": "https://www.yelp.com/biz/finas-cafe-san-carlos-3?adjust_creative=gJ2vrem5KxinHaV7_d8wAA&utm_campaign=yelp_api_v3&utm_medium=api_v3_business_search&utm_source=gJ2vrem5KxinHaV7_d8wAA", "review_count": 50, "categories": [{"alias": "coffee", "title": "Coffee & Tea"}, {"alias": "cafes", "title": "Cafes"}], "rating": 4.5, "coordinates": {"latitude": 37.4946479797363, "longitude": -122.246566772461}, "transactions": ["pickup"], "price": "$", "location": {"address1": "1665 Laurel St", "address2": "", "address3": "", "city": "San Carlos", "zip_code": "94070", "country": "US", "state": "CA", "display_address": ["1665 Laurel St", "San Carlos, CA 94070"]}, "phone": "+16504861562", "display_phone": "(650) 486-1562", "distance": 1374.4747279720957}, {"id": "G9NyukC8IXYeUCjw-Buo4A", "alias": "five-guys-redwood-city-3", "name": "Five Guys", "image_url": "https://s3-media2.fl.yelpcdn.com/bphoto/B0tJM138WnQUHAALovRWHQ/o.jpg", "is_closed": false, "url": "https://www.yelp.com/biz/five-guys-redwood-city-3?adjust_creative=gJ2vrem5KxinHaV7_d8wAA&utm_campaign=yelp_api_v3&utm_medium=api_v3_business_search&utm_source=gJ2vrem5KxinHaV7_d8wAA", "review_count": 13, "categories": [{"alias": "hotdogs", "title": "Fast Food"}, {"alias": "burgers", "title": "Burgers"}], "rating": 4.0, "coordinates": {"latitude": 37.5214431, "longitude": -122.2524961}, "transactions": [], "location": {"address1": "238 Redwood Shores Pkwy", "address2": "", "address3": null, "city": "Redwood City", "zip_code": "94065", "country": "US", "state": "CA", "display_address": ["238 Redwood Shores Pkwy", "Redwood City, CA 94065"]}, "phone": "+16506100684", "display_phone": "(650) 610-0684", "distance": 2046.1196540213652}, {"id": "e-OxWKbfggnz8FZypF7fRQ", "alias": "shores-cafe-redwood-city", "name": "Shores Cafe", "image_url": "https://s3-media1.fl.yelpcdn.com/bphoto/RigfTUIIBek-Hr-VTnK1pQ/o.jpg", "is_closed": false, "url": "https://www.yelp.com/biz/shores-cafe-redwood-city?adjust_creative=gJ2vrem5KxinHaV7_d8wAA&utm_campaign=yelp_api_v3&utm_medium=api_v3_business_search&utm_source=gJ2vrem5KxinHaV7_d8wAA", "review_count": 4, "categories": [{"alias": "bars", "title": "Bars"}, {"alias": "cafes", "title": "Cafes"}], "rating": 5.0, "coordinates": {"latitude": 37.5229251, "longitude": -122.2529604}, "transactions": [], "price": "$", "location": {"address1": "270 Redwood Shores Pkwy", "address2": "", "address3": "", "city": "Redwood City", "zip_code": "94065", "country": "US", "state": "CA", "display_address": ["270 Redwood Shores Pkwy", "Redwood City, CA 94065"]}, "phone": "+16506542106", "display_phone": "(650) 654-2106", "distance": 2172.4724161297577}, {"id": "D_imt7PNy2N5c_MQP55BpQ", "alias": "totos-pizzeria-belmont", "name": "Toto's Pizzeria", "image_url": "https://s3-media1.fl.yelpcdn.com/bphoto/eW-VTlOq8vzUgl7g8LsfMA/o.jpg", "is_closed": false, "url": "https://www.yelp.com/biz/totos-pizzeria-belmont?adjust_creative=gJ2vrem5KxinHaV7_d8wAA&utm_campaign=yelp_api_v3&utm_medium=api_v3_business_search&utm_source=gJ2vrem5KxinHaV7_d8wAA", "review_count": 265, "categories": [{"alias": "pizza", "title": "Pizza"}, {"alias": "salad", "title": "Salad"}, {"alias": "sandwiches", "title": "Sandwiches"}], "rating": 4.0, "coordinates": {"latitude": 37.51867, "longitude": -122.274172}, "transactions": [], "price": "$$", "location": {"address1": "1250 El Camino Real", "address2": "Ste B", "address3": "", "city": "Belmont", "zip_code": "94002", "country": "US", "state": "CA", "display_address": ["1250 El Camino Real", "Ste B", "Belmont, CA 94002"]}, "phone": "+16506318686", "display_phone": "(650) 631-8686", "distance": 2242.188293354855}, {"id": "77AwyVp1DTD3f1Q3J28UjA", "alias": "77-social-club-redwood-city", "name": "77 Social Club", "image_url": "https://s3-media2.fl.yelpcdn.com/bphoto/klhvJKsR5eh_EdnzIQPFlw/o.jpg", "is_closed": false, "url": "https://www.yelp.com/biz/77-social-club-redwood-city?adjust_creative=gJ2vrem5KxinHaV7_d8wAA&utm_campaign=yelp_api_v3&utm_medium=api_v3_business_search&utm_source=gJ2vrem5KxinHaV7_d8wAA", "review_count": 12, "categories": [{"alias": "bars", "title": "Bars"}, {"alias": "newamerican", "title": "American (New)"}], "rating": 3.5, "coordinates": {"latitude": 37.51911, "longitude": -122.25118}, "transactions": [], "price": "$$", "location": {"address1": "200 Redwood Shores Pkwy", "address2": "", "address3": "Bay Club Redwood Shores", "city": "Redwood City", "zip_code": "94065", "country": "US", "state": "CA", "display_address": ["200 Redwood Shores Pkwy", "Bay Club Redwood Shores", "Redwood City, CA 94065"]}, "phone": "+16505934900", "display_phone": "(650) 593-4900", "distance": 1802.1761492422277}, {"id": "VoqeWA_5ffylspv_ue2kAw", "alias": "misfits-bakehouse-san-carlos", "name": "Misfits Bakehouse", "image_url": "https://s3-media1.fl.yelpcdn.com/bphoto/Bbk2eC4SnCQJyEAPyFHE1w/o.jpg", "is_closed": false, "url": "https://www.yelp.com/biz/misfits-bakehouse-san-carlos?adjust_creative=gJ2vrem5KxinHaV7_d8wAA&utm_campaign=yelp_api_v3&utm_medium=api_v3_business_search&utm_source=gJ2vrem5KxinHaV7_d8wAA", "review_count": 2, "categories": [{"alias": "bakeries", "title": "Bakeries"}, {"alias": "gluten_free", "title": "Gluten-Free"}], "rating": 5.0, "coordinates": {"latitude": 37.50574, "longitude": -122.25202}, "transactions": [], "location": {"address1": "940 Commercial St", "address2": "Ste D", "address3": "", "city": "San Carlos", "zip_code": "94070", "country": "US", "state": "CA", "display_address": ["940 Commercial St", "Ste D", "San Carlos, CA 94070"]}, "phone": "+16506905073", "display_phone": "(650) 690-5073", "distance": 406.3097914163989}, {"id": "0YhJfVynOhhlVzdz6KBX7g", "alias": "higuma-japanese-restaurant-redwood-city", "name": "Higuma Japanese Restaurant", "image_url": "https://s3-media1.fl.yelpcdn.com/bphoto/QkYCA9T3v21Re1g7sDITTA/o.jpg", "is_closed": false, "url": "https://www.yelp.com/biz/higuma-japanese-restaurant-redwood-city?adjust_creative=gJ2vrem5KxinHaV7_d8wAA&utm_campaign=yelp_api_v3&utm_medium=api_v3_business_search&utm_source=gJ2vrem5KxinHaV7_d8wAA", "review_count": 480, "categories": [{"alias": "japanese", "title": "Japanese"}, {"alias": "sushi", "title": "Sushi Bars"}], "rating": 4.0, "coordinates": {"latitude": 37.489587, "longitude": -122.239208}, "transactions": [], "price": "$$", "location": {"address1": "540 El Camino Real", "address2": "", "address3": "", "city": "Redwood City", "zip_code": "94063", "country": "US", "state": "CA", "display_address": ["540 El Camino Real", "Redwood City, CA 94063"]}, "phone": "+16503693240", "display_phone": "(650) 369-3240", "distance": 2226.6917650313353}, {"id": "lCu6UoXLerlNK58DijTVyg", "alias": "marvin-gardens-belmont", "name": "Marvin Gardens", "image_url": "https://s3-media1.fl.yelpcdn.com/bphoto/rvk9vTOVDxn59OZBBX-rRw/o.jpg", "is_closed": false, "url": "https://www.yelp.com/biz/marvin-gardens-belmont?adjust_creative=gJ2vrem5KxinHaV7_d8wAA&utm_campaign=yelp_api_v3&utm_medium=api_v3_business_search&utm_source=gJ2vrem5KxinHaV7_d8wAA", "review_count": 180, "categories": [{"alias": "tradamerican", "title": "American (Traditional)"}, {"alias": "bars", "title": "Bars"}], "rating": 3.5, "coordinates": {"latitude": 37.5197143554688, "longitude": -122.27409362793}, "transactions": ["pickup"], "price": "$$", "location": {"address1": "1160 Old County Rd", "address2": "", "address3": "", "city": "Belmont", "zip_code": "94002", "country": "US", "state": "CA", "display_address": ["1160 Old County Rd", "Belmont, CA 94002"]}, "phone": "+16505926154", "display_phone": "(650) 592-6154", "distance": 2327.2918217106826}, {"id": "lPYcWH68qSDbz2s9BycGuA", "alias": "the-omelette-house-san-carlos", "name": "The Omelette House", "image_url": "https://s3-media3.fl.yelpcdn.com/bphoto/t6AqSP7aP0cnB52qWQ-P5w/o.jpg", "is_closed": false, "url": "https://www.yelp.com/biz/the-omelette-house-san-carlos?adjust_creative=gJ2vrem5KxinHaV7_d8wAA&utm_campaign=yelp_api_v3&utm_medium=api_v3_business_search&utm_source=gJ2vrem5KxinHaV7_d8wAA", "review_count": 183, "categories": [{"alias": "breakfast_brunch", "title": "Breakfast & Brunch"}, {"alias": "tradamerican", "title": "American (Traditional)"}], "rating": 3.5, "coordinates": {"latitude": 37.5120735168457, "longitude": -122.267127990723}, "transactions": [], "price": "$$", "location": {"address1": "66 El Camino Real", "address2": null, "address3": "", "city": "San Carlos", "zip_code": "94070", "country": "US", "state": "CA", "display_address": ["66 El Camino Real", "San Carlos, CA 94070"]}, "phone": "+16505934773", "display_phone": "(650) 593-4773", "distance": 1283.4540842423662}, {"id": "0KZEDKUcS3LvkD8Po0_JUg", "alias": "el-jarochito-truck-san-carlos", "name": "El Jarochito Truck", "image_url": "https://s3-media2.fl.yelpcdn.com/bphoto/9yvMmutoeyxKF_Mrm-3xUw/o.jpg", "is_closed": false, "url": "https://www.yelp.com/biz/el-jarochito-truck-san-carlos?adjust_creative=gJ2vrem5KxinHaV7_d8wAA&utm_campaign=yelp_api_v3&utm_medium=api_v3_business_search&utm_source=gJ2vrem5KxinHaV7_d8wAA", "review_count": 8, "categories": [{"alias": "foodstands", "title": "Food Stands"}, {"alias": "mexican", "title": "Mexican"}], "rating": 4.5, "coordinates": {"latitude": 37.4986572, "longitude": -122.2489624}, "transactions": [], "price": "$", "location": {"address1": "1335 Old County Rd", "address2": "", "address3": "", "city": "San Carlos", "zip_code": "94070", "country": "US", "state": "CA", "display_address": ["1335 Old County Rd", "San Carlos, CA 94070"]}, "phone": "", "display_phone": "", "distance": 884.7281072196307}, {"id": "_O1yysPQTAoj08232NqURw", "alias": "backyard-coffee-company-san-carlos", "name": "Backyard Coffee Company", "image_url": "https://s3-media2.fl.yelpcdn.com/bphoto/I7rvqkYzG2WAeIInqwQILw/o.jpg", "is_closed": false, "url": "https://www.yelp.com/biz/backyard-coffee-company-san-carlos?adjust_creative=gJ2vrem5KxinHaV7_d8wAA&utm_campaign=yelp_api_v3&utm_medium=api_v3_business_search&utm_source=gJ2vrem5KxinHaV7_d8wAA", "review_count": 2, "categories": [{"alias": "cafes", "title": "Cafes"}], "rating": 5.0, "coordinates": {"latitude": 37.495506, "longitude": -122.248248}, "transactions": [], "location": {"address1": "1530 Laurel St", "address2": "", "address3": null, "city": "San Carlos", "zip_code": "94070", "country": "US", "state": "CA", "display_address": ["1530 Laurel St", "San Carlos, CA 94070"]}, "phone": "", "display_phone": "", "distance": 1207.2856614265156}, {"id": "9GKHeEbngj4J3NOdcjvRdQ", "alias": "new-york-pizza-pasta-and-more-san-carlos", "name": "New York Pizza Pasta & More", "image_url": "https://s3-media3.fl.yelpcdn.com/bphoto/lt1SmtdMZTWJBkZWBzZlSA/o.jpg", "is_closed": false, "url": "https://www.yelp.com/biz/new-york-pizza-pasta-and-more-san-carlos?adjust_creative=gJ2vrem5KxinHaV7_d8wAA&utm_campaign=yelp_api_v3&utm_medium=api_v3_business_search&utm_source=gJ2vrem5KxinHaV7_d8wAA", "review_count": 199, "categories": [{"alias": "pizza", "title": "Pizza"}, {"alias": "italian", "title": "Italian"}, {"alias": "sandwiches", "title": "Sandwiches"}], "rating": 3.0, "coordinates": {"latitude": 37.4978866577148, "longitude": -122.249786376953}, "transactions": ["pickup", "delivery"], "price": "$", "location": {"address1": "1340 El Camino Real", "address2": null, "address3": "", "city": "San Carlos", "zip_code": "94070", "country": "US", "state": "CA", "display_address": ["1340 El Camino Real", "San Carlos, CA 94070"]}, "phone": "+16506379999", "display_phone": "(650) 637-9999", "distance": 904.0876692462003}, {"id": "CBt6gzsxY5cwrXIV-tCgBw", "alias": "stacks-redwood-city", "name": "Stacks", "image_url": "https://s3-media3.fl.yelpcdn.com/bphoto/M_7oDS8f1vTDyiykrbmsBA/o.jpg", "is_closed": false, "url": "https://www.yelp.com/biz/stacks-redwood-city?adjust_creative=gJ2vrem5KxinHaV7_d8wAA&utm_campaign=yelp_api_v3&utm_medium=api_v3_business_search&utm_source=gJ2vrem5KxinHaV7_d8wAA", "review_count": 722, "categories": [{"alias": "breakfast_brunch", "title": "Breakfast & Brunch"}, {"alias": "tradamerican", "title": "American (Traditional)"}], "rating": 3.5, "coordinates": {"latitude": 37.4915018, "longitude": -122.2415975}, "transactions": ["pickup", "delivery"], "price": "$$", "location": {"address1": "314 El Camino Real", "address2": "", "address3": "", "city": "Redwood City", "zip_code": "94062", "country": "US", "state": "CA", "display_address": ["314 El Camino Real", "Redwood City, CA 94062"]}, "phone": "+16504822850", "display_phone": "(650) 482-2850", "distance": 1927.1550242622354}, {"id": "HS8Ol7FOSCLPz4y7PVnC2g", "alias": "detox-kitchen-and-juice-bar-belmont", "name": "Detox Kitchen & Juice Bar", "image_url": "https://s3-media2.fl.yelpcdn.com/bphoto/mH8CG6bnc0km55FDA_NMjg/o.jpg", "is_closed": false, "url": "https://www.yelp.com/biz/detox-kitchen-and-juice-bar-belmont?adjust_creative=gJ2vrem5KxinHaV7_d8wAA&utm_campaign=yelp_api_v3&utm_medium=api_v3_business_search&utm_source=gJ2vrem5KxinHaV7_d8wAA", "review_count": 162, "categories": [{"alias": "juicebars", "title": "Juice Bars & Smoothies"}, {"alias": "gluten_free", "title": "Gluten-Free"}, {"alias": "breakfast_brunch", "title": "Breakfast & Brunch"}], "rating": 3.5, "coordinates": {"latitude": 37.5189, "longitude": -122.274476}, "transactions": ["pickup", "delivery"], "price": "$$", "location": {"address1": "1200 El Camino Real", "address2": "", "address3": null, "city": "Belmont", "zip_code": "94002", "country": "US", "state": "CA", "display_address": ["1200 El Camino Real", "Belmont, CA 94002"]}, "phone": "+16502648211", "display_phone": "(650) 264-8211", "distance": 2279.2077815434623}, {"id": "8xDPfxmlMWVn-OQPTPU_wA", "alias": "crazy-curry-belmont-2", "name": "Crazy Curry", "image_url": "https://s3-media4.fl.yelpcdn.com/bphoto/6V2onr7ftDPTZyg9t0UOMw/o.jpg", "is_closed": false, "url": "https://www.yelp.com/biz/crazy-curry-belmont-2?adjust_creative=gJ2vrem5KxinHaV7_d8wAA&utm_campaign=yelp_api_v3&utm_medium=api_v3_business_search&utm_source=gJ2vrem5KxinHaV7_d8wAA", "review_count": 3, "categories": [{"alias": "japacurry", "title": "Japanese Curry"}, {"alias": "foodtrucks", "title": "Food Trucks"}], "rating": 3.5, "coordinates": {"latitude": 37.5265, "longitude": -122.28178}, "transactions": [], "location": {"address1": "407 Old County Rd", "address2": null, "address3": "", "city": "Belmont", "zip_code": "94002", "country": "US", "state": "CA", "display_address": ["407 Old County Rd", "Belmont, CA 94002"]}, "phone": "+14154832691", "display_phone": "(415) 483-2691", "distance": 3343.2018247983306}, {"id": "8r_3oJ_OlIU5w90nfnn4jA", "alias": "jack-in-the-box-san-carlos-2", "name": "Jack in the Box", "image_url": "https://s3-media2.fl.yelpcdn.com/bphoto/6BTVHWjHGGaP7TSlGhg4YQ/o.jpg", "is_closed": false, "url": "https://www.yelp.com/biz/jack-in-the-box-san-carlos-2?adjust_creative=gJ2vrem5KxinHaV7_d8wAA&utm_campaign=yelp_api_v3&utm_medium=api_v3_business_search&utm_source=gJ2vrem5KxinHaV7_d8wAA", "review_count": 83, "categories": [{"alias": "hotdogs", "title": "Fast Food"}, {"alias": "burgers", "title": "Burgers"}, {"alias": "tacos", "title": "Tacos"}], "rating": 2.0, "coordinates": {"latitude": 37.5002241623551, "longitude": -122.252600491047}, "transactions": ["delivery"], "price": "$", "location": {"address1": "1100 El Camino Real", "address2": "", "address3": "", "city": "San Carlos", "zip_code": "94070", "country": "US", "state": "CA", "display_address": ["1100 El Camino Real", "San Carlos, CA 94070"]}, "phone": "+16505923124", "display_phone": "(650) 592-3124", "distance": 557.4200320620961}, {"id": "7xttXq3P7BOywZP0gBmeog", "alias": "ea-commons-caf\u00e9-redwood-city", "name": "EA Commons Caf\u00e9", "image_url": "https://s3-media4.fl.yelpcdn.com/bphoto/mhwreb5hgZIMJ5R889WOyg/o.jpg", "is_closed": false, "url": "https://www.yelp.com/biz/ea-commons-caf%C3%A9-redwood-city?adjust_creative=gJ2vrem5KxinHaV7_d8wAA&utm_campaign=yelp_api_v3&utm_medium=api_v3_business_search&utm_source=gJ2vrem5KxinHaV7_d8wAA", "review_count": 4, "categories": [{"alias": "cafeteria", "title": "Cafeteria"}], "rating": 4.5, "coordinates": {"latitude": 37.524433, "longitude": -122.254318}, "transactions": [], "price": "$", "location": {"address1": "209 Redwood Shores Pkwy", "address2": "", "address3": "", "city": "Redwood City", "zip_code": "94065", "country": "US", "state": "CA", "display_address": ["209 Redwood Shores Pkwy", "Redwood City, CA 94065"]}, "phone": "+16506281500", "display_phone": "(650) 628-1500", "distance": 2138.81259023747}, {"id": "b_x29As3xa68f9HfYZqHYw", "alias": "hongry-kong-belmont-2", "name": "Hongry Kong", "image_url": "https://s3-media3.fl.yelpcdn.com/bphoto/LtJnUoeZMeXMPzRTiM8CFg/o.jpg", "is_closed": false, "url": "https://www.yelp.com/biz/hongry-kong-belmont-2?adjust_creative=gJ2vrem5KxinHaV7_d8wAA&utm_campaign=yelp_api_v3&utm_medium=api_v3_business_search&utm_source=gJ2vrem5KxinHaV7_d8wAA", "review_count": 173, "categories": [{"alias": "foodtrucks", "title": "Food Trucks"}, {"alias": "catering", "title": "Caterers"}, {"alias": "seafood", "title": "Seafood"}], "rating": 3.5, "coordinates": {"latitude": 37.52369, "longitude": -122.2785}, "transactions": ["pickup", "delivery"], "price": "$", "location": {"address1": null, "address2": null, "address3": null, "city": "Belmont", "zip_code": "94002", "country": "US", "state": "CA", "display_address": ["Belmont, CA 94002"]}, "phone": "+16503365664", "display_phone": "(650) 336-5664", "distance": 2465.5915773957518}, {"id": "VAFxX142zu2sjVeBsWuHog", "alias": "classic-101-burgers-and-shakes-belmont", "name": "Classic 101 Burgers & Shakes", "image_url": "https://s3-media2.fl.yelpcdn.com/bphoto/q1bBAD1_wxBjaGkaR9nUoA/o.jpg", "is_closed": false, "url": "https://www.yelp.com/biz/classic-101-burgers-and-shakes-belmont?adjust_creative=gJ2vrem5KxinHaV7_d8wAA&utm_campaign=yelp_api_v3&utm_medium=api_v3_business_search&utm_source=gJ2vrem5KxinHaV7_d8wAA", "review_count": 184, "categories": [{"alias": "burgers", "title": "Burgers"}, {"alias": "icecream", "title": "Ice Cream & Frozen Yogurt"}], "rating": 3.5, "coordinates": {"latitude": 37.52182, "longitude": -122.27382}, "transactions": ["pickup"], "price": "$", "location": {"address1": "575 Ralston Ave", "address2": "", "address3": "", "city": "Belmont", "zip_code": "94002", "country": "US", "state": "CA", "display_address": ["575 Ralston Ave", "Belmont, CA 94002"]}, "phone": "+16505920505", "display_phone": "(650) 592-0505", "distance": 2484.6275666897723}, {"id": "ojUAPwlCiu_4vm_Z0ZqiYQ", "alias": "bayareatacocatering-belmont", "name": "BayAreaTacoCatering", "image_url": "https://s3-media2.fl.yelpcdn.com/bphoto/GMhjsoS5maG6UsosVN8Yhw/o.jpg", "is_closed": false, "url": "https://www.yelp.com/biz/bayareatacocatering-belmont?adjust_creative=gJ2vrem5KxinHaV7_d8wAA&utm_campaign=yelp_api_v3&utm_medium=api_v3_business_search&utm_source=gJ2vrem5KxinHaV7_d8wAA", "review_count": 24, "categories": [{"alias": "tacos", "title": "Tacos"}, {"alias": "catering", "title": "Caterers"}, {"alias": "foodtrucks", "title": "Food Trucks"}], "rating": 5.0, "coordinates": {"latitude": 37.5117858227472, "longitude": -122.292540979695}, "transactions": [], "price": "$", "location": {"address1": null, "address2": null, "address3": "", "city": "Belmont", "zip_code": "94002", "country": "US", "state": "CA", "display_address": ["Belmont, CA 94002"]}, "phone": "+15108666832", "display_phone": "(510) 866-6832", "distance": 3286.880039999988}, {"id": "14hMY2bVSDm4Er1yYMG-2w", "alias": "new-flower-drum-restaurant-san-carlos", "name": "New Flower Drum Restaurant", "image_url": "https://s3-media2.fl.yelpcdn.com/bphoto/6lwjs8uPHnQYe6R948JZPA/o.jpg", "is_closed": false, "url": "https://www.yelp.com/biz/new-flower-drum-restaurant-san-carlos?adjust_creative=gJ2vrem5KxinHaV7_d8wAA&utm_campaign=yelp_api_v3&utm_medium=api_v3_business_search&utm_source=gJ2vrem5KxinHaV7_d8wAA", "review_count": 102, "categories": [{"alias": "chinese", "title": "Chinese"}, {"alias": "asianfusion", "title": "Asian Fusion"}], "rating": 2.5, "coordinates": {"latitude": 37.49998, "longitude": -122.25303}, "transactions": ["pickup", "delivery"], "price": "$$", "location": {"address1": "1109 Laurel St", "address2": "", "address3": "", "city": "San Carlos", "zip_code": "94070", "country": "US", "state": "CA", "display_address": ["1109 Laurel St", "San Carlos, CA 94070"]}, "phone": "+16505958880", "display_phone": "(650) 595-8880", "distance": 555.5912938448098}, {"id": "JoEyJtqIevQCLn7pPXHCiw", "alias": "ben-franks-restaurant-redwood-city", "name": "Ben Franks Restaurant", "image_url": "https://s3-media2.fl.yelpcdn.com/bphoto/ajA8-0_ydlzKseAZYCaLJw/o.jpg", "is_closed": false, "url": "https://www.yelp.com/biz/ben-franks-restaurant-redwood-city?adjust_creative=gJ2vrem5KxinHaV7_d8wAA&utm_campaign=yelp_api_v3&utm_medium=api_v3_business_search&utm_source=gJ2vrem5KxinHaV7_d8wAA", "review_count": 218, "categories": [{"alias": "hotdog", "title": "Hot Dogs"}, {"alias": "burgers", "title": "Burgers"}], "rating": 3.0, "coordinates": {"latitude": 37.4908972269638, "longitude": -122.23992521453}, "transactions": ["pickup", "delivery"], "price": "$", "location": {"address1": "491 El Camino Real", "address2": "", "address3": "", "city": "Redwood City", "zip_code": "94062", "country": "US", "state": "CA", "display_address": ["491 El Camino Real", "Redwood City, CA 94062"]}, "phone": "+16503671746", "display_phone": "(650) 367-1746", "distance": 2078.045690500269}, {"id": "ImO8ulLqrVpU8CWxvqe9Rw", "alias": "phils-gourmet-hotdogs-san-carlos", "name": "Phil's Gourmet Hotdogs", "image_url": "https://s3-media4.fl.yelpcdn.com/bphoto/8v5Cc_-dGCVQcybG0oz07Q/o.jpg", "is_closed": false, "url": "https://www.yelp.com/biz/phils-gourmet-hotdogs-san-carlos?adjust_creative=gJ2vrem5KxinHaV7_d8wAA&utm_campaign=yelp_api_v3&utm_medium=api_v3_business_search&utm_source=gJ2vrem5KxinHaV7_d8wAA", "review_count": 6, "categories": [{"alias": "streetvendors", "title": "Street Vendors"}, {"alias": "hotdog", "title": "Hot Dogs"}], "rating": 5.0, "coordinates": {"latitude": 37.5207808892639, "longitude": -122.267465628684}, "transactions": [], "price": "$", "location": {"address1": "1595 El Camino Real", "address2": "", "address3": "", "city": "San Carlos", "zip_code": "94002", "country": "US", "state": "CA", "display_address": ["1595 El Camino Real", "San Carlos, CA 94002"]}, "phone": "+16502181166", "display_phone": "(650) 218-1166", "distance": 2086.0466473337406}, {"id": "axbNPn1HIeovOKmMsaXfGQ", "alias": "taco-bell-san-carlos", "name": "Taco Bell", "image_url": "https://s3-media2.fl.yelpcdn.com/bphoto/Ule2Fd1c_a9VF9u4wNGcsw/o.jpg", "is_closed": false, "url": "https://www.yelp.com/biz/taco-bell-san-carlos?adjust_creative=gJ2vrem5KxinHaV7_d8wAA&utm_campaign=yelp_api_v3&utm_medium=api_v3_business_search&utm_source=gJ2vrem5KxinHaV7_d8wAA", "review_count": 109, "categories": [{"alias": "hotdogs", "title": "Fast Food"}, {"alias": "tacos", "title": "Tacos"}], "rating": 2.5, "coordinates": {"latitude": 37.512098, "longitude": -122.265948}, "transactions": ["delivery"], "price": "$", "location": {"address1": "259 El Camino Real", "address2": "", "address3": "", "city": "San Carlos", "zip_code": "94070", "country": "US", "state": "CA", "display_address": ["259 El Camino Real", "San Carlos, CA 94070"]}, "phone": "+16505088226", "display_phone": "(650) 508-8226", "distance": 1212.7782346056313}, {"id": "DUoVTbWxVYPrC7XWbP-6rA", "alias": "round-table-pizza-san-carlos", "name": "Round Table Pizza", "image_url": "https://s3-media3.fl.yelpcdn.com/bphoto/mXy6fxKHp_kgpP54aoz3gg/o.jpg", "is_closed": false, "url": "https://www.yelp.com/biz/round-table-pizza-san-carlos?adjust_creative=gJ2vrem5KxinHaV7_d8wAA&utm_campaign=yelp_api_v3&utm_medium=api_v3_business_search&utm_source=gJ2vrem5KxinHaV7_d8wAA", "review_count": 92, "categories": [{"alias": "pizza", "title": "Pizza"}, {"alias": "buffets", "title": "Buffets"}], "rating": 2.5, "coordinates": {"latitude": 37.4982431, "longitude": -122.2498981}, "transactions": ["pickup", "delivery"], "price": "$", "location": {"address1": "1324 El Camino Real", "address2": "", "address3": "", "city": "San Carlos", "zip_code": "94070", "country": "US", "state": "CA", "display_address": ["1324 El Camino Real", "San Carlos, CA 94070"]}, "phone": "+16505911998", "display_phone": "(650) 591-1998", "distance": 879.6870678601872}, {"id": "d1w7RVOvrilVY4SdSWS5Hg", "alias": "burger-king-san-carlos", "name": "Burger King", "image_url": "https://s3-media4.fl.yelpcdn.com/bphoto/nb_k8yB7muj_8JxHyKCAHw/o.jpg", "is_closed": false, "url": "https://www.yelp.com/biz/burger-king-san-carlos?adjust_creative=gJ2vrem5KxinHaV7_d8wAA&utm_campaign=yelp_api_v3&utm_medium=api_v3_business_search&utm_source=gJ2vrem5KxinHaV7_d8wAA", "review_count": 72, "categories": [{"alias": "hotdogs", "title": "Fast Food"}, {"alias": "burgers", "title": "Burgers"}], "rating": 2.5, "coordinates": {"latitude": 37.513849, "longitude": -122.254313}, "transactions": ["delivery"], "price": "$", "location": {"address1": "505 Skyway Rd", "address2": "", "address3": "", "city": "San Carlos", "zip_code": "94070", "country": "US", "state": "CA", "display_address": ["505 Skyway Rd", "San Carlos, CA 94070"]}, "phone": "+16505965610", "display_phone": "(650) 596-5610", "distance": 1103.1994672169646}, {"id": "8XeJhWfzwcMQATA_AWKw1Q", "alias": "little-belmont-cafe-belmont", "name": "Little Belmont Cafe", "image_url": "https://s3-media3.fl.yelpcdn.com/bphoto/YMP4bto6buKEvxvKDS1Eug/o.jpg", "is_closed": false, "url": "https://www.yelp.com/biz/little-belmont-cafe-belmont?adjust_creative=gJ2vrem5KxinHaV7_d8wAA&utm_campaign=yelp_api_v3&utm_medium=api_v3_business_search&utm_source=gJ2vrem5KxinHaV7_d8wAA", "review_count": 71, "categories": [{"alias": "newamerican", "title": "American (New)"}, {"alias": "breakfast_brunch", "title": "Breakfast & Brunch"}], "rating": 3.5, "coordinates": {"latitude": 37.521659, "longitude": -122.267073}, "transactions": [], "price": "$", "location": {"address1": "232 Harbor Blvd", "address2": "", "address3": "", "city": "Belmont", "zip_code": "94002", "country": "US", "state": "CA", "display_address": ["232 Harbor Blvd", "Belmont, CA 94002"]}, "phone": "+16505926721", "display_phone": "(650) 592-6721", "distance": 2157.99821152394}, {"id": "7eoAZ8xHafP16i-NzgAZZg", "alias": "subway-restaurants-san-carlos", "name": "Subway Restaurants", "image_url": "https://s3-media2.fl.yelpcdn.com/bphoto/hQjUG7HmRQv-cHWV1avBVg/o.jpg", "is_closed": false, "url": "https://www.yelp.com/biz/subway-restaurants-san-carlos?adjust_creative=gJ2vrem5KxinHaV7_d8wAA&utm_campaign=yelp_api_v3&utm_medium=api_v3_business_search&utm_source=gJ2vrem5KxinHaV7_d8wAA", "review_count": 33, "categories": [{"alias": "sandwiches", "title": "Sandwiches"}], "rating": 3.0, "coordinates": {"latitude": 37.5051032, "longitude": -122.2580173}, "transactions": ["pickup", "delivery"], "price": "$", "location": {"address1": "744 El Camino Real", "address2": "", "address3": "", "city": "San Carlos", "zip_code": "94070", "country": "US", "state": "CA", "display_address": ["744 El Camino Real", "San Carlos, CA 94070"]}, "phone": "+16506371296", "display_phone": "(650) 637-1296", "distance": 186.37482575443173}, {"id": "7ydgMsWtaoMAjdvyjKfEjA", "alias": "old-county-deli-belmont", "name": "Old County Deli", "image_url": "https://s3-media4.fl.yelpcdn.com/bphoto/cV114YLzPNGnlw0ooQ6BPg/o.jpg", "is_closed": false, "url": "https://www.yelp.com/biz/old-county-deli-belmont?adjust_creative=gJ2vrem5KxinHaV7_d8wAA&utm_campaign=yelp_api_v3&utm_medium=api_v3_business_search&utm_source=gJ2vrem5KxinHaV7_d8wAA", "review_count": 88, "categories": [{"alias": "delis", "title": "Delis"}, {"alias": "sandwiches", "title": "Sandwiches"}, {"alias": "breakfast_brunch", "title": "Breakfast & Brunch"}], "rating": 4.0, "coordinates": {"latitude": 37.51874, "longitude": -122.27188}, "transactions": ["pickup"], "price": "$", "location": {"address1": "1331 Old County Rd", "address2": "", "address3": "", "city": "Belmont", "zip_code": "94002", "country": "US", "state": "CA", "display_address": ["1331 Old County Rd", "Belmont, CA 94002"]}, "phone": "+16505936376", "display_phone": "(650) 593-6376", "distance": 2110.8493101595686}, {"id": "m7LWVc9uHZvIvZEWTpwYAg", "alias": "una-mas-mexican-grill-redwood-city-2", "name": "Una Mas Mexican Grill", "image_url": "https://s3-media4.fl.yelpcdn.com/bphoto/KzpjahJPVHzpFQpSV7EZyw/o.jpg", "is_closed": false, "url": "https://www.yelp.com/biz/una-mas-mexican-grill-redwood-city-2?adjust_creative=gJ2vrem5KxinHaV7_d8wAA&utm_campaign=yelp_api_v3&utm_medium=api_v3_business_search&utm_source=gJ2vrem5KxinHaV7_d8wAA", "review_count": 122, "categories": [{"alias": "mexican", "title": "Mexican"}], "rating": 2.5, "coordinates": {"latitude": 37.5212357, "longitude": -122.2523838}, "transactions": ["pickup", "delivery"], "price": "$", "location": {"address1": "224 Redwood Shores Pkwy", "address2": "", "address3": "", "city": "Redwood City", "zip_code": "94065", "country": "US", "state": "CA", "display_address": ["224 Redwood Shores Pkwy", "Redwood City, CA 94065"]}, "phone": "+16506544690", "display_phone": "(650) 654-4690", "distance": 2001.6076925778382}, {"id": "uZI7a0f2xaWC4gLiXYRi0g", "alias": "carls-jr-san-carlos", "name": "Carl's Jr", "image_url": "https://s3-media2.fl.yelpcdn.com/bphoto/H0cyvz2qFvEGxZsh7W13ng/o.jpg", "is_closed": false, "url": "https://www.yelp.com/biz/carls-jr-san-carlos?adjust_creative=gJ2vrem5KxinHaV7_d8wAA&utm_campaign=yelp_api_v3&utm_medium=api_v3_business_search&utm_source=gJ2vrem5KxinHaV7_d8wAA", "review_count": 38, "categories": [{"alias": "burgers", "title": "Burgers"}, {"alias": "hotdogs", "title": "Fast Food"}], "rating": 3.5, "coordinates": {"latitude": 37.4934646359, "longitude": -122.244556124}, "transactions": ["pickup", "delivery"], "price": "$", "location": {"address1": "1800 El Camino Real", "address2": "", "address3": "", "city": "San Carlos", "zip_code": "94070", "country": "US", "state": "CA", "display_address": ["1800 El Camino Real", "San Carlos, CA 94070"]}, "phone": "+16505933062", "display_phone": "(650) 593-3062", "distance": 1589.9130279183216}, {"id": "Leup0gVdW3eHxgikGvsGmw", "alias": "tierra-blanca-sushi-y-mariscos-redwood-city-5", "name": "Tierra Blanca Sushi Y Mariscos", "image_url": "https://s3-media4.fl.yelpcdn.com/bphoto/oN511OPbO2yrk38tX11wSQ/o.jpg", "is_closed": false, "url": "https://www.yelp.com/biz/tierra-blanca-sushi-y-mariscos-redwood-city-5?adjust_creative=gJ2vrem5KxinHaV7_d8wAA&utm_campaign=yelp_api_v3&utm_medium=api_v3_business_search&utm_source=gJ2vrem5KxinHaV7_d8wAA", "review_count": 35, "categories": [{"alias": "mexican", "title": "Mexican"}, {"alias": "foodtrucks", "title": "Food Trucks"}, {"alias": "seafood", "title": "Seafood"}], "rating": 4.5, "coordinates": {"latitude": 37.4839703, "longitude": -122.2006564}, "transactions": [], "price": "$$", "location": {"address1": "2ND Ave And Page St", "address2": null, "address3": "", "city": "Redwood City", "zip_code": "94063", "country": "US", "state": "CA", "display_address": ["2ND Ave And Page St", "Redwood City, CA 94063"]}, "phone": "+16506306133", "display_phone": "(650) 630-6133", "distance": 5416.886193224389}, {"id": "YlP5VnWGKpZyd4AfaSyuig", "alias": "panda-express-belmont", "name": "Panda Express", "image_url": "https://s3-media3.fl.yelpcdn.com/bphoto/mdK1uwGivLcyGrhz6SiWjg/o.jpg", "is_closed": false, "url": "https://www.yelp.com/biz/panda-express-belmont?adjust_creative=gJ2vrem5KxinHaV7_d8wAA&utm_campaign=yelp_api_v3&utm_medium=api_v3_business_search&utm_source=gJ2vrem5KxinHaV7_d8wAA", "review_count": 88, "categories": [{"alias": "chinese", "title": "Chinese"}, {"alias": "hotdogs", "title": "Fast Food"}], "rating": 3.0, "coordinates": {"latitude": 37.5196868055361, "longitude": -122.275448449602}, "transactions": ["pickup", "delivery"], "price": "$", "location": {"address1": "1050 El Camino Real", "address2": "", "address3": "", "city": "Belmont", "zip_code": "94002", "country": "US", "state": "CA", "display_address": ["1050 El Camino Real", "Belmont, CA 94002"]}, "phone": "+16505949776", "display_phone": "(650) 594-9776", "distance": 2401.717943896664}, {"id": "mxCvb-Qy-_1uNXuRpQjA6Q", "alias": "nikkos-mexican-grill-redwood-city", "name": "Nikko's Mexican Grill", "image_url": "https://s3-media1.fl.yelpcdn.com/bphoto/vLobhyXwEYbxc492OijRow/o.jpg", "is_closed": false, "url": "https://www.yelp.com/biz/nikkos-mexican-grill-redwood-city?adjust_creative=gJ2vrem5KxinHaV7_d8wAA&utm_campaign=yelp_api_v3&utm_medium=api_v3_business_search&utm_source=gJ2vrem5KxinHaV7_d8wAA", "review_count": 144, "categories": [{"alias": "mexican", "title": "Mexican"}], "rating": 3.5, "coordinates": {"latitude": 37.4908649, "longitude": -122.2405952}, "transactions": ["pickup"], "price": "$", "location": {"address1": "408 El Camino Real", "address2": "", "address3": "", "city": "Redwood City", "zip_code": "94062", "country": "US", "state": "CA", "display_address": ["408 El Camino Real", "Redwood City, CA 94062"]}, "phone": "+16505999383", "display_phone": "(650) 599-9383", "distance": 2039.3713210896055}, {"id": "DC42MrpWtqEeWRmMsn6Z8w", "alias": "the-everest-momo-fremont-2", "name": "The Everest Momo", "image_url": "https://s3-media2.fl.yelpcdn.com/bphoto/T2f7tUQ1c104otx9oSdqYw/o.jpg", "is_closed": false, "url": "https://www.yelp.com/biz/the-everest-momo-fremont-2?adjust_creative=gJ2vrem5KxinHaV7_d8wAA&utm_campaign=yelp_api_v3&utm_medium=api_v3_business_search&utm_source=gJ2vrem5KxinHaV7_d8wAA", "review_count": 23, "categories": [{"alias": "foodtrucks", "title": "Food Trucks"}, {"alias": "indpak", "title": "Indian"}, {"alias": "himalayan", "title": "Himalayan/Nepalese"}], "rating": 4.5, "coordinates": {"latitude": 37.54643, "longitude": -121.98512}, "transactions": [], "price": "$", "location": {"address1": "39233 Fremont Blvd", "address2": null, "address3": null, "city": "Fremont", "zip_code": "94538", "country": "US", "state": "CA", "display_address": ["39233 Fremont Blvd", "Fremont, CA 94538"]}, "phone": "+14088406369", "display_phone": "(408) 840-6369", "distance": 24403.070422589248}, {"id": "5UFYI6G9xfSNzhne23hxJw", "alias": "kfc-redwood-city-2", "name": "KFC", "image_url": "https://s3-media2.fl.yelpcdn.com/bphoto/DqMl3UBWnvXuHiqE0o_VSQ/o.jpg", "is_closed": false, "url": "https://www.yelp.com/biz/kfc-redwood-city-2?adjust_creative=gJ2vrem5KxinHaV7_d8wAA&utm_campaign=yelp_api_v3&utm_medium=api_v3_business_search&utm_source=gJ2vrem5KxinHaV7_d8wAA", "review_count": 99, "categories": [{"alias": "hotdogs", "title": "Fast Food"}, {"alias": "chicken_wings", "title": "Chicken Wings"}, {"alias": "chickenshop", "title": "Chicken Shop"}], "rating": 1.5, "coordinates": {"latitude": 37.4922073994171, "longitude": -122.242942439005}, "transactions": ["pickup", "delivery"], "price": "$", "location": {"address1": "204 El Camino Real", "address2": "", "address3": "", "city": "Redwood City", "zip_code": "94062", "country": "US", "state": "CA", "display_address": ["204 El Camino Real", "Redwood City, CA 94062"]}, "phone": "+16503655360", "display_phone": "(650) 365-5360", "distance": 1789.0482712077771}, {"id": "GgPzOn7USrN9yIkuBufusw", "alias": "don-pablo-san-carlos", "name": "Don Pablo", "image_url": "https://s3-media1.fl.yelpcdn.com/bphoto/2efJr50GZLImbevfMI7ySQ/o.jpg", "is_closed": false, "url": "https://www.yelp.com/biz/don-pablo-san-carlos?adjust_creative=gJ2vrem5KxinHaV7_d8wAA&utm_campaign=yelp_api_v3&utm_medium=api_v3_business_search&utm_source=gJ2vrem5KxinHaV7_d8wAA", "review_count": 29, "categories": [{"alias": "foodtrucks", "title": "Food Trucks"}, {"alias": "peruvian", "title": "Peruvian"}], "rating": 3.0, "coordinates": {"latitude": 37.50732, "longitude": -122.26373}, "transactions": [], "price": "$$", "location": {"address1": "", "address2": "", "address3": "", "city": "San Carlos", "zip_code": "94070", "country": "US", "state": "CA", "display_address": ["San Carlos, CA 94070"]}, "phone": "+16507938184", "display_phone": "(650) 793-8184", "distance": 1477.0846169658605}, {"id": "X1NgPMMREoTTDAZPe6D-kA", "alias": "whisk-on-wheels-redwood-city", "name": "Whisk on Wheels", "image_url": "https://s3-media1.fl.yelpcdn.com/bphoto/qt-YlMlVl6G5a2wXxHgtJA/o.jpg", "is_closed": false, "url": "https://www.yelp.com/biz/whisk-on-wheels-redwood-city?adjust_creative=gJ2vrem5KxinHaV7_d8wAA&utm_campaign=yelp_api_v3&utm_medium=api_v3_business_search&utm_source=gJ2vrem5KxinHaV7_d8wAA", "review_count": 119, "categories": [{"alias": "catering", "title": "Caterers"}, {"alias": "foodtrucks", "title": "Food Trucks"}, {"alias": "tradamerican", "title": "American (Traditional)"}], "rating": 4.0, "coordinates": {"latitude": 37.48853, "longitude": -122.22662}, "transactions": [], "price": "$$", "location": {"address1": "", "address2": null, "address3": "", "city": "Redwood City", "zip_code": "94063", "country": "US", "state": "CA", "display_address": ["Redwood City, CA 94063"]}, "phone": "+14159021188", "display_phone": "(415) 902-1188", "distance": 4230.0982876870585}, {"id": "nvWZGxpKePmYh9VXxhdsfQ", "alias": "wendys-belmont-2", "name": "Wendy's", "image_url": "https://s3-media2.fl.yelpcdn.com/bphoto/-vZ9rdj7L_8Jn0E4Lgedqw/o.jpg", "is_closed": false, "url": "https://www.yelp.com/biz/wendys-belmont-2?adjust_creative=gJ2vrem5KxinHaV7_d8wAA&utm_campaign=yelp_api_v3&utm_medium=api_v3_business_search&utm_source=gJ2vrem5KxinHaV7_d8wAA", "review_count": 78, "categories": [{"alias": "hotdogs", "title": "Fast Food"}, {"alias": "burgers", "title": "Burgers"}], "rating": 2.5, "coordinates": {"latitude": 37.521441, "longitude": -122.275346}, "transactions": ["pickup", "delivery"], "price": "$", "location": {"address1": "698 Ralston Avenue", "address2": "", "address3": "", "city": "Belmont", "zip_code": "94002", "country": "US", "state": "CA", "display_address": ["698 Ralston Avenue", "Belmont, CA 94002"]}, "phone": "+16505940400", "display_phone": "(650) 594-0400", "distance": 2540.3211176628784}, {"id": "7dHj1XDVA_7AYXTfp5i-BQ", "alias": "momo-noodle-san-francisco", "name": "MOMO noodle", "image_url": "https://s3-media4.fl.yelpcdn.com/bphoto/7zlv0Fz-2CTVIPLa767RVw/o.jpg", "is_closed": false, "url": "https://www.yelp.com/biz/momo-noodle-san-francisco?adjust_creative=gJ2vrem5KxinHaV7_d8wAA&utm_campaign=yelp_api_v3&utm_medium=api_v3_business_search&utm_source=gJ2vrem5KxinHaV7_d8wAA", "review_count": 46, "categories": [{"alias": "noodles", "title": "Noodles"}, {"alias": "foodtrucks", "title": "Food Trucks"}, {"alias": "szechuan", "title": "Szechuan"}], "rating": 4.0, "coordinates": {"latitude": 37.79106, "longitude": -122.40175}, "transactions": [], "price": "$$", "location": {"address1": null, "address2": null, "address3": "", "city": "San Francisco", "zip_code": "94104", "country": "US", "state": "CA", "display_address": ["San Francisco, CA 94104"]}, "phone": "+14088006819", "display_phone": "(408) 800-6819", "distance": 34388.04319003826}, {"id": "Is1KN9f5THyPgo1RjAxRzg", "alias": "madd-mex-cantina-food-truck-san-mateo-3", "name": "Madd Mex Cantina Food Truck", "image_url": "https://s3-media3.fl.yelpcdn.com/bphoto/sqUQfoUkNqzsWDktPN09Dg/o.jpg", "is_closed": false, "url": "https://www.yelp.com/biz/madd-mex-cantina-food-truck-san-mateo-3?adjust_creative=gJ2vrem5KxinHaV7_d8wAA&utm_campaign=yelp_api_v3&utm_medium=api_v3_business_search&utm_source=gJ2vrem5KxinHaV7_d8wAA", "review_count": 225, "categories": [{"alias": "foodtrucks", "title": "Food Trucks"}, {"alias": "mexican", "title": "Mexican"}, {"alias": "catering", "title": "Caterers"}], "rating": 4.5, "coordinates": {"latitude": 37.5521392822266, "longitude": -122.260833740234}, "transactions": [], "price": "$", "location": {"address1": "", "address2": null, "address3": "", "city": "San Mateo", "zip_code": "94404", "country": "US", "state": "CA", "display_address": ["San Mateo, CA 94404"]}, "phone": "", "display_phone": "", "distance": 5792.752899579876}, {"id": "XTnxXyqKjfUdfWT65i8AVQ", "alias": "hot-dogs-at-home-depot-san-carlos", "name": "Hot Dogs at Home Depot", "image_url": "", "is_closed": false, "url": "https://www.yelp.com/biz/hot-dogs-at-home-depot-san-carlos?adjust_creative=gJ2vrem5KxinHaV7_d8wAA&utm_campaign=yelp_api_v3&utm_medium=api_v3_business_search&utm_source=gJ2vrem5KxinHaV7_d8wAA", "review_count": 1, "categories": [{"alias": "hotdog", "title": "Hot Dogs"}], "rating": 3.0, "coordinates": {"latitude": 37.50111, "longitude": -122.25024}, "transactions": [], "location": {"address1": "1125 Old County Rd", "address2": "", "address3": "", "city": "San Carlos", "zip_code": "94070", "country": "US", "state": "CA", "display_address": ["1125 Old County Rd", "San Carlos, CA 94070"]}, "phone": "", "display_phone": "", "distance": 672.3036460964438}, {"id": "ds02863d-mQsheYpFHh7Ow", "alias": "mcdonalds-san-carlos", "name": "McDonald's", "image_url": "https://s3-media2.fl.yelpcdn.com/bphoto/eFFjM4JM52VeiEr_xr7-KA/o.jpg", "is_closed": false, "url": "https://www.yelp.com/biz/mcdonalds-san-carlos?adjust_creative=gJ2vrem5KxinHaV7_d8wAA&utm_campaign=yelp_api_v3&utm_medium=api_v3_business_search&utm_source=gJ2vrem5KxinHaV7_d8wAA", "review_count": 46, "categories": [{"alias": "hotdogs", "title": "Fast Food"}, {"alias": "burgers", "title": "Burgers"}, {"alias": "coffee", "title": "Coffee & Tea"}], "rating": 1.5, "coordinates": {"latitude": 37.5111663349852, "longitude": -122.265793610445}, "transactions": [], "price": "$", "location": {"address1": "180 El Camino Real", "address2": "", "address3": "", "city": "San Carlos", "zip_code": "94070", "country": "US", "state": "CA", "display_address": ["180 El Camino Real", "San Carlos, CA 94070"]}, "phone": "+16505954479", "display_phone": "(650) 595-4479", "distance": 1129.523557763629}, {"id": "SBff4xND1lvvaSwSroqyWQ", "alias": "el-tulense-truck-san-carlos", "name": "El Tulense Truck", "image_url": "https://s3-media4.fl.yelpcdn.com/bphoto/5T0n40w-s31VwwQTQJ1y4Q/o.jpg", "is_closed": false, "url": "https://www.yelp.com/biz/el-tulense-truck-san-carlos?adjust_creative=gJ2vrem5KxinHaV7_d8wAA&utm_campaign=yelp_api_v3&utm_medium=api_v3_business_search&utm_source=gJ2vrem5KxinHaV7_d8wAA", "review_count": 2, "categories": [{"alias": "foodstands", "title": "Food Stands"}], "rating": 3.5, "coordinates": {"latitude": 37.5045013, "longitude": -122.262291}, "transactions": [], "location": {"address1": "Old Country Road And Bransten", "address2": "", "address3": "", "city": "San Carlos", "zip_code": "", "country": "US", "state": "CA", "display_address": ["Old Country Road And Bransten", "San Carlos, CA"]}, "phone": "", "display_phone": "", "distance": 485.5191992098046}, {"id": "zRHfNd6OwNkAtYkhTgpYzA", "alias": "togo-s-sandwiches-redwood-city", "name": "Togo\u2019s Sandwiches", "image_url": "https://s3-media2.fl.yelpcdn.com/bphoto/Rzr283gWb9hTjUt2SyPRJg/o.jpg", "is_closed": false, "url": "https://www.yelp.com/biz/togo-s-sandwiches-redwood-city?adjust_creative=gJ2vrem5KxinHaV7_d8wAA&utm_campaign=yelp_api_v3&utm_medium=api_v3_business_search&utm_source=gJ2vrem5KxinHaV7_d8wAA", "review_count": 64, "categories": [{"alias": "sandwiches", "title": "Sandwiches"}, {"alias": "delis", "title": "Delis"}, {"alias": "hotdogs", "title": "Fast Food"}], "rating": 3.0, "coordinates": {"latitude": 37.521757972012, "longitude": -122.25179163729}, "transactions": ["pickup", "delivery"], "price": "$", "location": {"address1": "242 Redwood Shores Pkwy", "address2": "", "address3": "", "city": "Redwood City", "zip_code": "94065", "country": "US", "state": "CA", "display_address": ["242 Redwood Shores Pkwy", "Redwood City, CA 94065"]}, "phone": "+16506547760", "display_phone": "(650) 654-7760", "distance": 2003.4218844078896}, {"id": "NqS3fhdrZpKI0SD85g1cPA", "alias": "subway-restaurants-belmont-4", "name": "Subway Restaurants", "image_url": "https://s3-media1.fl.yelpcdn.com/bphoto/_KBh_K7TnzjNUgrMA2nFZA/o.jpg", "is_closed": false, "url": "https://www.yelp.com/biz/subway-restaurants-belmont-4?adjust_creative=gJ2vrem5KxinHaV7_d8wAA&utm_campaign=yelp_api_v3&utm_medium=api_v3_business_search&utm_source=gJ2vrem5KxinHaV7_d8wAA", "review_count": 24, "categories": [{"alias": "sandwiches", "title": "Sandwiches"}], "rating": 2.5, "coordinates": {"latitude": 37.5143427, "longitude": -122.2690676}, "transactions": ["pickup", "delivery"], "price": "$", "location": {"address1": "1602 El Camino Real", "address2": "", "address3": "", "city": "Belmont", "zip_code": "94002", "country": "US", "state": "CA", "display_address": ["1602 El Camino Real", "Belmont, CA 94002"]}, "phone": "+16505914536", "display_phone": "(650) 591-4536", "distance": 1587.3652945588112}, {"id": "_gTBecsKzbvqHMdzzt6-2g", "alias": "burger-king-redwood-city", "name": "Burger King", "image_url": "https://s3-media4.fl.yelpcdn.com/bphoto/R_UBHgmy6upa0_Naim9Aqg/o.jpg", "is_closed": false, "url": "https://www.yelp.com/biz/burger-king-redwood-city?adjust_creative=gJ2vrem5KxinHaV7_d8wAA&utm_campaign=yelp_api_v3&utm_medium=api_v3_business_search&utm_source=gJ2vrem5KxinHaV7_d8wAA", "review_count": 59, "categories": [{"alias": "burgers", "title": "Burgers"}, {"alias": "hotdogs", "title": "Fast Food"}], "rating": 2.5, "coordinates": {"latitude": 37.48938, "longitude": -122.23801}, "transactions": ["delivery"], "price": "$", "location": {"address1": "575 El Camino Real", "address2": "", "address3": "", "city": "Redwood City", "zip_code": "94063", "country": "US", "state": "CA", "display_address": ["575 El Camino Real", "Redwood City, CA 94063"]}, "phone": "+16503689113", "display_phone": "(650) 368-9113", "distance": 2301.0615634790347}, {"id": "40DtuR_HxNuBVf_uSoy66Q", "alias": "keeku-da-dhaba-fremont-2", "name": "Keeku da Dhaba", "image_url": "https://s3-media2.fl.yelpcdn.com/bphoto/8x2WS8oGXINIKI6pNnQYBw/o.jpg", "is_closed": false, "url": "https://www.yelp.com/biz/keeku-da-dhaba-fremont-2?adjust_creative=gJ2vrem5KxinHaV7_d8wAA&utm_campaign=yelp_api_v3&utm_medium=api_v3_business_search&utm_source=gJ2vrem5KxinHaV7_d8wAA", "review_count": 115, "categories": [{"alias": "indpak", "title": "Indian"}, {"alias": "foodtrucks", "title": "Food Trucks"}, {"alias": "kebab", "title": "Kebab"}], "rating": 4.5, "coordinates": {"latitude": 37.551938, "longitude": -121.985058}, "transactions": [], "location": {"address1": "3400 Mowry Ave", "address2": "", "address3": "Bharat Bazaar Parking Space", "city": "Fremont", "zip_code": "94538", "country": "US", "state": "CA", "display_address": ["3400 Mowry Ave", "Bharat Bazaar Parking Space", "Fremont, CA 94538"]}, "phone": "+15107893437", "display_phone": "(510) 789-3437", "distance": 24523.630925407164}, {"id": "ir24Kau9NcNftGlX1e84mw", "alias": "taco-truck-redwood-city", "name": "Taco Truck", "image_url": "", "is_closed": false, "url": "https://www.yelp.com/biz/taco-truck-redwood-city?adjust_creative=gJ2vrem5KxinHaV7_d8wAA&utm_campaign=yelp_api_v3&utm_medium=api_v3_business_search&utm_source=gJ2vrem5KxinHaV7_d8wAA", "review_count": 3, "categories": [{"alias": "mexican", "title": "Mexican"}, {"alias": "importedfood", "title": "Imported Food"}], "rating": 4.0, "coordinates": {"latitude": 37.5177935022632, "longitude": -122.254700660706}, "transactions": [], "location": {"address1": "Redwood Shores", "address2": "", "address3": "By San Carlos Airport", "city": "Redwood City", "zip_code": "94065", "country": "US", "state": "CA", "display_address": ["Redwood Shores", "By San Carlos Airport", "Redwood City, CA 94065"]}, "phone": "", "display_phone": "", "distance": 1526.9149894915352}, {"id": "N8FvOci38z142EHoZmpIkA", "alias": "rice-garden-san-carlos", "name": "Rice Garden", "image_url": "https://s3-media3.fl.yelpcdn.com/bphoto/KRS7_Nzz1NOVARcqzK-tLg/o.jpg", "is_closed": false, "url": "https://www.yelp.com/biz/rice-garden-san-carlos?adjust_creative=gJ2vrem5KxinHaV7_d8wAA&utm_campaign=yelp_api_v3&utm_medium=api_v3_business_search&utm_source=gJ2vrem5KxinHaV7_d8wAA", "review_count": 12, "categories": [{"alias": "chinese", "title": "Chinese"}, {"alias": "hotdogs", "title": "Fast Food"}, {"alias": "asianfusion", "title": "Asian Fusion"}], "rating": 2.0, "coordinates": {"latitude": 37.5000343322754, "longitude": -122.249229431152}, "transactions": [], "price": "$", "location": {"address1": "1133 Old County Rd", "address2": "", "address3": "", "city": "San Carlos", "zip_code": "94070", "country": "US", "state": "CA", "display_address": ["1133 Old County Rd", "San Carlos, CA 94070"]}, "phone": "+16506315866", "display_phone": "(650) 631-5866", "distance": 802.6570770304335}, {"id": "47KW8JVhn5YxGebz3BiiNg", "alias": "kellys-deli-san-carlos-2", "name": "Kelly's Deli", "image_url": "", "is_closed": false, "url": "https://www.yelp.com/biz/kellys-deli-san-carlos-2?adjust_creative=gJ2vrem5KxinHaV7_d8wAA&utm_campaign=yelp_api_v3&utm_medium=api_v3_business_search&utm_source=gJ2vrem5KxinHaV7_d8wAA", "review_count": 1, "categories": [{"alias": "hotdogs", "title": "Fast Food"}], "rating": 3.0, "coordinates": {"latitude": 37.5011101, "longitude": -122.2502365}, "transactions": [], "location": {"address1": "1125 Old Country Rd", "address2": "", "address3": "", "city": "San Carlos", "zip_code": "94070", "country": "US", "state": "CA", "display_address": ["1125 Old Country Rd", "San Carlos, CA 94070"]}, "phone": "+14089218148", "display_phone": "(408) 921-8148", "distance": 672.0893785539441}, {"id": "lgheXsHqe66AEZwoPDIEpw", "alias": "taco-coma-newark", "name": "Taco Coma", "image_url": "https://s3-media3.fl.yelpcdn.com/bphoto/DDz5lZDL5lDiRR_Ph0L4Sg/o.jpg", "is_closed": false, "url": "https://www.yelp.com/biz/taco-coma-newark?adjust_creative=gJ2vrem5KxinHaV7_d8wAA&utm_campaign=yelp_api_v3&utm_medium=api_v3_business_search&utm_source=gJ2vrem5KxinHaV7_d8wAA", "review_count": 3, "categories": [{"alias": "foodstands", "title": "Food Stands"}, {"alias": "tacos", "title": "Tacos"}], "rating": 5.0, "coordinates": {"latitude": 37.53453, "longitude": -122.03284}, "transactions": [], "location": {"address1": "", "address2": null, "address3": "", "city": "Newark", "zip_code": "94560", "country": "US", "state": "CA", "display_address": ["Newark, CA 94560"]}, "phone": "+15106971448", "display_phone": "(510) 697-1448", "distance": 19453.324276015243}, {"id": "dWm_Ouf0H6BSrLHXm4p1mg", "alias": "stazione-cafe-san-carlos", "name": "Stazione Cafe", "image_url": "", "is_closed": false, "url": "https://www.yelp.com/biz/stazione-cafe-san-carlos?adjust_creative=gJ2vrem5KxinHaV7_d8wAA&utm_campaign=yelp_api_v3&utm_medium=api_v3_business_search&utm_source=gJ2vrem5KxinHaV7_d8wAA", "review_count": 1, "categories": [{"alias": "restaurants", "title": "Restaurants"}], "rating": 3.0, "coordinates": {"latitude": 37.4976005554199, "longitude": -122.266998291016}, "transactions": [], "location": {"address1": null, "address2": null, "address3": "", "city": "San Carlos", "zip_code": "94071", "country": "US", "state": "CA", "display_address": ["San Carlos, CA 94071"]}, "phone": "", "display_phone": "", "distance": 1174.2707439479411}, {"id": "8SNGFcMWZkvS4GWDUL8w1Q", "alias": "noon-o-kabob-san-jose-4", "name": "Noon O Kabob", "image_url": "https://s3-media2.fl.yelpcdn.com/bphoto/5GmY5FRw0m0XEWC5XXbVlA/o.jpg", "is_closed": false, "url": "https://www.yelp.com/biz/noon-o-kabob-san-jose-4?adjust_creative=gJ2vrem5KxinHaV7_d8wAA&utm_campaign=yelp_api_v3&utm_medium=api_v3_business_search&utm_source=gJ2vrem5KxinHaV7_d8wAA", "review_count": 29, "categories": [{"alias": "foodtrucks", "title": "Food Trucks"}, {"alias": "kebab", "title": "Kebab"}, {"alias": "persian", "title": "Persian/Iranian"}], "rating": 4.5, "coordinates": {"latitude": 37.3940232, "longitude": -122.0288052}, "transactions": [], "price": "$$", "location": {"address1": null, "address2": null, "address3": null, "city": "San Jose", "zip_code": "95101", "country": "US", "state": "CA", "display_address": ["San Jose, CA 95101"]}, "phone": "+14083346777", "display_phone": "(408) 334-6777", "distance": 23539.450093565825}, {"id": "lGLyIlp2qqAVu5Zxeomy9Q", "alias": "gondo-fusion-south-san-francisco", "name": "Gondo Fusion", "image_url": "https://s3-media2.fl.yelpcdn.com/bphoto/Ry4KFwoAev_BGRpe2WtcYA/o.jpg", "is_closed": false, "url": "https://www.yelp.com/biz/gondo-fusion-south-san-francisco?adjust_creative=gJ2vrem5KxinHaV7_d8wAA&utm_campaign=yelp_api_v3&utm_medium=api_v3_business_search&utm_source=gJ2vrem5KxinHaV7_d8wAA", "review_count": 13, "categories": [{"alias": "foodtrucks", "title": "Food Trucks"}, {"alias": "cuban", "title": "Cuban"}, {"alias": "mexican", "title": "Mexican"}], "rating": 4.0, "coordinates": {"latitude": 37.65774, "longitude": -122.41407}, "transactions": [], "location": {"address1": "", "address2": null, "address3": "", "city": "South San Francisco", "zip_code": "94080", "country": "US", "state": "CA", "display_address": ["South San Francisco, CA 94080"]}, "phone": "+16502185404", "display_phone": "(650) 218-5404", "distance": 21866.651417036835}, {"id": "rM6pPB_qmQ3de5yGpfLT1g", "alias": "lomo-libre-san-francisco-2", "name": "Lomo Libre", "image_url": "https://s3-media1.fl.yelpcdn.com/bphoto/vjnO-EUjFHKoLMy2_JQYvg/o.jpg", "is_closed": false, "url": "https://www.yelp.com/biz/lomo-libre-san-francisco-2?adjust_creative=gJ2vrem5KxinHaV7_d8wAA&utm_campaign=yelp_api_v3&utm_medium=api_v3_business_search&utm_source=gJ2vrem5KxinHaV7_d8wAA", "review_count": 8, "categories": [{"alias": "foodtrucks", "title": "Food Trucks"}, {"alias": "peruvian", "title": "Peruvian"}], "rating": 5.0, "coordinates": {"latitude": 37.799634, "longitude": -122.436301}, "transactions": [], "location": {"address1": "2101 Lombard St", "address2": "", "address3": null, "city": "San Francisco", "zip_code": "94123", "country": "US", "state": "CA", "display_address": ["2101 Lombard St", "San Francisco, CA 94123"]}, "phone": "+14156198149", "display_phone": "(415) 619-8149", "distance": 36470.301158476395}, {"id": "y7jjHpDrYUI7YGpE8e31-g", "alias": "pita-and-salt-santa-clara-2", "name": "Pita & Salt", "image_url": "https://s3-media4.fl.yelpcdn.com/bphoto/OzeFWYEgK2L4rl5VOSyEHQ/o.jpg", "is_closed": false, "url": "https://www.yelp.com/biz/pita-and-salt-santa-clara-2?adjust_creative=gJ2vrem5KxinHaV7_d8wAA&utm_campaign=yelp_api_v3&utm_medium=api_v3_business_search&utm_source=gJ2vrem5KxinHaV7_d8wAA", "review_count": 74, "categories": [{"alias": "mediterranean", "title": "Mediterranean"}, {"alias": "halal", "title": "Halal"}, {"alias": "foodtrucks", "title": "Food Trucks"}], "rating": 4.5, "coordinates": {"latitude": 37.3400871, "longitude": -121.987255}, "transactions": ["delivery", "pickup"], "price": "$", "location": {"address1": null, "address2": null, "address3": "", "city": "Santa Clara", "zip_code": "95051", "country": "US", "state": "CA", "display_address": ["Santa Clara, CA 95051"]}, "phone": "+16128765509", "display_phone": "(612) 876-5509", "distance": 29971.419234448385}, {"id": "qOKiXV4yxm40m3Ni9vsQlA", "alias": "momo-cook-fremont-3", "name": "MoMo CooK", "image_url": "https://s3-media1.fl.yelpcdn.com/bphoto/ZAM_gtFZMwrxbsxML0Qm2w/o.jpg", "is_closed": false, "url": "https://www.yelp.com/biz/momo-cook-fremont-3?adjust_creative=gJ2vrem5KxinHaV7_d8wAA&utm_campaign=yelp_api_v3&utm_medium=api_v3_business_search&utm_source=gJ2vrem5KxinHaV7_d8wAA", "review_count": 143, "categories": [{"alias": "chinese", "title": "Chinese"}, {"alias": "indpak", "title": "Indian"}, {"alias": "foodtrucks", "title": "Food Trucks"}], "rating": 4.5, "coordinates": {"latitude": 37.5536230879515, "longitude": -121.982570104301}, "transactions": [], "price": "$", "location": {"address1": "39039 Capitol Ave", "address2": null, "address3": "", "city": "Fremont", "zip_code": "94538", "country": "US", "state": "CA", "display_address": ["39039 Capitol Ave", "Fremont, CA 94538"]}, "phone": "+16012126767", "display_phone": "(601) 212-6767", "distance": 24778.543454716557}, {"id": "jVGGp6ZQ_0jMVcDA8zC3nA", "alias": "mobile-food-fleet-san-bruno", "name": "Mobile Food Fleet", "image_url": "https://s3-media2.fl.yelpcdn.com/bphoto/mdPFUd9IwfEUibv4sFZ5Jg/o.jpg", "is_closed": false, "url": "https://www.yelp.com/biz/mobile-food-fleet-san-bruno?adjust_creative=gJ2vrem5KxinHaV7_d8wAA&utm_campaign=yelp_api_v3&utm_medium=api_v3_business_search&utm_source=gJ2vrem5KxinHaV7_d8wAA", "review_count": 1, "categories": [{"alias": "foodtrucks", "title": "Food Trucks"}, {"alias": "tacos", "title": "Tacos"}], "rating": 5.0, "coordinates": {"latitude": 37.6276206970215, "longitude": -122.425605773926}, "transactions": [], "location": {"address1": "", "address2": null, "address3": "", "city": "San Bruno", "zip_code": "94066", "country": "US", "state": "CA", "display_address": ["San Bruno, CA 94066"]}, "phone": "+16507735397", "display_phone": "(650) 773-5397", "distance": 20052.1152050884}, {"id": "2foqEQPQVy91S_ze4Win-A", "alias": "lamas-peruvian-truck-daly-city-2", "name": "Lamas Peruvian Truck", "image_url": "https://s3-media3.fl.yelpcdn.com/bphoto/G81twUQQu_9iDQMlyq58AA/o.jpg", "is_closed": false, "url": "https://www.yelp.com/biz/lamas-peruvian-truck-daly-city-2?adjust_creative=gJ2vrem5KxinHaV7_d8wAA&utm_campaign=yelp_api_v3&utm_medium=api_v3_business_search&utm_source=gJ2vrem5KxinHaV7_d8wAA", "review_count": 32, "categories": [{"alias": "foodtrucks", "title": "Food Trucks"}, {"alias": "peruvian", "title": "Peruvian"}], "rating": 3.5, "coordinates": {"latitude": 37.69158, "longitude": -122.46252}, "transactions": [], "price": "$$", "location": {"address1": "", "address2": null, "address3": null, "city": "Daly City", "zip_code": "94014", "country": "US", "state": "CA", "display_address": ["Daly City, CA 94014"]}, "phone": "+16507979866", "display_phone": "(650) 797-9866", "distance": 26961.113079972674}, {"id": "PxzM_zNIOy7jdtwT-fbB0w", "alias": "minnie-bells-san-francisco-2", "name": "Minnie Bells", "image_url": "https://s3-media2.fl.yelpcdn.com/bphoto/5YNxEigMmu8anIwGkIsEzg/o.jpg", "is_closed": false, "url": "https://www.yelp.com/biz/minnie-bells-san-francisco-2?adjust_creative=gJ2vrem5KxinHaV7_d8wAA&utm_campaign=yelp_api_v3&utm_medium=api_v3_business_search&utm_source=gJ2vrem5KxinHaV7_d8wAA", "review_count": 15, "categories": [{"alias": "soulfood", "title": "Soul Food"}, {"alias": "foodtrucks", "title": "Food Trucks"}, {"alias": "comfortfood", "title": "Comfort Food"}], "rating": 4.5, "coordinates": {"latitude": 37.7769775466477, "longitude": -122.416963241994}, "transactions": [], "location": {"address1": "", "address2": "", "address3": null, "city": "San Francisco", "zip_code": "94103", "country": "US", "state": "CA", "display_address": ["San Francisco, CA 94103"]}, "phone": "+14152739340", "display_phone": "(415) 273-9340", "distance": 33465.07783880757}, {"id": "iA2CQeT9iWbUifpYrqtRbw", "alias": "yeeshaans-grubb-san-mateo-san-mateo-3", "name": "YeeShaans Grubb - San Mateo", "image_url": "https://s3-media1.fl.yelpcdn.com/bphoto/4Feev8zrWsRWiaBTiBDXCQ/o.jpg", "is_closed": false, "url": "https://www.yelp.com/biz/yeeshaans-grubb-san-mateo-san-mateo-3?adjust_creative=gJ2vrem5KxinHaV7_d8wAA&utm_campaign=yelp_api_v3&utm_medium=api_v3_business_search&utm_source=gJ2vrem5KxinHaV7_d8wAA", "review_count": 4, "categories": [{"alias": "halal", "title": "Halal"}, {"alias": "burgers", "title": "Burgers"}, {"alias": "foodtrucks", "title": "Food Trucks"}], "rating": 5.0, "coordinates": {"latitude": 37.5528491, "longitude": -122.3145976}, "transactions": ["delivery", "pickup"], "location": {"address1": "1619 S El Camino Real", "address2": null, "address3": "", "city": "San Mateo", "zip_code": "94402", "country": "US", "state": "CA", "display_address": ["1619 S El Camino Real", "San Mateo, CA 94402"]}, "phone": "+15106059510", "display_phone": "(510) 605-9510", "distance": 7479.517243173199}, {"id": "WTtLB137UZmS1WbKrnXuAg", "alias": "borsch-mobile-san-francisco", "name": "Borsch Mobile", "image_url": "https://s3-media4.fl.yelpcdn.com/bphoto/xzNCVt8nwmvwdWuUEEbvaA/o.jpg", "is_closed": false, "url": "https://www.yelp.com/biz/borsch-mobile-san-francisco?adjust_creative=gJ2vrem5KxinHaV7_d8wAA&utm_campaign=yelp_api_v3&utm_medium=api_v3_business_search&utm_source=gJ2vrem5KxinHaV7_d8wAA", "review_count": 30, "categories": [{"alias": "russian", "title": "Russian"}, {"alias": "foodtrucks", "title": "Food Trucks"}, {"alias": "modern_european", "title": "Modern European"}], "rating": 4.5, "coordinates": {"latitude": 37.7713890075684, "longitude": -122.393447875977}, "transactions": [], "price": "$$", "location": {"address1": "", "address2": "", "address3": null, "city": "San Francisco", "zip_code": "94158", "country": "US", "state": "CA", "display_address": ["San Francisco, CA 94158"]}, "phone": "+14157704371", "display_phone": "(415) 770-4371", "distance": 32225.415041036802}, {"id": "1e93gYXXlBHA0-XJXicJhQ", "alias": "inshallah-food-truck-south-san-francisco-2", "name": "Inshallah Food Truck", "image_url": "https://s3-media1.fl.yelpcdn.com/bphoto/IBFIlRI2k5jz_4uMvkIIUw/o.jpg", "is_closed": false, "url": "https://www.yelp.com/biz/inshallah-food-truck-south-san-francisco-2?adjust_creative=gJ2vrem5KxinHaV7_d8wAA&utm_campaign=yelp_api_v3&utm_medium=api_v3_business_search&utm_source=gJ2vrem5KxinHaV7_d8wAA", "review_count": 1, "categories": [{"alias": "mediterranean", "title": "Mediterranean"}, {"alias": "foodtrucks", "title": "Food Trucks"}], "rating": 3.0, "coordinates": {"latitude": 37.66737, "longitude": -122.38249}, "transactions": [], "location": {"address1": "395 Oyster Point", "address2": null, "address3": "", "city": "South San Francisco", "zip_code": "94080", "country": "US", "state": "CA", "display_address": ["395 Oyster Point", "South San Francisco, CA 94080"]}, "phone": "+16502716848", "display_phone": "(650) 271-6848", "distance": 21331.937835174285}, {"id": "jCcAuXhCpeJP2n-8ol7mxg", "alias": "kolobok-russian-soul-food-truck-oakland", "name": "Kolobok Russian Soul Food Truck", "image_url": "https://s3-media1.fl.yelpcdn.com/bphoto/k8s1Bfc05Iw7SJXE6VJ74Q/o.jpg", "is_closed": false, "url": "https://www.yelp.com/biz/kolobok-russian-soul-food-truck-oakland?adjust_creative=gJ2vrem5KxinHaV7_d8wAA&utm_campaign=yelp_api_v3&utm_medium=api_v3_business_search&utm_source=gJ2vrem5KxinHaV7_d8wAA", "review_count": 47, "categories": [{"alias": "foodtrucks", "title": "Food Trucks"}, {"alias": "russian", "title": "Russian"}], "rating": 4.5, "coordinates": {"latitude": 37.7883087690458, "longitude": -122.309032460882}, "transactions": [], "price": "$$", "location": {"address1": null, "address2": null, "address3": "", "city": "Oakland", "zip_code": "94577", "country": "US", "state": "CA", "display_address": ["Oakland, CA 94577"]}, "phone": "+15105996542", "display_phone": "(510) 599-6542", "distance": 31934.226199213397}, {"id": "or6vgjw2EFtsWUW_F_eW3A", "alias": "yoshi-food-truck-fremont-2", "name": "Yoshi Food Truck", "image_url": "https://s3-media3.fl.yelpcdn.com/bphoto/YTdMb9ocRxHjMv-CEYwN5g/o.jpg", "is_closed": false, "url": "https://www.yelp.com/biz/yoshi-food-truck-fremont-2?adjust_creative=gJ2vrem5KxinHaV7_d8wAA&utm_campaign=yelp_api_v3&utm_medium=api_v3_business_search&utm_source=gJ2vrem5KxinHaV7_d8wAA", "review_count": 27, "categories": [{"alias": "foodtrucks", "title": "Food Trucks"}, {"alias": "poke", "title": "Poke"}, {"alias": "japanese", "title": "Japanese"}], "rating": 4.5, "coordinates": {"latitude": 37.494597, "longitude": -121.94160967}, "transactions": [], "location": {"address1": "45500 Fremont Blvd", "address2": null, "address3": "", "city": "Fremont", "zip_code": "94538", "country": "US", "state": "CA", "display_address": ["45500 Fremont Blvd", "Fremont, CA 94538"]}, "phone": "+16693776666", "display_phone": "(669) 377-6666", "distance": 27926.564558004084}, {"id": "kQEPAzL76d_4F8RJwpmYCQ", "alias": "3-3-3-fremont", "name": "3-3-3", "image_url": "https://s3-media1.fl.yelpcdn.com/bphoto/WrUzEXSitGcLpQkVQsUgWg/o.jpg", "is_closed": false, "url": "https://www.yelp.com/biz/3-3-3-fremont?adjust_creative=gJ2vrem5KxinHaV7_d8wAA&utm_campaign=yelp_api_v3&utm_medium=api_v3_business_search&utm_source=gJ2vrem5KxinHaV7_d8wAA", "review_count": 182, "categories": [{"alias": "korean", "title": "Korean"}, {"alias": "foodtrucks", "title": "Food Trucks"}, {"alias": "indpak", "title": "Indian"}], "rating": 4.0, "coordinates": {"latitude": 37.3595859789331, "longitude": -121.923039561035}, "transactions": [], "price": "$", "location": {"address1": "", "address2": null, "address3": "", "city": "Fremont", "zip_code": "94539", "country": "US", "state": "CA", "display_address": ["Fremont, CA 94539"]}, "phone": "+15104498360", "display_phone": "(510) 449-8360", "distance": 33548.86098481363}, {"id": "Lg73M4FnC1QQmUGpGHD4hA", "alias": "kabob-trolley-san-francisco-5", "name": "Kabob Trolley", "image_url": "https://s3-media2.fl.yelpcdn.com/bphoto/6WneQFOu-WWB-80KhY5TeA/o.jpg", "is_closed": false, "url": "https://www.yelp.com/biz/kabob-trolley-san-francisco-5?adjust_creative=gJ2vrem5KxinHaV7_d8wAA&utm_campaign=yelp_api_v3&utm_medium=api_v3_business_search&utm_source=gJ2vrem5KxinHaV7_d8wAA", "review_count": 86, "categories": [{"alias": "foodtrucks", "title": "Food Trucks"}, {"alias": "afghani", "title": "Afghan"}, {"alias": "halal", "title": "Halal"}], "rating": 3.5, "coordinates": {"latitude": 37.776774, "longitude": -122.3940414}, "transactions": ["pickup"], "price": "$", "location": {"address1": "298 King St", "address2": "", "address3": "", "city": "San Francisco", "zip_code": "94107", "country": "US", "state": "CA", "display_address": ["298 King St", "San Francisco, CA 94107"]}, "phone": "+14154049756", "display_phone": "(415) 404-9756", "distance": 32643.486437177955}, {"id": "RZuGdsSkwvpIt3Nnjyga8A", "alias": "serendipity-food-truck-san-francisco", "name": "Serendipity Food Truck", "image_url": "https://s3-media1.fl.yelpcdn.com/bphoto/HM1b2tiz7b-odiAGU6SY8g/o.jpg", "is_closed": false, "url": "https://www.yelp.com/biz/serendipity-food-truck-san-francisco?adjust_creative=gJ2vrem5KxinHaV7_d8wAA&utm_campaign=yelp_api_v3&utm_medium=api_v3_business_search&utm_source=gJ2vrem5KxinHaV7_d8wAA", "review_count": 23, "categories": [{"alias": "newamerican", "title": "American (New)"}, {"alias": "foodtrucks", "title": "Food Trucks"}, {"alias": "comfortfood", "title": "Comfort Food"}], "rating": 4.5, "coordinates": {"latitude": 37.73053, "longitude": -122.38523}, "transactions": [], "price": "$$", "location": {"address1": "", "address2": null, "address3": "", "city": "San Francisco", "zip_code": "94124", "country": "US", "state": "CA", "display_address": ["San Francisco, CA 94124"]}, "phone": "+19164791437", "display_phone": "(916) 479-1437", "distance": 27566.79915540795}, {"id": "CUwBAy6lrFi4x6Neu9eRVw", "alias": "mini-street-burger-alameda-3", "name": "Mini Street Burger", "image_url": "https://s3-media2.fl.yelpcdn.com/bphoto/Kh-OQKBIclWY1dCeIuu57w/o.jpg", "is_closed": false, "url": "https://www.yelp.com/biz/mini-street-burger-alameda-3?adjust_creative=gJ2vrem5KxinHaV7_d8wAA&utm_campaign=yelp_api_v3&utm_medium=api_v3_business_search&utm_source=gJ2vrem5KxinHaV7_d8wAA", "review_count": 28, "categories": [{"alias": "foodtrucks", "title": "Food Trucks"}, {"alias": "burgers", "title": "Burgers"}], "rating": 4.0, "coordinates": {"latitude": 37.82628, "longitude": -122.25101}, "transactions": [], "location": {"address1": null, "address2": null, "address3": null, "city": "Alameda", "zip_code": "94611", "country": "US", "state": "CA", "display_address": ["Alameda, CA 94611"]}, "phone": "+15108278982", "display_phone": "(510) 827-8982", "distance": 36939.455301676455}, {"id": "MutHfYUQnieaBuycuNXEPA", "alias": "damians-tacos-and-hotdogs-alum-rock", "name": "Damian's Tacos & Hotdogs", "image_url": "https://s3-media3.fl.yelpcdn.com/bphoto/HHmnhqlFJwEDhftVetH4qw/o.jpg", "is_closed": false, "url": "https://www.yelp.com/biz/damians-tacos-and-hotdogs-alum-rock?adjust_creative=gJ2vrem5KxinHaV7_d8wAA&utm_campaign=yelp_api_v3&utm_medium=api_v3_business_search&utm_source=gJ2vrem5KxinHaV7_d8wAA", "review_count": 7, "categories": [{"alias": "foodtrucks", "title": "Food Trucks"}, {"alias": "tacos", "title": "Tacos"}, {"alias": "hotdog", "title": "Hot Dogs"}], "rating": 4.5, "coordinates": {"latitude": 37.3549620850075, "longitude": -121.851418079178}, "transactions": [], "price": "$", "location": {"address1": "1925 Alumrock Ave", "address2": "", "address3": null, "city": "Alum Rock", "zip_code": "95116", "country": "US", "state": "CA", "display_address": ["1925 Alumrock Ave", "Alum Rock, CA 95116"]}, "phone": "+14084397331", "display_phone": "(408) 439-7331", "distance": 39431.4845423416}, {"id": "0x_iVQeDq7YVMjNGUNuloA", "alias": "holy-cannoli-san-jose-3", "name": "Holy Cannoli", "image_url": "https://s3-media1.fl.yelpcdn.com/bphoto/-2Pxy7VYA8-CTgdvUf58Og/o.jpg", "is_closed": false, "url": "https://www.yelp.com/biz/holy-cannoli-san-jose-3?adjust_creative=gJ2vrem5KxinHaV7_d8wAA&utm_campaign=yelp_api_v3&utm_medium=api_v3_business_search&utm_source=gJ2vrem5KxinHaV7_d8wAA", "review_count": 58, "categories": [{"alias": "cafes", "title": "Cafes"}, {"alias": "catering", "title": "Caterers"}, {"alias": "foodtrucks", "title": "Food Trucks"}], "rating": 4.5, "coordinates": {"latitude": 37.337298, "longitude": -121.88759}, "transactions": ["delivery", "pickup"], "price": "$", "location": {"address1": "138 E Santa Clara St", "address2": null, "address3": null, "city": "San Jose", "zip_code": "95113", "country": "US", "state": "CA", "display_address": ["138 E Santa Clara St", "San Jose, CA 95113"]}, "phone": "+14085612223", "display_phone": "(408) 561-2223", "distance": 37493.99190263993}, {"id": "C8QSWh3j0xkXwiWC8h-7ag", "alias": "three-amigos-market-and-deli-oakland", "name": "Three Amigos Market & Deli", "image_url": "https://s3-media1.fl.yelpcdn.com/bphoto/B4LNxfyWsiyHibJqkrK1gQ/o.jpg", "is_closed": false, "url": "https://www.yelp.com/biz/three-amigos-market-and-deli-oakland?adjust_creative=gJ2vrem5KxinHaV7_d8wAA&utm_campaign=yelp_api_v3&utm_medium=api_v3_business_search&utm_source=gJ2vrem5KxinHaV7_d8wAA", "review_count": 9, "categories": [{"alias": "grocery", "title": "Grocery"}, {"alias": "sandwiches", "title": "Sandwiches"}, {"alias": "delis", "title": "Delis"}], "rating": 4.5, "coordinates": {"latitude": 37.791048, "longitude": -122.245431}, "transactions": [], "price": "$", "location": {"address1": "1554 13th Ave", "address2": "", "address3": "", "city": "Oakland", "zip_code": "94606", "country": "US", "state": "CA", "display_address": ["1554 13th Ave", "Oakland, CA 94606"]}, "phone": "+15102612353", "display_phone": "(510) 261-2353", "distance": 31917.700001381996}, {"id": "XTJJ_PUQoJKIh31ZIzsFzw", "alias": "cochinita-food-truck-san-francisco-6", "name": "Cochinita Food Truck", "image_url": "https://s3-media2.fl.yelpcdn.com/bphoto/w77SOd2jVJjOh1lwuYQ42w/o.jpg", "is_closed": false, "url": "https://www.yelp.com/biz/cochinita-food-truck-san-francisco-6?adjust_creative=gJ2vrem5KxinHaV7_d8wAA&utm_campaign=yelp_api_v3&utm_medium=api_v3_business_search&utm_source=gJ2vrem5KxinHaV7_d8wAA", "review_count": 49, "categories": [{"alias": "foodtrucks", "title": "Food Trucks"}, {"alias": "mexican", "title": "Mexican"}], "rating": 4.5, "coordinates": {"latitude": 37.770753, "longitude": -122.3916722}, "transactions": [], "price": "$", "location": {"address1": "601 Mission Blvd N", "address2": null, "address3": "", "city": "San Francisco", "zip_code": "94103", "country": "US", "state": "CA", "display_address": ["601 Mission Blvd N", "San Francisco, CA 94103"]}, "phone": "+14159883663", "display_phone": "(415) 988-3663", "distance": 31944.58832409451}, {"id": "uuouQQIFQ1B9mkmcxaAKFA", "alias": "tacos-el-rey-oakland", "name": "Tacos El Rey", "image_url": "https://s3-media2.fl.yelpcdn.com/bphoto/DblyFrtT9uyPCQAUfPbYbQ/o.jpg", "is_closed": false, "url": "https://www.yelp.com/biz/tacos-el-rey-oakland?adjust_creative=gJ2vrem5KxinHaV7_d8wAA&utm_campaign=yelp_api_v3&utm_medium=api_v3_business_search&utm_source=gJ2vrem5KxinHaV7_d8wAA", "review_count": 9, "categories": [{"alias": "foodtrucks", "title": "Food Trucks"}, {"alias": "mexican", "title": "Mexican"}], "rating": 4.0, "coordinates": {"latitude": 37.8294034, "longitude": -122.2875758}, "transactions": [], "price": "$", "location": {"address1": "40th & Horton", "address2": "", "address3": null, "city": "Oakland", "zip_code": "94608", "country": "US", "state": "CA", "display_address": ["40th & Horton", "Oakland, CA 94608"]}, "phone": "+15108130232", "display_phone": "(510) 813-0232", "distance": 36270.59367312329}, {"id": "-SnIHr-tALmciy_J1VqXRg", "alias": "cielito-lindo-mexican-street-kitchen-san-jos\u00e9-5", "name": "Cielito Lindo Mexican Street Kitchen", "image_url": "https://s3-media4.fl.yelpcdn.com/bphoto/kCSoIcRPwQ0tPiGQh3gEFw/o.jpg", "is_closed": false, "url": "https://www.yelp.com/biz/cielito-lindo-mexican-street-kitchen-san-jos%C3%A9-5?adjust_creative=gJ2vrem5KxinHaV7_d8wAA&utm_campaign=yelp_api_v3&utm_medium=api_v3_business_search&utm_source=gJ2vrem5KxinHaV7_d8wAA", "review_count": 40, "categories": [{"alias": "foodtrucks", "title": "Food Trucks"}, {"alias": "mexican", "title": "Mexican"}], "rating": 4.0, "coordinates": {"latitude": 37.3853149414062, "longitude": -121.893257141113}, "transactions": [], "price": "$", "location": {"address1": null, "address2": null, "address3": "", "city": "San Jos\u00e9", "zip_code": "95131", "country": "US", "state": "CA", "display_address": ["San Jos\u00e9, CA 95131"]}, "phone": "+16508629836", "display_phone": "(650) 862-9836", "distance": 34245.02246174873}, {"id": "C9uewBH5505NV0EWYBIJAA", "alias": "lady-and-l-aperitivo-san-jose", "name": "Lady & L'Aperitivo", "image_url": "https://s3-media4.fl.yelpcdn.com/bphoto/3nz0sRE9MlOq_4xVRQRt9w/o.jpg", "is_closed": false, "url": "https://www.yelp.com/biz/lady-and-l-aperitivo-san-jose?adjust_creative=gJ2vrem5KxinHaV7_d8wAA&utm_campaign=yelp_api_v3&utm_medium=api_v3_business_search&utm_source=gJ2vrem5KxinHaV7_d8wAA", "review_count": 1, "categories": [{"alias": "bakeries", "title": "Bakeries"}, {"alias": "desserts", "title": "Desserts"}, {"alias": "cheesesteaks", "title": "Cheesesteaks"}], "rating": 5.0, "coordinates": {"latitude": 37.2208938598633, "longitude": -121.861633300781}, "transactions": [], "location": {"address1": null, "address2": null, "address3": "", "city": "San Jose", "zip_code": "95120", "country": "US", "state": "CA", "display_address": ["San Jose, CA 95120"]}, "phone": "", "display_phone": "", "distance": 52034.27930423844}, {"id": "jW66693LVPlyDtzAoeb7KQ", "alias": "travelin-joe-espresso-berkeley", "name": "Travelin Joe Espresso", "image_url": "https://s3-media2.fl.yelpcdn.com/bphoto/XiqMQnnnbGe4g2SzU4Wm-A/o.jpg", "is_closed": false, "url": "https://www.yelp.com/biz/travelin-joe-espresso-berkeley?adjust_creative=gJ2vrem5KxinHaV7_d8wAA&utm_campaign=yelp_api_v3&utm_medium=api_v3_business_search&utm_source=gJ2vrem5KxinHaV7_d8wAA", "review_count": 33, "categories": [{"alias": "coffee", "title": "Coffee & Tea"}, {"alias": "foodstands", "title": "Food Stands"}, {"alias": "waffles", "title": "Waffles"}], "rating": 4.5, "coordinates": {"latitude": 37.85571, "longitude": -122.2893}, "transactions": [], "price": "$$", "location": {"address1": "1016 Grayson St", "address2": "", "address3": "", "city": "Berkeley", "zip_code": "94710", "country": "US", "state": "CA", "display_address": ["1016 Grayson St", "Berkeley, CA 94710"]}, "phone": "+15109197279", "display_phone": "(510) 919-7279", "distance": 39202.878475686666}, {"id": "_Y526-jjGzk_fjXBj1EePA", "alias": "paddy-wagon-sliders-san-jose-11", "name": "Paddy Wagon Sliders", "image_url": "https://s3-media1.fl.yelpcdn.com/bphoto/ESoDFDH27crUaTgFNhJB0w/o.jpg", "is_closed": false, "url": "https://www.yelp.com/biz/paddy-wagon-sliders-san-jose-11?adjust_creative=gJ2vrem5KxinHaV7_d8wAA&utm_campaign=yelp_api_v3&utm_medium=api_v3_business_search&utm_source=gJ2vrem5KxinHaV7_d8wAA", "review_count": 225, "categories": [{"alias": "foodtrucks", "title": "Food Trucks"}, {"alias": "burgers", "title": "Burgers"}, {"alias": "catering", "title": "Caterers"}], "rating": 4.0, "coordinates": {"latitude": 37.3382082, "longitude": -121.8863286}, "transactions": [], "price": "$", "location": {"address1": "", "address2": null, "address3": "", "city": "San Jose", "zip_code": "95112", "country": "US", "state": "CA", "display_address": ["San Jose, CA 95112"]}, "phone": "+14086435254", "display_phone": "(408) 643-5254", "distance": 37540.81612782193}, {"id": "S9MYGapWK7T7oKUEYLz6Iw", "alias": "the-boneyard-san-bruno-3", "name": "The Boneyard", "image_url": "https://s3-media3.fl.yelpcdn.com/bphoto/uG6EEbOomy5tsXTsHGodxg/o.jpg", "is_closed": false, "url": "https://www.yelp.com/biz/the-boneyard-san-bruno-3?adjust_creative=gJ2vrem5KxinHaV7_d8wAA&utm_campaign=yelp_api_v3&utm_medium=api_v3_business_search&utm_source=gJ2vrem5KxinHaV7_d8wAA", "review_count": 87, "categories": [{"alias": "foodtrucks", "title": "Food Trucks"}, {"alias": "bbq", "title": "Barbeque"}, {"alias": "catering", "title": "Caterers"}], "rating": 3.5, "coordinates": {"latitude": 37.7939188282826, "longitude": -122.400518522289}, "transactions": ["delivery", "pickup"], "price": "$$", "location": {"address1": "1225 San Mateo Ave", "address2": null, "address3": "", "city": "San Bruno", "zip_code": "94066", "country": "US", "state": "CA", "display_address": ["1225 San Mateo Ave", "San Bruno, CA 94066"]}, "phone": "+14159350696", "display_phone": "(415) 935-0696", "distance": 34625.374775021715}, {"id": "GcfdjsPGaXrY02Q3bsKvew", "alias": "el-diferente-san-jose-4", "name": "El Diferente", "image_url": "https://s3-media4.fl.yelpcdn.com/bphoto/bTeYqqJp0YrJkkfM5OiPZg/o.jpg", "is_closed": false, "url": "https://www.yelp.com/biz/el-diferente-san-jose-4?adjust_creative=gJ2vrem5KxinHaV7_d8wAA&utm_campaign=yelp_api_v3&utm_medium=api_v3_business_search&utm_source=gJ2vrem5KxinHaV7_d8wAA", "review_count": 41, "categories": [{"alias": "foodtrucks", "title": "Food Trucks"}, {"alias": "tacos", "title": "Tacos"}, {"alias": "catering", "title": "Caterers"}], "rating": 5.0, "coordinates": {"latitude": 37.324611, "longitude": -121.880933}, "transactions": [], "price": "$", "location": {"address1": "795 S 2nd St", "address2": "", "address3": null, "city": "San Jose", "zip_code": "95112", "country": "US", "state": "CA", "display_address": ["795 S 2nd St", "San Jose, CA 95112"]}, "phone": "+14086651936", "display_phone": "(408) 665-1936", "distance": 38716.58677993735}, {"id": "_HuNiaPs0WOo4R_3-8Qp1w", "alias": "adams-grub-truck-san-francisco-2", "name": "Adam's Grub Truck", "image_url": "https://s3-media3.fl.yelpcdn.com/bphoto/0mWV2kVfZJyPxats8bu-Rg/o.jpg", "is_closed": false, "url": "https://www.yelp.com/biz/adams-grub-truck-san-francisco-2?adjust_creative=gJ2vrem5KxinHaV7_d8wAA&utm_campaign=yelp_api_v3&utm_medium=api_v3_business_search&utm_source=gJ2vrem5KxinHaV7_d8wAA", "review_count": 329, "categories": [{"alias": "sandwiches", "title": "Sandwiches"}, {"alias": "asianfusion", "title": "Asian Fusion"}, {"alias": "foodtrucks", "title": "Food Trucks"}], "rating": 4.0, "coordinates": {"latitude": 37.770765, "longitude": -122.391708}, "transactions": ["delivery", "pickup"], "price": "$$", "location": {"address1": "601 Mission Bay Blvd N", "address2": "", "address3": "", "city": "San Francisco", "zip_code": "94158", "country": "US", "state": "CA", "display_address": ["601 Mission Bay Blvd N", "San Francisco, CA 94158"]}, "phone": "+14153078844", "display_phone": "(415) 307-8844", "distance": 31947.000528642955}, {"id": "ai1PcujD1397VPMNc8Ffcg", "alias": "cross-hatch-eatery-sunnyvale", "name": "Cross Hatch Eatery", "image_url": "https://s3-media1.fl.yelpcdn.com/bphoto/HPquQAnn8mSmsNlng5Z-_A/o.jpg", "is_closed": false, "url": "https://www.yelp.com/biz/cross-hatch-eatery-sunnyvale?adjust_creative=gJ2vrem5KxinHaV7_d8wAA&utm_campaign=yelp_api_v3&utm_medium=api_v3_business_search&utm_source=gJ2vrem5KxinHaV7_d8wAA", "review_count": 1, "categories": [{"alias": "asianfusion", "title": "Asian Fusion"}, {"alias": "foodtrucks", "title": "Food Trucks"}], "rating": 1.0, "coordinates": {"latitude": 37.3998374938965, "longitude": -121.997146606445}, "transactions": [], "location": {"address1": "", "address2": null, "address3": "", "city": "Sunnyvale", "zip_code": "94089", "country": "US", "state": "CA", "display_address": ["Sunnyvale, CA 94089"]}, "phone": "+16692322267", "display_phone": "(669) 232-2267", "distance": 23446.223336539122}, {"id": "IU3OJCdlT92FsM8ohRiWig", "alias": "el-buen-taco-santa-cruz-2", "name": "El Buen Taco", "image_url": "https://s3-media2.fl.yelpcdn.com/bphoto/A_KAIKX-yDTTk2TTkFnFhw/o.jpg", "is_closed": false, "url": "https://www.yelp.com/biz/el-buen-taco-santa-cruz-2?adjust_creative=gJ2vrem5KxinHaV7_d8wAA&utm_campaign=yelp_api_v3&utm_medium=api_v3_business_search&utm_source=gJ2vrem5KxinHaV7_d8wAA", "review_count": 22, "categories": [{"alias": "tacos", "title": "Tacos"}, {"alias": "foodtrucks", "title": "Food Trucks"}], "rating": 4.5, "coordinates": {"latitude": 36.97017, "longitude": -122.02429}, "transactions": [], "location": {"address1": null, "address2": null, "address3": "", "city": "Santa Cruz", "zip_code": "95060", "country": "US", "state": "CA", "display_address": ["Santa Cruz, CA 95060"]}, "phone": "+18317130703", "display_phone": "(831) 713-0703", "distance": 62231.73772307873}, {"id": "M3vYD__s0sSkOie_Uwft3A", "alias": "taste-buds-bbq-tracy-2", "name": "Taste Buds BBQ", "image_url": "https://s3-media1.fl.yelpcdn.com/bphoto/pX1yclRMlmo1S7Db6iO6Lg/o.jpg", "is_closed": false, "url": "https://www.yelp.com/biz/taste-buds-bbq-tracy-2?adjust_creative=gJ2vrem5KxinHaV7_d8wAA&utm_campaign=yelp_api_v3&utm_medium=api_v3_business_search&utm_source=gJ2vrem5KxinHaV7_d8wAA", "review_count": 3, "categories": [{"alias": "bbq", "title": "Barbeque"}, {"alias": "catering", "title": "Caterers"}, {"alias": "foodtrucks", "title": "Food Trucks"}], "rating": 4.5, "coordinates": {"latitude": 37.74251, "longitude": -121.42994}, "transactions": [], "location": {"address1": "", "address2": null, "address3": "", "city": "Tracy", "zip_code": "95376", "country": "US", "state": "CA", "display_address": ["Tracy, CA 95376"]}, "phone": "+16502241324", "display_phone": "(650) 224-1324", "distance": 76826.06208763941}, {"id": "xomxVUXe8Sy5R2nt7qBxxg", "alias": "fired-mobile-pizza-oven-stockton", "name": "FIRED Mobile Pizza Oven", "image_url": "https://s3-media4.fl.yelpcdn.com/bphoto/JV4MGBFFrJGZQbmtdoOLFQ/o.jpg", "is_closed": false, "url": "https://www.yelp.com/biz/fired-mobile-pizza-oven-stockton?adjust_creative=gJ2vrem5KxinHaV7_d8wAA&utm_campaign=yelp_api_v3&utm_medium=api_v3_business_search&utm_source=gJ2vrem5KxinHaV7_d8wAA", "review_count": 8, "categories": [{"alias": "pizza", "title": "Pizza"}, {"alias": "catering", "title": "Caterers"}, {"alias": "foodtrucks", "title": "Food Trucks"}], "rating": 5.0, "coordinates": {"latitude": 38.0521138, "longitude": -121.3484448}, "transactions": [], "location": {"address1": null, "address2": null, "address3": "", "city": "Stockton", "zip_code": "95209", "country": "US", "state": "CA", "display_address": ["Stockton, CA 95209"]}, "phone": "+12092424105", "display_phone": "(209) 242-4105", "distance": 100410.19983474676}, {"id": "sR0Wy3LYGdYV9HLszRlMmw", "alias": "tacos-la-palmita-stockton", "name": "Tacos La Palmita", "image_url": "https://s3-media2.fl.yelpcdn.com/bphoto/pzYoRmZjUQqxZ7qOyU7hUQ/o.jpg", "is_closed": false, "url": "https://www.yelp.com/biz/tacos-la-palmita-stockton?adjust_creative=gJ2vrem5KxinHaV7_d8wAA&utm_campaign=yelp_api_v3&utm_medium=api_v3_business_search&utm_source=gJ2vrem5KxinHaV7_d8wAA", "review_count": 90, "categories": [{"alias": "tacos", "title": "Tacos"}, {"alias": "foodtrucks", "title": "Food Trucks"}], "rating": 4.5, "coordinates": {"latitude": 38.008129, "longitude": -121.320219}, "transactions": ["delivery", "pickup"], "price": "$", "location": {"address1": "6393 Pacific Ave", "address2": null, "address3": null, "city": "Stockton", "zip_code": "95207", "country": "US", "state": "CA", "display_address": ["6393 Pacific Ave", "Stockton, CA 95207"]}, "phone": "+12093026825", "display_phone": "(209) 302-6825", "distance": 99580.45468648602}, {"id": "bUe6V7qwbr95Zg14Bpi8qw", "alias": "curbside-pies-knob-noster-mo-2", "name": "Curbside Pies", "image_url": "https://s3-media2.fl.yelpcdn.com/bphoto/3MO0dr4ok9hisoHpYSIwcA/o.jpg", "is_closed": false, "url": "https://www.yelp.com/biz/curbside-pies-knob-noster-mo-2?adjust_creative=gJ2vrem5KxinHaV7_d8wAA&utm_campaign=yelp_api_v3&utm_medium=api_v3_business_search&utm_source=gJ2vrem5KxinHaV7_d8wAA", "review_count": 2, "categories": [{"alias": "pizza", "title": "Pizza"}, {"alias": "foodtrucks", "title": "Food Trucks"}], "rating": 5.0, "coordinates": {"latitude": 38.772474, "longitude": -93.57255}, "transactions": [], "location": {"address1": "1601 W 7th Street Ter", "address2": "", "address3": null, "city": "Knob Noster MO", "zip_code": "65336", "country": "US", "state": "MO", "display_address": ["1601 W 7th Street Ter", "Knob Noster MO, MO 65336"]}, "phone": "+15057508525", "display_phone": "(505) 750-8525", "distance": 2502316.870404244}]}