{"location": "San Ramon, CA", "term": "restaurant", "radius": 3860, "businesses": [{"id": "ZnKV-l_5-eAwMuLNa6L1fQ", "alias": "delarosa-san-ramon-2", "name": "Delarosa", "image_url": "https://s3-media4.fl.yelpcdn.com/bphoto/enQPhvCKVCJDYTUcNGPsvg/o.jpg", "is_closed": false, "url": "https://www.yelp.com/biz/delarosa-san-ramon-2?adjust_creative=gJ2vrem5KxinHaV7_d8wAA&utm_campaign=yelp_api_v3&utm_medium=api_v3_business_search&utm_source=gJ2vrem5KxinHaV7_d8wAA", "review_count": 50, "categories": [{"alias": "pizza", "title": "Pizza"}, {"alias": "italian", "title": "Italian"}, {"alias": "cocktailbars", "title": "Cocktail Bars"}], "rating": 4.0, "coordinates": {"latitude": 37.7617103, "longitude": -121.9601246}, "transactions": ["restaurant_reservation"], "price": "$$", "location": {"address1": "6000 Bollinger Canyon Rd", "address2": "Ste 1600", "address3": null, "city": "San Ramon", "zip_code": "94583", "country": "US", "state": "CA", "display_address": ["6000 Bollinger Canyon Rd", "Ste 1600", "San Ramon, CA 94583"]}, "phone": "+19257870044", "display_phone": "(925) 787-0044", "distance": 262.5264537943891}, {"id": "Q7jMvyWLSNP9hUgqbnlEQw", "alias": "giannis-italian-bistro-san-ramon", "name": "Gianni's Italian Bistro", "image_url": "https://s3-media1.fl.yelpcdn.com/bphoto/Gq0lqVFMpeL2bz2AYrPeGg/o.jpg", "is_closed": false, "url": "https://www.yelp.com/biz/giannis-italian-bistro-san-ramon?adjust_creative=gJ2vrem5KxinHaV7_d8wAA&utm_campaign=yelp_api_v3&utm_medium=api_v3_business_search&utm_source=gJ2vrem5KxinHaV7_d8wAA", "review_count": 460, "categories": [{"alias": "italian", "title": "Italian"}, {"alias": "bars", "title": "Bars"}], "rating": 4.5, "coordinates": {"latitude": 37.78384, "longitude": -121.98028}, "transactions": ["delivery", "pickup", "restaurant_reservation"], "price": "$$", "location": {"address1": "2065 San Ramon Valley Blvd", "address2": null, "address3": "", "city": "San Ramon", "zip_code": "94583", "country": "US", "state": "CA", "display_address": ["2065 San Ramon Valley Blvd", "San Ramon, CA 94583"]}, "phone": "+19258206969", "display_phone": "(925) 820-6969", "distance": 2763.01226945197}, {"id": "In4nv2FF_zBhtjZ9xrciUQ", "alias": "brothers-kitchen-san-ramon-2", "name": "Brothers Kitchen", "image_url": "https://s3-media2.fl.yelpcdn.com/bphoto/-V6z02EAEahKW1jKFs8pLg/o.jpg", "is_closed": false, "url": "https://www.yelp.com/biz/brothers-kitchen-san-ramon-2?adjust_creative=gJ2vrem5KxinHaV7_d8wAA&utm_campaign=yelp_api_v3&utm_medium=api_v3_business_search&utm_source=gJ2vrem5KxinHaV7_d8wAA", "review_count": 44, "categories": [{"alias": "korean", "title": "Korean"}], "rating": 4.0, "coordinates": {"latitude": 37.762697, "longitude": -121.952699}, "transactions": [], "price": "$$", "location": {"address1": "1061 Market Pl", "address2": "Unit D", "address3": "", "city": "San Ramon", "zip_code": "94583", "country": "US", "state": "CA", "display_address": ["1061 Market Pl", "Unit D", "San Ramon, CA 94583"]}, "phone": "+19258660600", "display_phone": "(925) 866-0600", "distance": 822.4939204442542}, {"id": "9z2SAMoNrWJMXXUMDl62Zg", "alias": "sajj-mediterranean-san-ramon", "name": "SAJJ Mediterranean", "image_url": "https://s3-media2.fl.yelpcdn.com/bphoto/gBLJli2Gowwfrc49a31mtQ/o.jpg", "is_closed": false, "url": "https://www.yelp.com/biz/sajj-mediterranean-san-ramon?adjust_creative=gJ2vrem5KxinHaV7_d8wAA&utm_campaign=yelp_api_v3&utm_medium=api_v3_business_search&utm_source=gJ2vrem5KxinHaV7_d8wAA", "review_count": 39, "categories": [{"alias": "mediterranean", "title": "Mediterranean"}, {"alias": "vegan", "title": "Vegan"}, {"alias": "catering", "title": "Caterers"}], "rating": 4.5, "coordinates": {"latitude": 37.7628393, "longitude": -121.9611428}, "transactions": ["delivery", "pickup"], "location": {"address1": "164 Sunset Dr", "address2": "", "address3": null, "city": "San Ramon", "zip_code": "94583", "country": "US", "state": "CA", "display_address": ["164 Sunset Dr", "San Ramon, CA 94583"]}, "phone": "+19254153252", "display_phone": "(925) 415-3252", "distance": 104.98092239752977}, {"id": "Hk4FtWqGsV3OyZdAoaf3aQ", "alias": "the-salt-san-ramon", "name": "The Salt", "image_url": "https://s3-media1.fl.yelpcdn.com/bphoto/HUOtbaN7v7hJAp-713gkKQ/o.jpg", "is_closed": false, "url": "https://www.yelp.com/biz/the-salt-san-ramon?adjust_creative=gJ2vrem5KxinHaV7_d8wAA&utm_campaign=yelp_api_v3&utm_medium=api_v3_business_search&utm_source=gJ2vrem5KxinHaV7_d8wAA", "review_count": 101, "categories": [{"alias": "indpak", "title": "Indian"}, {"alias": "asianfusion", "title": "Asian Fusion"}, {"alias": "cocktailbars", "title": "Cocktail Bars"}], "rating": 4.0, "coordinates": {"latitude": 37.770969, "longitude": -121.948279628311}, "transactions": ["restaurant_reservation"], "price": "$$", "location": {"address1": "500 Bollinger Canyon Way", "address2": "Ste A1", "address3": "", "city": "San Ramon", "zip_code": "94582", "country": "US", "state": "CA", "display_address": ["500 Bollinger Canyon Way", "Ste A1", "San Ramon, CA 94582"]}, "phone": "+19259059009", "display_phone": "(925) 905-9009", "distance": 1453.2895669011966}, {"id": "3C8VwDIFYtB30gSk-0g3vw", "alias": "bamboo-sushi-san-ramon-2", "name": "Bamboo Sushi", "image_url": "https://s3-media3.fl.yelpcdn.com/bphoto/krzrOfROYW7k0HytvmSu0w/o.jpg", "is_closed": false, "url": "https://www.yelp.com/biz/bamboo-sushi-san-ramon-2?adjust_creative=gJ2vrem5KxinHaV7_d8wAA&utm_campaign=yelp_api_v3&utm_medium=api_v3_business_search&utm_source=gJ2vrem5KxinHaV7_d8wAA", "review_count": 62, "categories": [{"alias": "sushi", "title": "Sushi Bars"}, {"alias": "bars", "title": "Bars"}, {"alias": "seafood", "title": "Seafood"}], "rating": 4.0, "coordinates": {"latitude": 37.7617103, "longitude": -121.9601246}, "transactions": [], "location": {"address1": "6000 Bollinger Canyon Rd", "address2": "Ste 2201", "address3": "", "city": "San Ramon", "zip_code": "94583", "country": "US", "state": "CA", "display_address": ["6000 Bollinger Canyon Rd", "Ste 2201", "San Ramon, CA 94583"]}, "phone": "+19253596843", "display_phone": "(925) 359-6843", "distance": 262.5264537943891}, {"id": "7M8WYHqyuYiQWNQVVf6sIA", "alias": "ukai-japanese-bistro-san-ramon", "name": "Ukai Japanese Bistro", "image_url": "https://s3-media3.fl.yelpcdn.com/bphoto/jy9YaJSea6ergcAjk84gSg/o.jpg", "is_closed": false, "url": "https://www.yelp.com/biz/ukai-japanese-bistro-san-ramon?adjust_creative=gJ2vrem5KxinHaV7_d8wAA&utm_campaign=yelp_api_v3&utm_medium=api_v3_business_search&utm_source=gJ2vrem5KxinHaV7_d8wAA", "review_count": 114, "categories": [{"alias": "japanese", "title": "Japanese"}, {"alias": "sushi", "title": "Sushi Bars"}], "rating": 4.0, "coordinates": {"latitude": 37.77476, "longitude": -121.97535}, "transactions": ["restaurant_reservation"], "price": "$$", "location": {"address1": "2416 San Ramon Valley Blvd", "address2": "Ste 120", "address3": "", "city": "San Ramon", "zip_code": "94583", "country": "US", "state": "CA", "display_address": ["2416 San Ramon Valley Blvd", "Ste 120", "San Ramon, CA 94583"]}, "phone": "+19257185479", "display_phone": "(925) 718-5479", "distance": 1696.1038317240234}, {"id": "yVJ6uASNs6-erYgZ1ol9BA", "alias": "andaman-thai-san-ramon-4", "name": "Andaman Thai", "image_url": "https://s3-media4.fl.yelpcdn.com/bphoto/zjdwDXQYkbFcERgop2psLA/o.jpg", "is_closed": false, "url": "https://www.yelp.com/biz/andaman-thai-san-ramon-4?adjust_creative=gJ2vrem5KxinHaV7_d8wAA&utm_campaign=yelp_api_v3&utm_medium=api_v3_business_search&utm_source=gJ2vrem5KxinHaV7_d8wAA", "review_count": 297, "categories": [{"alias": "thai", "title": "Thai"}], "rating": 4.5, "coordinates": {"latitude": 37.764284419706, "longitude": -121.95144508034}, "transactions": [], "price": "$$", "location": {"address1": "400 Market Pl", "address2": "", "address3": null, "city": "San Ramon", "zip_code": "94583", "country": "US", "state": "CA", "display_address": ["400 Market Pl", "San Ramon, CA 94583"]}, "phone": "+19253651799", "display_phone": "(925) 365-1799", "distance": 928.3386292774569}, {"id": "NWrtBIEHIjALcDIDXccSjA", "alias": "fat-maddies-grille-san-ramon", "name": "Fat Maddie's Grille", "image_url": "https://s3-media3.fl.yelpcdn.com/bphoto/HP-ac1oCMeZ9-5bNqrVixA/o.jpg", "is_closed": false, "url": "https://www.yelp.com/biz/fat-maddies-grille-san-ramon?adjust_creative=gJ2vrem5KxinHaV7_d8wAA&utm_campaign=yelp_api_v3&utm_medium=api_v3_business_search&utm_source=gJ2vrem5KxinHaV7_d8wAA", "review_count": 802, "categories": [{"alias": "tradamerican", "title": "American (Traditional)"}], "rating": 4.0, "coordinates": {"latitude": 37.7799, "longitude": -121.9723}, "transactions": [], "price": "$$", "location": {"address1": "2005 Crow Canyon Pl", "address2": "Ste 142", "address3": "", "city": "San Ramon", "zip_code": "94583", "country": "US", "state": "CA", "display_address": ["2005 Crow Canyon Pl", "Ste 142", "San Ramon, CA 94583"]}, "phone": "+19253551975", "display_phone": "(925) 355-1975", "distance": 2011.494964286447}, {"id": "LZF8Xl22ViqiryFvg6KM4A", "alias": "the-slanted-door-san-ramon-san-ramon", "name": "The Slanted Door San Ramon", "image_url": "https://s3-media2.fl.yelpcdn.com/bphoto/RNuZW5o62DyEFnSshd0lKw/o.jpg", "is_closed": false, "url": "https://www.yelp.com/biz/the-slanted-door-san-ramon-san-ramon?adjust_creative=gJ2vrem5KxinHaV7_d8wAA&utm_campaign=yelp_api_v3&utm_medium=api_v3_business_search&utm_source=gJ2vrem5KxinHaV7_d8wAA", "review_count": 280, "categories": [{"alias": "vietnamese", "title": "Vietnamese"}], "rating": 3.0, "coordinates": {"latitude": 37.762982, "longitude": -121.960254}, "transactions": [], "price": "$$$", "location": {"address1": "6000 Bollinger Canyon Rd", "address2": "Ste 1300", "address3": null, "city": "San Ramon", "zip_code": "94583", "country": "US", "state": "CA", "display_address": ["6000 Bollinger Canyon Rd", "Ste 1300", "San Ramon, CA 94583"]}, "phone": "+19255874771", "display_phone": "(925) 587-4771", "distance": 168.4043863554051}, {"id": "gxlFdkJYSRIua1M9XWU09Q", "alias": "mendocino-farms-san-ramon-2", "name": "Mendocino Farms", "image_url": "https://s3-media1.fl.yelpcdn.com/bphoto/AV3-Cr3dptFB2LHgogSxPQ/o.jpg", "is_closed": false, "url": "https://www.yelp.com/biz/mendocino-farms-san-ramon-2?adjust_creative=gJ2vrem5KxinHaV7_d8wAA&utm_campaign=yelp_api_v3&utm_medium=api_v3_business_search&utm_source=gJ2vrem5KxinHaV7_d8wAA", "review_count": 214, "categories": [{"alias": "sandwiches", "title": "Sandwiches"}, {"alias": "salad", "title": "Salad"}], "rating": 4.0, "coordinates": {"latitude": 37.76344, "longitude": -121.959649}, "transactions": [], "price": "$$", "location": {"address1": "6000 Bollinger Canyon Rd", "address2": "Ste 1103", "address3": null, "city": "San Ramon", "zip_code": "94583", "country": "US", "state": "CA", "display_address": ["6000 Bollinger Canyon Rd", "Ste 1103", "San Ramon, CA 94583"]}, "phone": "+19258842060", "display_phone": "(925) 884-2060", "distance": 205.76792893606014}, {"id": "LKUC2S65y6vhdnIdJBicwA", "alias": "sandwicheez-san-ramon-san-ramon-3", "name": "Sandwicheez San Ramon", "image_url": "https://s3-media3.fl.yelpcdn.com/bphoto/NrJYjD50I1naIgIwR5_A0Q/o.jpg", "is_closed": false, "url": "https://www.yelp.com/biz/sandwicheez-san-ramon-san-ramon-3?adjust_creative=gJ2vrem5KxinHaV7_d8wAA&utm_campaign=yelp_api_v3&utm_medium=api_v3_business_search&utm_source=gJ2vrem5KxinHaV7_d8wAA", "review_count": 20, "categories": [{"alias": "sandwiches", "title": "Sandwiches"}], "rating": 5.0, "coordinates": {"latitude": 37.7801442, "longitude": -121.9724326}, "transactions": [], "location": {"address1": "2005 Crow Canyon Pl", "address2": "Ste 136", "address3": "", "city": "San Ramon", "zip_code": "94583", "country": "US", "state": "CA", "display_address": ["2005 Crow Canyon Pl", "Ste 136", "San Ramon, CA 94583"]}, "phone": "+19258046454", "display_phone": "(925) 804-6454", "distance": 2051.7835344253185}, {"id": "xpLpftK-Hwjbcn8KbF_NOg", "alias": "the-kebab-shop-san-ramon", "name": "The Kebab Shop", "image_url": "https://s3-media1.fl.yelpcdn.com/bphoto/rJqb3iO3RDiC1eUPpRnkNw/o.jpg", "is_closed": false, "url": "https://www.yelp.com/biz/the-kebab-shop-san-ramon?adjust_creative=gJ2vrem5KxinHaV7_d8wAA&utm_campaign=yelp_api_v3&utm_medium=api_v3_business_search&utm_source=gJ2vrem5KxinHaV7_d8wAA", "review_count": 281, "categories": [{"alias": "mediterranean", "title": "Mediterranean"}, {"alias": "halal", "title": "Halal"}, {"alias": "kebab", "title": "Kebab"}], "rating": 4.0, "coordinates": {"latitude": 37.77846, "longitude": -121.96874}, "transactions": ["delivery"], "price": "$$", "location": {"address1": "3141 Crow Canyon Pl", "address2": null, "address3": "", "city": "San Ramon", "zip_code": "94583", "country": "US", "state": "CA", "display_address": ["3141 Crow Canyon Pl", "San Ramon, CA 94583"]}, "phone": "+19252714200", "display_phone": "(925) 271-4200", "distance": 1748.89981392553}, {"id": "7yN8sByLrEcSQ-pHZscrBQ", "alias": "primavera-ristorante-san-ramon-4", "name": "Primavera Ristorante", "image_url": "https://s3-media4.fl.yelpcdn.com/bphoto/xhgiHkh74kVxLIRHCBHDsw/o.jpg", "is_closed": false, "url": "https://www.yelp.com/biz/primavera-ristorante-san-ramon-4?adjust_creative=gJ2vrem5KxinHaV7_d8wAA&utm_campaign=yelp_api_v3&utm_medium=api_v3_business_search&utm_source=gJ2vrem5KxinHaV7_d8wAA", "review_count": 430, "categories": [{"alias": "italian", "title": "Italian"}, {"alias": "bars", "title": "Bars"}], "rating": 4.0, "coordinates": {"latitude": 37.7766461, "longitude": -121.9721815}, "transactions": ["pickup"], "price": "$$", "location": {"address1": "3124 Crow Canyon Pl", "address2": "", "address3": "", "city": "San Ramon", "zip_code": "94583", "country": "US", "state": "CA", "display_address": ["3124 Crow Canyon Pl", "San Ramon, CA 94583"]}, "phone": "+19258309500", "display_phone": "(925) 830-9500", "distance": 1701.1830976284016}, {"id": "JtDdfmPPUbG1O2nZVxmm_g", "alias": "shish-grill-san-ramon", "name": "Shish Grill", "image_url": "https://s3-media2.fl.yelpcdn.com/bphoto/f9wkU67vMz3TbTcaYWUAXw/o.jpg", "is_closed": false, "url": "https://www.yelp.com/biz/shish-grill-san-ramon?adjust_creative=gJ2vrem5KxinHaV7_d8wAA&utm_campaign=yelp_api_v3&utm_medium=api_v3_business_search&utm_source=gJ2vrem5KxinHaV7_d8wAA", "review_count": 573, "categories": [{"alias": "mediterranean", "title": "Mediterranean"}, {"alias": "lebanese", "title": "Lebanese"}], "rating": 4.5, "coordinates": {"latitude": 37.76193, "longitude": -121.95274}, "transactions": ["pickup"], "price": "$$", "location": {"address1": "1061 Market Pl", "address2": "Ste A", "address3": "", "city": "San Ramon", "zip_code": "94583", "country": "US", "state": "CA", "display_address": ["1061 Market Pl", "Ste A", "San Ramon, CA 94583"]}, "phone": "+19254153270", "display_phone": "(925) 415-3270", "distance": 822.4628028048435}, {"id": "1xQKKcdZ8cfMr1b6TzaOHA", "alias": "kabila-san-ramon-2", "name": "Kabila", "image_url": "https://s3-media1.fl.yelpcdn.com/bphoto/9oh0y0jE1Mp8sDek94PQKg/o.jpg", "is_closed": false, "url": "https://www.yelp.com/biz/kabila-san-ramon-2?adjust_creative=gJ2vrem5KxinHaV7_d8wAA&utm_campaign=yelp_api_v3&utm_medium=api_v3_business_search&utm_source=gJ2vrem5KxinHaV7_d8wAA", "review_count": 34, "categories": [{"alias": "indpak", "title": "Indian"}, {"alias": "buffets", "title": "Buffets"}, {"alias": "tapasmallplates", "title": "Tapas/Small Plates"}], "rating": 4.0, "coordinates": {"latitude": 37.7798817451464, "longitude": -121.971576416}, "transactions": [], "location": {"address1": "2005 Crow Canyon Pl", "address2": "Ste 160", "address3": null, "city": "San Ramon", "zip_code": "94583", "country": "US", "state": "CA", "display_address": ["2005 Crow Canyon Pl", "Ste 160", "San Ramon, CA 94583"]}, "phone": "+19254153223", "display_phone": "(925) 415-3223", "distance": 1992.7179255157284}, {"id": "hXDGDmXcHCYsVLGukTEahA", "alias": "plucked-chicken-and-beer-san-ramon-2", "name": "Plucked Chicken & Beer", "image_url": "https://s3-media1.fl.yelpcdn.com/bphoto/89p_BXqnkxUDUFxE8_O5pA/o.jpg", "is_closed": false, "url": "https://www.yelp.com/biz/plucked-chicken-and-beer-san-ramon-2?adjust_creative=gJ2vrem5KxinHaV7_d8wAA&utm_campaign=yelp_api_v3&utm_medium=api_v3_business_search&utm_source=gJ2vrem5KxinHaV7_d8wAA", "review_count": 346, "categories": [{"alias": "chicken_wings", "title": "Chicken Wings"}, {"alias": "chickenshop", "title": "Chicken Shop"}, {"alias": "sandwiches", "title": "Sandwiches"}], "rating": 4.0, "coordinates": {"latitude": 37.77684, "longitude": -121.97048}, "transactions": ["delivery", "pickup"], "price": "$$", "location": {"address1": "3191 Crow Canyon Pl", "address2": "Ste D", "address3": null, "city": "San Ramon", "zip_code": "94583", "country": "US", "state": "CA", "display_address": ["3191 Crow Canyon Pl", "Ste D", "San Ramon, CA 94583"]}, "phone": "+19253806981", "display_phone": "(925) 380-6981", "distance": 1646.8144083712257}, {"id": "MX_5SiuiKkIW7qUisNA9GA", "alias": "worth-ranch-san-ramon", "name": "Worth Ranch", "image_url": "https://s3-media3.fl.yelpcdn.com/bphoto/jlToLMqyv49oOoZ28vrRYg/o.jpg", "is_closed": false, "url": "https://www.yelp.com/biz/worth-ranch-san-ramon?adjust_creative=gJ2vrem5KxinHaV7_d8wAA&utm_campaign=yelp_api_v3&utm_medium=api_v3_business_search&utm_source=gJ2vrem5KxinHaV7_d8wAA", "review_count": 396, "categories": [{"alias": "bbq", "title": "Barbeque"}, {"alias": "whiskeybars", "title": "Whiskey Bars"}], "rating": 3.5, "coordinates": {"latitude": 37.77552, "longitude": -121.97631}, "transactions": ["pickup", "restaurant_reservation"], "price": "$$", "location": {"address1": "2410 San Ramon Valley Blvd", "address2": "", "address3": "", "city": "San Ramon", "zip_code": "94583", "country": "US", "state": "CA", "display_address": ["2410 San Ramon Valley Blvd", "San Ramon, CA 94583"]}, "phone": "+19258312175", "display_phone": "(925) 831-2175", "distance": 1828.14808116829}, {"id": "vzqrPUiOofgnYsAR5TZMJQ", "alias": "poke-don-san-ramon", "name": "Poke Don", "image_url": "https://s3-media1.fl.yelpcdn.com/bphoto/BIMbMbQmKkfDcD0rNfuQTw/o.jpg", "is_closed": false, "url": "https://www.yelp.com/biz/poke-don-san-ramon?adjust_creative=gJ2vrem5KxinHaV7_d8wAA&utm_campaign=yelp_api_v3&utm_medium=api_v3_business_search&utm_source=gJ2vrem5KxinHaV7_d8wAA", "review_count": 775, "categories": [{"alias": "seafood", "title": "Seafood"}, {"alias": "hotdogs", "title": "Fast Food"}, {"alias": "hawaiian", "title": "Hawaiian"}], "rating": 4.5, "coordinates": {"latitude": 37.7741223528384, "longitude": -121.976215951145}, "transactions": [], "price": "$$", "location": {"address1": "2491 San Ramon Valley Blvd", "address2": "Ste 2", "address3": "", "city": "San Ramon", "zip_code": "94583", "country": "US", "state": "CA", "display_address": ["2491 San Ramon Valley Blvd", "Ste 2", "San Ramon, CA 94583"]}, "phone": "+19257185244", "display_phone": "(925) 718-5244", "distance": 1709.8510214186815}, {"id": "wjXHo4GGr-iZ6eAjrZFcVg", "alias": "thai-taste-restaurant-san-ramon", "name": "Thai Taste Restaurant", "image_url": "https://s3-media4.fl.yelpcdn.com/bphoto/PTjGBiwr2I_1eCWZkE6t5g/o.jpg", "is_closed": false, "url": "https://www.yelp.com/biz/thai-taste-restaurant-san-ramon?adjust_creative=gJ2vrem5KxinHaV7_d8wAA&utm_campaign=yelp_api_v3&utm_medium=api_v3_business_search&utm_source=gJ2vrem5KxinHaV7_d8wAA", "review_count": 113, "categories": [{"alias": "thai", "title": "Thai"}], "rating": 4.0, "coordinates": {"latitude": 37.7780696392062, "longitude": -121.968378377246}, "transactions": [], "price": "$$", "location": {"address1": "3151 Crow Canyon Pl", "address2": "Ste I", "address3": "", "city": "San Ramon", "zip_code": "94583", "country": "US", "state": "CA", "display_address": ["3151 Crow Canyon Pl", "Ste I", "San Ramon, CA 94583"]}, "phone": "+19253651027", "display_phone": "(925) 365-1027", "distance": 1699.5980694184955}, {"id": "E_TMlJ6zexly9RqaftDB8A", "alias": "the-lot-city-center-san-ramon", "name": "THE LOT City Center", "image_url": "https://s3-media3.fl.yelpcdn.com/bphoto/fLJznA9QcB-mFmOIpDM_Kw/o.jpg", "is_closed": false, "url": "https://www.yelp.com/biz/the-lot-city-center-san-ramon?adjust_creative=gJ2vrem5KxinHaV7_d8wAA&utm_campaign=yelp_api_v3&utm_medium=api_v3_business_search&utm_source=gJ2vrem5KxinHaV7_d8wAA", "review_count": 738, "categories": [{"alias": "bars", "title": "Bars"}, {"alias": "movietheaters", "title": "Cinema"}, {"alias": "newamerican", "title": "American (New)"}], "rating": 3.0, "coordinates": {"latitude": 37.7629061401306, "longitude": -121.959195936824}, "transactions": [], "price": "$$", "location": {"address1": "6000 Bollinger Canyon Rd", "address2": "Ste 2300", "address3": "", "city": "San Ramon", "zip_code": "94583", "country": "US", "state": "CA", "display_address": ["6000 Bollinger Canyon Rd", "Ste 2300", "San Ramon, CA 94583"]}, "phone": "+19256640069", "display_phone": "(925) 664-0069", "distance": 257.8231351669687}, {"id": "nGxOPFvptiSHdxf832Quhg", "alias": "i-shanghai-delight-san-ramon", "name": "i-Shanghai Delight", "image_url": "https://s3-media2.fl.yelpcdn.com/bphoto/z1JOjZ4bxhmc8E_89mtyqw/o.jpg", "is_closed": false, "url": "https://www.yelp.com/biz/i-shanghai-delight-san-ramon?adjust_creative=gJ2vrem5KxinHaV7_d8wAA&utm_campaign=yelp_api_v3&utm_medium=api_v3_business_search&utm_source=gJ2vrem5KxinHaV7_d8wAA", "review_count": 81, "categories": [{"alias": "shanghainese", "title": "Shanghainese"}], "rating": 3.5, "coordinates": {"latitude": 37.7749927714598, "longitude": -121.975437398778}, "transactions": [], "price": "$$", "location": {"address1": "2416 San Ramon Valley Blvd", "address2": "Ste 140", "address3": null, "city": "San Ramon", "zip_code": "94583", "country": "US", "state": "CA", "display_address": ["2416 San Ramon Valley Blvd", "Ste 140", "San Ramon, CA 94583"]}, "phone": "+19257185233", "display_phone": "(925) 718-5233", "distance": 1729.6741674635603}, {"id": "LbBofb44yzBfUwrTg1t3nw", "alias": "ofas-island-bbq-san-ramon", "name": "Ofa's Island BBQ", "image_url": "https://s3-media3.fl.yelpcdn.com/bphoto/oG7g_GbmPsR5_rvZLWvOJw/o.jpg", "is_closed": false, "url": "https://www.yelp.com/biz/ofas-island-bbq-san-ramon?adjust_creative=gJ2vrem5KxinHaV7_d8wAA&utm_campaign=yelp_api_v3&utm_medium=api_v3_business_search&utm_source=gJ2vrem5KxinHaV7_d8wAA", "review_count": 25, "categories": [{"alias": "bbq", "title": "Barbeque"}, {"alias": "foodstands", "title": "Food Stands"}], "rating": 4.5, "coordinates": {"latitude": 37.7622933, "longitude": -121.960943}, "transactions": [], "price": "$$", "location": {"address1": "150 Sunset Dr", "address2": "", "address3": "", "city": "San Ramon", "zip_code": "94583", "country": "US", "state": "CA", "display_address": ["150 Sunset Dr", "San Ramon, CA 94583"]}, "phone": "", "display_phone": "", "distance": 193.48876632810365}, {"id": "iTL7zIBONLntP_RsByKJjg", "alias": "canyon-lakes-brewery-and-restaurant-san-ramon", "name": "Canyon Lakes Brewery and Restaurant", "image_url": "https://s3-media2.fl.yelpcdn.com/bphoto/3XSaAkbhxcg_r1ioBTvKCw/o.jpg", "is_closed": false, "url": "https://www.yelp.com/biz/canyon-lakes-brewery-and-restaurant-san-ramon?adjust_creative=gJ2vrem5KxinHaV7_d8wAA&utm_campaign=yelp_api_v3&utm_medium=api_v3_business_search&utm_source=gJ2vrem5KxinHaV7_d8wAA", "review_count": 89, "categories": [{"alias": "breweries", "title": "Breweries"}, {"alias": "tradamerican", "title": "American (Traditional)"}, {"alias": "cocktailbars", "title": "Cocktail Bars"}], "rating": 4.0, "coordinates": {"latitude": 37.77178, "longitude": -121.95154}, "transactions": ["delivery", "pickup"], "price": "$$", "location": {"address1": "640 Bollinger Canyon Way", "address2": null, "address3": "", "city": "San Ramon", "zip_code": "94582", "country": "US", "state": "CA", "display_address": ["640 Bollinger Canyon Way", "San Ramon, CA 94582"]}, "phone": "+19257356224", "display_phone": "(925) 735-6224", "distance": 1332.0787159813694}, {"id": "HdGkWRw6Hd_v_nCd03xMMQ", "alias": "bishop-grill-san-ramon", "name": "Bishop Grill", "image_url": "https://s3-media4.fl.yelpcdn.com/bphoto/hDxaGO-rYFCObQFf-T0Vzw/o.jpg", "is_closed": false, "url": "https://www.yelp.com/biz/bishop-grill-san-ramon?adjust_creative=gJ2vrem5KxinHaV7_d8wAA&utm_campaign=yelp_api_v3&utm_medium=api_v3_business_search&utm_source=gJ2vrem5KxinHaV7_d8wAA", "review_count": 37, "categories": [{"alias": "tradamerican", "title": "American (Traditional)"}, {"alias": "lounges", "title": "Lounges"}], "rating": 4.0, "coordinates": {"latitude": 37.763203, "longitude": -121.9657}, "transactions": [], "price": "$$", "location": {"address1": "2600 Bishop Dr", "address2": "", "address3": "", "city": "San Ramon", "zip_code": "94583", "country": "US", "state": "CA", "display_address": ["2600 Bishop Dr", "San Ramon, CA 94583"]}, "phone": "+19252446120", "display_phone": "(925) 244-6120", "distance": 331.14001446694044}, {"id": "0DP4a3Duiaslp-k0HiSODQ", "alias": "hula-wok-bbq-san-ramon", "name": "Hula Wok BBQ", "image_url": "https://s3-media2.fl.yelpcdn.com/bphoto/ha6do5ZVxJoH-NP5heRPhQ/o.jpg", "is_closed": false, "url": "https://www.yelp.com/biz/hula-wok-bbq-san-ramon?adjust_creative=gJ2vrem5KxinHaV7_d8wAA&utm_campaign=yelp_api_v3&utm_medium=api_v3_business_search&utm_source=gJ2vrem5KxinHaV7_d8wAA", "review_count": 323, "categories": [{"alias": "hawaiian", "title": "Hawaiian"}, {"alias": "bbq", "title": "Barbeque"}], "rating": 4.0, "coordinates": {"latitude": 37.77474, "longitude": -121.97768}, "transactions": ["delivery", "pickup"], "price": "$", "location": {"address1": "2441 San Ramon Valley Blvd", "address2": null, "address3": "", "city": "San Ramon", "zip_code": "94583", "country": "US", "state": "CA", "display_address": ["2441 San Ramon Valley Blvd", "San Ramon, CA 94583"]}, "phone": "+19258372258", "display_phone": "(925) 837-2258", "distance": 1852.1495346876225}, {"id": "0dp6rD0K0jEeZAIibRfz1w", "alias": "yayume-sushi-san-ramon-3", "name": "Yayume Sushi", "image_url": "https://s3-media2.fl.yelpcdn.com/bphoto/TcpE0zv_sdpRvORg_Tmbyg/o.jpg", "is_closed": false, "url": "https://www.yelp.com/biz/yayume-sushi-san-ramon-3?adjust_creative=gJ2vrem5KxinHaV7_d8wAA&utm_campaign=yelp_api_v3&utm_medium=api_v3_business_search&utm_source=gJ2vrem5KxinHaV7_d8wAA", "review_count": 357, "categories": [{"alias": "sushi", "title": "Sushi Bars"}, {"alias": "ramen", "title": "Ramen"}], "rating": 4.0, "coordinates": {"latitude": 37.77145, "longitude": -121.97469}, "transactions": ["delivery", "pickup"], "price": "$$", "location": {"address1": "2551 San Ramon Valley Blvd", "address2": "Ste 104", "address3": "", "city": "San Ramon", "zip_code": "94583", "country": "US", "state": "CA", "display_address": ["2551 San Ramon Valley Blvd", "Ste 104", "San Ramon, CA 94583"]}, "phone": "+19258384747", "display_phone": "(925) 838-4747", "distance": 1380.7293037374961}, {"id": "NecmeM5pXhFJePAG3icjQg", "alias": "zacharys-chicago-pizza-san-ramon", "name": "Zachary's Chicago Pizza", "image_url": "https://s3-media3.fl.yelpcdn.com/bphoto/zCfjYIbwRPnsXI2IoaxUDg/o.jpg", "is_closed": false, "url": "https://www.yelp.com/biz/zacharys-chicago-pizza-san-ramon?adjust_creative=gJ2vrem5KxinHaV7_d8wAA&utm_campaign=yelp_api_v3&utm_medium=api_v3_business_search&utm_source=gJ2vrem5KxinHaV7_d8wAA", "review_count": 1054, "categories": [{"alias": "pizza", "title": "Pizza"}], "rating": 4.0, "coordinates": {"latitude": 37.777976, "longitude": -121.972553}, "transactions": ["pickup"], "price": "$$", "location": {"address1": "3110 Crow Canyon Pl", "address2": null, "address3": "", "city": "San Ramon", "zip_code": "94583", "country": "US", "state": "CA", "display_address": ["3110 Crow Canyon Pl", "San Ramon, CA 94583"]}, "phone": "+19252441222", "display_phone": "(925) 244-1222", "distance": 1844.7275744447672}, {"id": "xX-h_Hsm5eu7DhfTdLevEg", "alias": "clementines-san-ramon", "name": "Clementine's", "image_url": "https://s3-media1.fl.yelpcdn.com/bphoto/0kraDgAgl0QdO0UHvFJx_Q/o.jpg", "is_closed": false, "url": "https://www.yelp.com/biz/clementines-san-ramon?adjust_creative=gJ2vrem5KxinHaV7_d8wAA&utm_campaign=yelp_api_v3&utm_medium=api_v3_business_search&utm_source=gJ2vrem5KxinHaV7_d8wAA", "review_count": 709, "categories": [{"alias": "soulfood", "title": "Soul Food"}, {"alias": "cajun", "title": "Cajun/Creole"}], "rating": 3.5, "coordinates": {"latitude": 37.758269, "longitude": -121.966563}, "transactions": [], "price": "$$", "location": {"address1": "18070 San Ramon Valley Blvd", "address2": "", "address3": "", "city": "San Ramon", "zip_code": "94583", "country": "US", "state": "CA", "display_address": ["18070 San Ramon Valley Blvd", "San Ramon, CA 94583"]}, "phone": "+19259730433", "display_phone": "(925) 973-0433", "distance": 722.3065145078406}, {"id": "nQQxX086YQZeMCo0rembIA", "alias": "roam-artisan-burgers-san-ramon-2", "name": "Roam Artisan Burgers", "image_url": "https://s3-media1.fl.yelpcdn.com/bphoto/qQZl_BEgrmAHkY6gvmAIIA/o.jpg", "is_closed": false, "url": "https://www.yelp.com/biz/roam-artisan-burgers-san-ramon-2?adjust_creative=gJ2vrem5KxinHaV7_d8wAA&utm_campaign=yelp_api_v3&utm_medium=api_v3_business_search&utm_source=gJ2vrem5KxinHaV7_d8wAA", "review_count": 164, "categories": [{"alias": "burgers", "title": "Burgers"}], "rating": 3.5, "coordinates": {"latitude": 37.7636744258188, "longitude": -121.960091105589}, "transactions": [], "price": "$$", "location": {"address1": "6000 Bollinger Canyon Rd", "address2": "Ste 1101", "address3": null, "city": "San Ramon", "zip_code": "94583", "country": "US", "state": "CA", "display_address": ["6000 Bollinger Canyon Rd", "Ste 1101", "San Ramon, CA 94583"]}, "phone": "+19253651427", "display_phone": "(925) 365-1427", "distance": 165.6388075112113}, {"id": "A5VGNzVfAZ3OyAILk8HTCQ", "alias": "april-8-cafe-san-ramon", "name": "April 8 Cafe", "image_url": "https://s3-media1.fl.yelpcdn.com/bphoto/JY-hIZn0JFKEOM1PpkyLHg/o.jpg", "is_closed": false, "url": "https://www.yelp.com/biz/april-8-cafe-san-ramon?adjust_creative=gJ2vrem5KxinHaV7_d8wAA&utm_campaign=yelp_api_v3&utm_medium=api_v3_business_search&utm_source=gJ2vrem5KxinHaV7_d8wAA", "review_count": 258, "categories": [{"alias": "asianfusion", "title": "Asian Fusion"}, {"alias": "taiwanese", "title": "Taiwanese"}, {"alias": "juicebars", "title": "Juice Bars & Smoothies"}], "rating": 4.0, "coordinates": {"latitude": 37.77414, "longitude": -121.97618}, "transactions": ["delivery", "pickup"], "price": "$$", "location": {"address1": "2491 San Ramon Valley Blvd", "address2": "Ste 1", "address3": null, "city": "San Ramon", "zip_code": "94583", "country": "US", "state": "CA", "display_address": ["2491 San Ramon Valley Blvd", "Ste 1", "San Ramon, CA 94583"]}, "phone": "+19257185811", "display_phone": "(925) 718-5811", "distance": 1713.7196919159667}, {"id": "SEfk09SAw0TV5slDIMCF2w", "alias": "jalsa-kitchen-san-ramon", "name": "Jalsa Kitchen", "image_url": "https://s3-media2.fl.yelpcdn.com/bphoto/3BXn2wCDtz31eA_YlwvWRA/o.jpg", "is_closed": false, "url": "https://www.yelp.com/biz/jalsa-kitchen-san-ramon?adjust_creative=gJ2vrem5KxinHaV7_d8wAA&utm_campaign=yelp_api_v3&utm_medium=api_v3_business_search&utm_source=gJ2vrem5KxinHaV7_d8wAA", "review_count": 81, "categories": [{"alias": "indpak", "title": "Indian"}], "rating": 4.0, "coordinates": {"latitude": 37.77381667, "longitude": -121.97717167}, "transactions": ["delivery", "pickup"], "location": {"address1": "2475 San Ramon Valley Blvd", "address2": "Ste 6", "address3": "", "city": "San Ramon", "zip_code": "94583", "country": "US", "state": "CA", "display_address": ["2475 San Ramon Valley Blvd", "Ste 6", "San Ramon, CA 94583"]}, "phone": "+19253660848", "display_phone": "(925) 366-0848", "distance": 1730.2772940747402}, {"id": "PHjlUPYxzEUyxw0orp0sEg", "alias": "pho-sam-restaurant-san-ramon", "name": "Pho Sam Restaurant", "image_url": "https://s3-media3.fl.yelpcdn.com/bphoto/lk2Bff8CodruXxcj-7WGyg/o.jpg", "is_closed": false, "url": "https://www.yelp.com/biz/pho-sam-restaurant-san-ramon?adjust_creative=gJ2vrem5KxinHaV7_d8wAA&utm_campaign=yelp_api_v3&utm_medium=api_v3_business_search&utm_source=gJ2vrem5KxinHaV7_d8wAA", "review_count": 396, "categories": [{"alias": "vietnamese", "title": "Vietnamese"}], "rating": 3.5, "coordinates": {"latitude": 37.772875, "longitude": -121.9737909}, "transactions": [], "price": "$", "location": {"address1": "2550 San Ramon Valley Blvd", "address2": "Ste C", "address3": "", "city": "San Ramon", "zip_code": "94583", "country": "US", "state": "CA", "display_address": ["2550 San Ramon Valley Blvd", "Ste C", "San Ramon, CA 94583"]}, "phone": "+19258382347", "display_phone": "(925) 838-2347", "distance": 1459.9778406650744}, {"id": "Qx9GgEmVy9jKLAPwd6s3nA", "alias": "cafe-attila-san-ramon", "name": "Cafe Attila", "image_url": "https://s3-media4.fl.yelpcdn.com/bphoto/YioIV8_y4J5lMyn6VD6EUA/o.jpg", "is_closed": false, "url": "https://www.yelp.com/biz/cafe-attila-san-ramon?adjust_creative=gJ2vrem5KxinHaV7_d8wAA&utm_campaign=yelp_api_v3&utm_medium=api_v3_business_search&utm_source=gJ2vrem5KxinHaV7_d8wAA", "review_count": 469, "categories": [{"alias": "bakeries", "title": "Bakeries"}, {"alias": "cafes", "title": "Cafes"}, {"alias": "breakfast_brunch", "title": "Breakfast & Brunch"}], "rating": 4.5, "coordinates": {"latitude": 37.7817571, "longitude": -121.9790308}, "transactions": [], "price": "$$", "location": {"address1": "2211 San Ramon Valley Blvd", "address2": "Ste B", "address3": "", "city": "San Ramon", "zip_code": "94583", "country": "US", "state": "CA", "display_address": ["2211 San Ramon Valley Blvd", "Ste B", "San Ramon, CA 94583"]}, "phone": "+19258372886", "display_phone": "(925) 837-2886", "distance": 2541.6244442605716}, {"id": "b8ck9mOkOvMdbrvjZz-qzA", "alias": "fresh-millions-restaurant-san-ramon", "name": "Fresh Millions Restaurant", "image_url": "https://s3-media3.fl.yelpcdn.com/bphoto/jb5LsPsNVsMVyQL50GSoXw/o.jpg", "is_closed": false, "url": "https://www.yelp.com/biz/fresh-millions-restaurant-san-ramon?adjust_creative=gJ2vrem5KxinHaV7_d8wAA&utm_campaign=yelp_api_v3&utm_medium=api_v3_business_search&utm_source=gJ2vrem5KxinHaV7_d8wAA", "review_count": 459, "categories": [{"alias": "salad", "title": "Salad"}, {"alias": "newamerican", "title": "American (New)"}, {"alias": "wraps", "title": "Wraps"}], "rating": 4.0, "coordinates": {"latitude": 37.7728703, "longitude": -121.9737873}, "transactions": ["pickup"], "price": "$", "location": {"address1": "2550 San Ramon Valley Blvd", "address2": "Ste B2", "address3": "", "city": "San Ramon", "zip_code": "94583", "country": "US", "state": "CA", "display_address": ["2550 San Ramon Valley Blvd", "Ste B2", "San Ramon, CA 94583"]}, "phone": "+19258383200", "display_phone": "(925) 838-3200", "distance": 1459.3854669164107}, {"id": "FVmdtTR4E4Mwn8y66vR-pA", "alias": "on-fire-pizza-san-ramon", "name": "On Fire Pizza", "image_url": "https://s3-media1.fl.yelpcdn.com/bphoto/XtCEltL_QP7HCIuAFp_x6Q/o.jpg", "is_closed": false, "url": "https://www.yelp.com/biz/on-fire-pizza-san-ramon?adjust_creative=gJ2vrem5KxinHaV7_d8wAA&utm_campaign=yelp_api_v3&utm_medium=api_v3_business_search&utm_source=gJ2vrem5KxinHaV7_d8wAA", "review_count": 439, "categories": [{"alias": "pizza", "title": "Pizza"}], "rating": 4.0, "coordinates": {"latitude": 37.7799, "longitude": -121.9723}, "transactions": ["delivery", "pickup"], "price": "$$", "location": {"address1": "2005 Crow Canyon Pl", "address2": "", "address3": "", "city": "San Ramon", "zip_code": "94583", "country": "US", "state": "CA", "display_address": ["2005 Crow Canyon Pl", "San Ramon, CA 94583"]}, "phone": "+19258046318", "display_phone": "(925) 804-6318", "distance": 2011.494964286447}, {"id": "ih2ptYhXKA7j8T0xOaCJ3A", "alias": "burgerim-san-ramon", "name": "Burgerim", "image_url": "https://s3-media1.fl.yelpcdn.com/bphoto/zZMTMfy_-UBj8ghAspWkBw/o.jpg", "is_closed": false, "url": "https://www.yelp.com/biz/burgerim-san-ramon?adjust_creative=gJ2vrem5KxinHaV7_d8wAA&utm_campaign=yelp_api_v3&utm_medium=api_v3_business_search&utm_source=gJ2vrem5KxinHaV7_d8wAA", "review_count": 19, "categories": [{"alias": "burgers", "title": "Burgers"}, {"alias": "chicken_wings", "title": "Chicken Wings"}, {"alias": "beer_and_wine", "title": "Beer, Wine & Spirits"}], "rating": 3.5, "coordinates": {"latitude": 37.73032333, "longitude": -121.92998}, "transactions": [], "location": {"address1": "9140 Alcosta Blvd", "address2": "Ste A", "address3": null, "city": "San Ramon", "zip_code": "94583", "country": "US", "state": "CA", "display_address": ["9140 Alcosta Blvd", "Ste A", "San Ramon, CA 94583"]}, "phone": "+19255871977", "display_phone": "(925) 587-1977", "distance": 4656.182760453729}, {"id": "STGsK_tHRedzImxGZkBntQ", "alias": "mixt-san-ramon", "name": "MIXT", "image_url": "https://s3-media4.fl.yelpcdn.com/bphoto/kYrN6Fml0vPRvLk-WZz0TQ/o.jpg", "is_closed": false, "url": "https://www.yelp.com/biz/mixt-san-ramon?adjust_creative=gJ2vrem5KxinHaV7_d8wAA&utm_campaign=yelp_api_v3&utm_medium=api_v3_business_search&utm_source=gJ2vrem5KxinHaV7_d8wAA", "review_count": 69, "categories": [{"alias": "salad", "title": "Salad"}, {"alias": "newamerican", "title": "American (New)"}], "rating": 4.0, "coordinates": {"latitude": 37.7617103, "longitude": -121.9601246}, "transactions": [], "price": "$$", "location": {"address1": "6000 Bollinger Canyon Rd", "address2": "", "address3": null, "city": "San Ramon", "zip_code": "94583", "country": "US", "state": "CA", "display_address": ["6000 Bollinger Canyon Rd", "San Ramon, CA 94583"]}, "phone": "+14152968009", "display_phone": "(415) 296-8009", "distance": 262.5264537943891}, {"id": "chzazVcRC99IAG22jX-vYg", "alias": "brass-door-san-ramon", "name": "Brass Door", "image_url": "https://s3-media3.fl.yelpcdn.com/bphoto/EmS5Q-rZzqfBZjLspn2NHA/o.jpg", "is_closed": false, "url": "https://www.yelp.com/biz/brass-door-san-ramon?adjust_creative=gJ2vrem5KxinHaV7_d8wAA&utm_campaign=yelp_api_v3&utm_medium=api_v3_business_search&utm_source=gJ2vrem5KxinHaV7_d8wAA", "review_count": 463, "categories": [{"alias": "tradamerican", "title": "American (Traditional)"}, {"alias": "venues", "title": "Venues & Event Spaces"}, {"alias": "steak", "title": "Steakhouses"}], "rating": 3.5, "coordinates": {"latitude": 37.7822599, "longitude": -121.978686}, "transactions": [], "price": "$$", "location": {"address1": "2154 San Ramon Vly Blvd", "address2": "", "address3": "", "city": "San Ramon", "zip_code": "94583", "country": "US", "state": "CA", "display_address": ["2154 San Ramon Vly Blvd", "San Ramon, CA 94583"]}, "phone": "+19258372501", "display_phone": "(925) 837-2501", "distance": 2537.8552292599315}, {"id": "kxAke_YDwzmFaKCZFuUW1A", "alias": "firehouse-no-37-san-ramon-2", "name": "Firehouse No 37", "image_url": "https://s3-media4.fl.yelpcdn.com/bphoto/YZIyoc7QfGq4rIJ472RflA/o.jpg", "is_closed": false, "url": "https://www.yelp.com/biz/firehouse-no-37-san-ramon-2?adjust_creative=gJ2vrem5KxinHaV7_d8wAA&utm_campaign=yelp_api_v3&utm_medium=api_v3_business_search&utm_source=gJ2vrem5KxinHaV7_d8wAA", "review_count": 607, "categories": [{"alias": "tradamerican", "title": "American (Traditional)"}, {"alias": "sportsbars", "title": "Sports Bars"}, {"alias": "gastropubs", "title": "Gastropubs"}], "rating": 3.5, "coordinates": {"latitude": 37.7638945308482, "longitude": -121.95265272642}, "transactions": ["delivery", "pickup"], "price": "$$", "location": {"address1": "250 Market Pl", "address2": "", "address3": "", "city": "San Ramon", "zip_code": "94583", "country": "US", "state": "CA", "display_address": ["250 Market Pl", "San Ramon, CA 94583"]}, "phone": "+19253806565", "display_phone": "(925) 380-6565", "distance": 819.9371285665612}, {"id": "LOFlI9KuRoj84_hjWmi9dA", "alias": "dos-coyotes-border-cafe-san-ramon", "name": "Dos Coyotes Border Cafe", "image_url": "https://s3-media3.fl.yelpcdn.com/bphoto/ehb_MunU7p-2BhwIl2AdtQ/o.jpg", "is_closed": false, "url": "https://www.yelp.com/biz/dos-coyotes-border-cafe-san-ramon?adjust_creative=gJ2vrem5KxinHaV7_d8wAA&utm_campaign=yelp_api_v3&utm_medium=api_v3_business_search&utm_source=gJ2vrem5KxinHaV7_d8wAA", "review_count": 485, "categories": [{"alias": "tex-mex", "title": "Tex-Mex"}, {"alias": "mexican", "title": "Mexican"}], "rating": 3.5, "coordinates": {"latitude": 37.77684, "longitude": -121.97048}, "transactions": ["pickup"], "price": "$$", "location": {"address1": "3191 Crow Canyon Pl", "address2": "Ste L", "address3": "", "city": "San Ramon", "zip_code": "94583", "country": "US", "state": "CA", "display_address": ["3191 Crow Canyon Pl", "Ste L", "San Ramon, CA 94583"]}, "phone": "+19252421100", "display_phone": "(925) 242-1100", "distance": 1646.8144083712257}, {"id": "30XFOx3MudfrMEQ4Rwv4ZA", "alias": "pho-viet-san-ramon", "name": "Pho Viet", "image_url": "https://s3-media4.fl.yelpcdn.com/bphoto/ejlXks_nr_633dTazMa0EQ/o.jpg", "is_closed": false, "url": "https://www.yelp.com/biz/pho-viet-san-ramon?adjust_creative=gJ2vrem5KxinHaV7_d8wAA&utm_campaign=yelp_api_v3&utm_medium=api_v3_business_search&utm_source=gJ2vrem5KxinHaV7_d8wAA", "review_count": 126, "categories": [{"alias": "vietnamese", "title": "Vietnamese"}], "rating": 3.5, "coordinates": {"latitude": 37.7738136812922, "longitude": -121.9774222}, "transactions": [], "price": "$$", "location": {"address1": "2475 San Ramon Valley Blvd", "address2": "Ste 10", "address3": null, "city": "San Ramon", "zip_code": "94583", "country": "US", "state": "CA", "display_address": ["2475 San Ramon Valley Blvd", "Ste 10", "San Ramon, CA 94583"]}, "phone": "+19257915600", "display_phone": "(925) 791-5600", "distance": 1766.776242307157}, {"id": "umdgBkv1Klhm5jV5Uz_NHA", "alias": "sakiya-sushi-san-ramon", "name": "Sakiya Sushi", "image_url": "https://s3-media1.fl.yelpcdn.com/bphoto/nlXFHOP7vMu-oQiY0iilpQ/o.jpg", "is_closed": false, "url": "https://www.yelp.com/biz/sakiya-sushi-san-ramon?adjust_creative=gJ2vrem5KxinHaV7_d8wAA&utm_campaign=yelp_api_v3&utm_medium=api_v3_business_search&utm_source=gJ2vrem5KxinHaV7_d8wAA", "review_count": 96, "categories": [{"alias": "sushi", "title": "Sushi Bars"}, {"alias": "japanese", "title": "Japanese"}], "rating": 4.0, "coordinates": {"latitude": 37.7799, "longitude": -121.9723}, "transactions": ["delivery"], "price": "$$", "location": {"address1": "2005 Crow Canyon Pl", "address2": "Ste 138", "address3": "", "city": "San Ramon", "zip_code": "94583", "country": "US", "state": "CA", "display_address": ["2005 Crow Canyon Pl", "Ste 138", "San Ramon, CA 94583"]}, "phone": "+19253596835", "display_phone": "(925) 359-6835", "distance": 2011.494964286447}, {"id": "o2UYpQiSzvd1rI1U1uicoA", "alias": "the-hopyard-american-alehouse-and-grill-san-ramon", "name": "The Hopyard American Alehouse & Grill", "image_url": "https://s3-media4.fl.yelpcdn.com/bphoto/aS1sy-5CKHzUu7bZjIA0_A/o.jpg", "is_closed": false, "url": "https://www.yelp.com/biz/the-hopyard-american-alehouse-and-grill-san-ramon?adjust_creative=gJ2vrem5KxinHaV7_d8wAA&utm_campaign=yelp_api_v3&utm_medium=api_v3_business_search&utm_source=gJ2vrem5KxinHaV7_d8wAA", "review_count": 400, "categories": [{"alias": "pubs", "title": "Pubs"}, {"alias": "tradamerican", "title": "American (Traditional)"}], "rating": 3.5, "coordinates": {"latitude": 37.7639763146878, "longitude": -121.950964496224}, "transactions": [], "price": "$$", "location": {"address1": "470 Market Pl", "address2": "", "address3": "", "city": "San Ramon", "zip_code": "94583", "country": "US", "state": "CA", "display_address": ["470 Market Pl", "San Ramon, CA 94583"]}, "phone": "+19252779600", "display_phone": "(925) 277-9600", "distance": 968.569392830991}, {"id": "VUu2KpgAhDereSEbz_QNmA", "alias": "pizza-bello-san-ramon-3", "name": "Pizza Bello", "image_url": "https://s3-media4.fl.yelpcdn.com/bphoto/DPIzSjg9yoOwbycEnI9s2Q/o.jpg", "is_closed": false, "url": "https://www.yelp.com/biz/pizza-bello-san-ramon-3?adjust_creative=gJ2vrem5KxinHaV7_d8wAA&utm_campaign=yelp_api_v3&utm_medium=api_v3_business_search&utm_source=gJ2vrem5KxinHaV7_d8wAA", "review_count": 117, "categories": [{"alias": "pizza", "title": "Pizza"}, {"alias": "italian", "title": "Italian"}, {"alias": "gelato", "title": "Gelato"}], "rating": 4.5, "coordinates": {"latitude": 37.754261, "longitude": -121.939605}, "transactions": [], "price": "$$", "location": {"address1": "12191 Alcosta Blvd", "address2": "", "address3": null, "city": "San Ramon", "zip_code": "94583", "country": "US", "state": "CA", "display_address": ["12191 Alcosta Blvd", "San Ramon, CA 94583"]}, "phone": "+19252482180", "display_phone": "(925) 248-2180", "distance": 2226.348825109298}, {"id": "rfAJ6jr_MIx3pliLHnFlaA", "alias": "creme-si-bon-san-ramon", "name": "Creme Si Bon", "image_url": "https://s3-media2.fl.yelpcdn.com/bphoto/0-EmNM6qtGDyNssnB3yqJA/o.jpg", "is_closed": false, "url": "https://www.yelp.com/biz/creme-si-bon-san-ramon?adjust_creative=gJ2vrem5KxinHaV7_d8wAA&utm_campaign=yelp_api_v3&utm_medium=api_v3_business_search&utm_source=gJ2vrem5KxinHaV7_d8wAA", "review_count": 339, "categories": [{"alias": "desserts", "title": "Desserts"}, {"alias": "bakeries", "title": "Bakeries"}, {"alias": "sandwiches", "title": "Sandwiches"}], "rating": 4.5, "coordinates": {"latitude": 37.7635829, "longitude": -121.9498381}, "transactions": [], "price": "$$", "location": {"address1": "192 Market Pl", "address2": "", "address3": "", "city": "San Ramon", "zip_code": "94583", "country": "US", "state": "CA", "display_address": ["192 Market Pl", "San Ramon, CA 94583"]}, "phone": "+19258046261", "display_phone": "(925) 804-6261", "distance": 863.9765793202768}, {"id": "A2K9InLMRkhNnzWI6pjdVg", "alias": "c-casa-san-ramon-san-ramon-2", "name": "C CASA - San Ramon", "image_url": "https://s3-media4.fl.yelpcdn.com/bphoto/L6mFWXPZ-XoRMYSVuSM-VA/o.jpg", "is_closed": false, "url": "https://www.yelp.com/biz/c-casa-san-ramon-san-ramon-2?adjust_creative=gJ2vrem5KxinHaV7_d8wAA&utm_campaign=yelp_api_v3&utm_medium=api_v3_business_search&utm_source=gJ2vrem5KxinHaV7_d8wAA", "review_count": 117, "categories": [{"alias": "mexican", "title": "Mexican"}, {"alias": "gluten_free", "title": "Gluten-Free"}, {"alias": "vegetarian", "title": "Vegetarian"}], "rating": 3.5, "coordinates": {"latitude": 37.76318, "longitude": -121.959085}, "transactions": ["delivery", "pickup"], "price": "$$", "location": {"address1": "6000 Bollinger Canyon Rd", "address2": "Ste 1207", "address3": null, "city": "San Ramon", "zip_code": "94583", "country": "US", "state": "CA", "display_address": ["6000 Bollinger Canyon Rd", "Ste 1207", "San Ramon, CA 94583"]}, "phone": "+19255740300", "display_phone": "(925) 574-0300", "distance": 259.30941754266576}, {"id": "oUVMNxTP45qNV0JKId0VLQ", "alias": "orient-express-san-ramon-2", "name": "Orient Express", "image_url": "https://s3-media1.fl.yelpcdn.com/bphoto/enkvLcNjOQdAiK2CBE5O4A/o.jpg", "is_closed": false, "url": "https://www.yelp.com/biz/orient-express-san-ramon-2?adjust_creative=gJ2vrem5KxinHaV7_d8wAA&utm_campaign=yelp_api_v3&utm_medium=api_v3_business_search&utm_source=gJ2vrem5KxinHaV7_d8wAA", "review_count": 361, "categories": [{"alias": "chinese", "title": "Chinese"}], "rating": 4.0, "coordinates": {"latitude": 37.7737213821289, "longitude": -121.977178137672}, "transactions": [], "price": "$", "location": {"address1": "2475 San Ramon Valley Blvd", "address2": "Ste 5", "address3": "", "city": "San Ramon", "zip_code": "94583", "country": "US", "state": "CA", "display_address": ["2475 San Ramon Valley Blvd", "Ste 5", "San Ramon, CA 94583"]}, "phone": "+19257439516", "display_phone": "(925) 743-9516", "distance": 1743.733350902935}, {"id": "Q_BXS34QUwuxGHQK2mb-vw", "alias": "papaya-grill-san-ramon-2", "name": "Papaya Grill", "image_url": "https://s3-media4.fl.yelpcdn.com/bphoto/o5rYNdN2drbHTJCAiaHfcA/o.jpg", "is_closed": false, "url": "https://www.yelp.com/biz/papaya-grill-san-ramon-2?adjust_creative=gJ2vrem5KxinHaV7_d8wAA&utm_campaign=yelp_api_v3&utm_medium=api_v3_business_search&utm_source=gJ2vrem5KxinHaV7_d8wAA", "review_count": 273, "categories": [{"alias": "filipino", "title": "Filipino"}], "rating": 3.5, "coordinates": {"latitude": 37.763692, "longitude": -121.95155}, "transactions": ["pickup"], "price": "$$", "location": {"address1": "280 Market Pl", "address2": "", "address3": "", "city": "San Ramon", "zip_code": "94583", "country": "US", "state": "CA", "display_address": ["280 Market Pl", "San Ramon, CA 94583"]}, "phone": "+19253651650", "display_phone": "(925) 365-1650", "distance": 916.4247592990498}, {"id": "sznaYplT_R9bndaYjJtCug", "alias": "nob-hill-foods-san-ramon", "name": "Nob Hill Foods", "image_url": "https://s3-media1.fl.yelpcdn.com/bphoto/EevZf-L9o9W1npDPSX_r3A/o.jpg", "is_closed": false, "url": "https://www.yelp.com/biz/nob-hill-foods-san-ramon?adjust_creative=gJ2vrem5KxinHaV7_d8wAA&utm_campaign=yelp_api_v3&utm_medium=api_v3_business_search&utm_source=gJ2vrem5KxinHaV7_d8wAA", "review_count": 122, "categories": [{"alias": "grocery", "title": "Grocery"}, {"alias": "delis", "title": "Delis"}, {"alias": "beer_and_wine", "title": "Beer, Wine & Spirits"}], "rating": 3.5, "coordinates": {"latitude": 37.7627592, "longitude": -121.9516986}, "transactions": [], "price": "$$", "location": {"address1": "130 Market Pl", "address2": "", "address3": "", "city": "San Ramon", "zip_code": "94583", "country": "US", "state": "CA", "display_address": ["130 Market Pl", "San Ramon, CA 94583"]}, "phone": "+19258661022", "display_phone": "(925) 866-1022", "distance": 908.7343451161971}, {"id": "bkKyavctb8-PlS0HY1f1tw", "alias": "halal-bites-of-chicago-san-ramon-5", "name": "Halal Bites Of Chicago", "image_url": "https://s3-media2.fl.yelpcdn.com/bphoto/Wx7Nw8cxMadmkxw3exalRw/o.jpg", "is_closed": false, "url": "https://www.yelp.com/biz/halal-bites-of-chicago-san-ramon-5?adjust_creative=gJ2vrem5KxinHaV7_d8wAA&utm_campaign=yelp_api_v3&utm_medium=api_v3_business_search&utm_source=gJ2vrem5KxinHaV7_d8wAA", "review_count": 80, "categories": [{"alias": "mediterranean", "title": "Mediterranean"}, {"alias": "halal", "title": "Halal"}, {"alias": "foodtrucks", "title": "Food Trucks"}], "rating": 4.5, "coordinates": {"latitude": 37.77846, "longitude": -121.94551}, "transactions": ["pickup"], "price": "$", "location": {"address1": "", "address2": null, "address3": "", "city": "San Ramon", "zip_code": "94582", "country": "US", "state": "CA", "display_address": ["San Ramon, CA 94582"]}, "phone": "+19257862946", "display_phone": "(925) 786-2946", "distance": 4289.765283210409}, {"id": "W2-3VM8vU5YTE6weft5b_Q", "alias": "senro-sushi-san-ramon-2", "name": "Senro Sushi", "image_url": "https://s3-media3.fl.yelpcdn.com/bphoto/GdthM-Wc-mmJnvKm5sPI-A/o.jpg", "is_closed": false, "url": "https://www.yelp.com/biz/senro-sushi-san-ramon-2?adjust_creative=gJ2vrem5KxinHaV7_d8wAA&utm_campaign=yelp_api_v3&utm_medium=api_v3_business_search&utm_source=gJ2vrem5KxinHaV7_d8wAA", "review_count": 327, "categories": [{"alias": "japanese", "title": "Japanese"}, {"alias": "sushi", "title": "Sushi Bars"}], "rating": 4.0, "coordinates": {"latitude": 37.7736430148964, "longitude": -121.977237455718}, "transactions": ["delivery"], "price": "$$", "location": {"address1": "2475 San Ramon Valley Blvd", "address2": "", "address3": "Safeway Shopping Ctr", "city": "San Ramon", "zip_code": "94583", "country": "US", "state": "CA", "display_address": ["2475 San Ramon Valley Blvd", "Safeway Shopping Ctr", "San Ramon, CA 94583"]}, "phone": "+19258202883", "display_phone": "(925) 820-2883", "distance": 1742.1604901923624}, {"id": "64M-GSeP_DykXoyVeyVc_Q", "alias": "bombay-pizza-and-kabob-house-san-ramon", "name": "Bombay Pizza & Kabob House", "image_url": "https://s3-media3.fl.yelpcdn.com/bphoto/Mrlhs6SNkyEpcZp1Kp9SnQ/o.jpg", "is_closed": false, "url": "https://www.yelp.com/biz/bombay-pizza-and-kabob-house-san-ramon?adjust_creative=gJ2vrem5KxinHaV7_d8wAA&utm_campaign=yelp_api_v3&utm_medium=api_v3_business_search&utm_source=gJ2vrem5KxinHaV7_d8wAA", "review_count": 388, "categories": [{"alias": "pizza", "title": "Pizza"}, {"alias": "halal", "title": "Halal"}, {"alias": "indpak", "title": "Indian"}], "rating": 4.0, "coordinates": {"latitude": 37.7740364, "longitude": -121.9751461}, "transactions": ["delivery", "pickup"], "price": "$$", "location": {"address1": "2468 San Ramon Valley Blvd", "address2": "", "address3": "", "city": "San Ramon", "zip_code": "94583", "country": "US", "state": "CA", "display_address": ["2468 San Ramon Valley Blvd", "San Ramon, CA 94583"]}, "phone": "+19258387655", "display_phone": "(925) 838-7655", "distance": 1628.336678971766}, {"id": "81ktFjwyxwnbxm-MqAmv1A", "alias": "cafe-tandoor-san-ramon", "name": "Cafe Tandoor", "image_url": "https://s3-media4.fl.yelpcdn.com/bphoto/kncLftN62bWbJ7-_jFr2VA/o.jpg", "is_closed": false, "url": "https://www.yelp.com/biz/cafe-tandoor-san-ramon?adjust_creative=gJ2vrem5KxinHaV7_d8wAA&utm_campaign=yelp_api_v3&utm_medium=api_v3_business_search&utm_source=gJ2vrem5KxinHaV7_d8wAA", "review_count": 435, "categories": [{"alias": "indpak", "title": "Indian"}], "rating": 3.5, "coordinates": {"latitude": 37.7641191760043, "longitude": -121.951393273444}, "transactions": ["delivery"], "price": "$$", "location": {"address1": "420 Market Pl", "address2": null, "address3": "", "city": "San Ramon", "zip_code": "94583", "country": "US", "state": "CA", "display_address": ["420 Market Pl", "San Ramon, CA 94583"]}, "phone": "+19252441559", "display_phone": "(925) 244-1559", "distance": 931.6649803828512}, {"id": "yz2o_d-IA9xf62HjI1ADqg", "alias": "round-table-pizza-san-ramon-4", "name": "Round Table Pizza", "image_url": "https://s3-media3.fl.yelpcdn.com/bphoto/sg1Q-tgGnHCLi6oy4X98eg/o.jpg", "is_closed": false, "url": "https://www.yelp.com/biz/round-table-pizza-san-ramon-4?adjust_creative=gJ2vrem5KxinHaV7_d8wAA&utm_campaign=yelp_api_v3&utm_medium=api_v3_business_search&utm_source=gJ2vrem5KxinHaV7_d8wAA", "review_count": 49, "categories": [{"alias": "pizza", "title": "Pizza"}], "rating": 4.5, "coordinates": {"latitude": 37.77343, "longitude": -121.97428}, "transactions": [], "location": {"address1": "2540 San Ramon Valley Blvd", "address2": null, "address3": "", "city": "San Ramon", "zip_code": "94583", "country": "US", "state": "CA", "display_address": ["2540 San Ramon Valley Blvd", "San Ramon, CA 94583"]}, "phone": "+19258551000", "display_phone": "(925) 855-1000", "distance": 1527.2939542267898}, {"id": "cOJc5hTkV7bqnCODUASxUg", "alias": "imperial-delight-san-ramon", "name": "Imperial Delight", "image_url": "https://s3-media3.fl.yelpcdn.com/bphoto/CY-O8BbWuKH24NnHI522tA/o.jpg", "is_closed": false, "url": "https://www.yelp.com/biz/imperial-delight-san-ramon?adjust_creative=gJ2vrem5KxinHaV7_d8wAA&utm_campaign=yelp_api_v3&utm_medium=api_v3_business_search&utm_source=gJ2vrem5KxinHaV7_d8wAA", "review_count": 304, "categories": [{"alias": "chinese", "title": "Chinese"}], "rating": 3.5, "coordinates": {"latitude": 37.7640460240474, "longitude": -121.952254919738}, "transactions": [], "price": "$$", "location": {"address1": "290 Market Pl", "address2": "", "address3": "", "city": "San Ramon", "zip_code": "94583", "country": "US", "state": "CA", "display_address": ["290 Market Pl", "San Ramon, CA 94583"]}, "phone": "+19258672888", "display_phone": "(925) 867-2888", "distance": 855.5939158948142}, {"id": "UbdTs8cCo_Bn6iEkTp30Dg", "alias": "roundhouse-market-and-conference-center-san-ramon", "name": "Roundhouse Market & Conference Center", "image_url": "https://s3-media2.fl.yelpcdn.com/bphoto/kR6BCjDjxSBnnZSIY7hmYg/o.jpg", "is_closed": false, "url": "https://www.yelp.com/biz/roundhouse-market-and-conference-center-san-ramon?adjust_creative=gJ2vrem5KxinHaV7_d8wAA&utm_campaign=yelp_api_v3&utm_medium=api_v3_business_search&utm_source=gJ2vrem5KxinHaV7_d8wAA", "review_count": 41, "categories": [{"alias": "venues", "title": "Venues & Event Spaces"}, {"alias": "restaurants", "title": "Restaurants"}], "rating": 4.0, "coordinates": {"latitude": 37.7666239627726, "longitude": -121.963013447821}, "transactions": [], "location": {"address1": "2600 Camino Ramon", "address2": "Ste 100", "address3": null, "city": "San Ramon", "zip_code": "94583", "country": "US", "state": "CA", "display_address": ["2600 Camino Ramon", "Ste 100", "San Ramon, CA 94583"]}, "phone": "+19259684414", "display_phone": "(925) 968-4414", "distance": 343.35776778850556}, {"id": "-_9ziGO1q2146omyVN30Ww", "alias": "three-brothers-from-china-san-ramon-4", "name": "Three Brothers From China", "image_url": "https://s3-media4.fl.yelpcdn.com/bphoto/xPvae_EDeAV3sWI_YLuehw/o.jpg", "is_closed": false, "url": "https://www.yelp.com/biz/three-brothers-from-china-san-ramon-4?adjust_creative=gJ2vrem5KxinHaV7_d8wAA&utm_campaign=yelp_api_v3&utm_medium=api_v3_business_search&utm_source=gJ2vrem5KxinHaV7_d8wAA", "review_count": 392, "categories": [{"alias": "chinese", "title": "Chinese"}, {"alias": "seafood", "title": "Seafood"}], "rating": 3.5, "coordinates": {"latitude": 37.781745, "longitude": -121.980063}, "transactions": [], "price": "$$", "location": {"address1": "2211 San Ramon Valley Blvd", "address2": "Ste H", "address3": "", "city": "San Ramon", "zip_code": "94583", "country": "US", "state": "CA", "display_address": ["2211 San Ramon Valley Blvd", "Ste H", "San Ramon, CA 94583"]}, "phone": "+19258389600", "display_phone": "(925) 838-9600", "distance": 2564.603476550382}, {"id": "bQSrzKjQYlwwD4mhINvwEQ", "alias": "inchins-bamboo-garden-san-ramon-2", "name": "Inchin's Bamboo Garden", "image_url": "https://s3-media1.fl.yelpcdn.com/bphoto/5lwwzaHfHdtfUj6OLJsgrw/o.jpg", "is_closed": false, "url": "https://www.yelp.com/biz/inchins-bamboo-garden-san-ramon-2?adjust_creative=gJ2vrem5KxinHaV7_d8wAA&utm_campaign=yelp_api_v3&utm_medium=api_v3_business_search&utm_source=gJ2vrem5KxinHaV7_d8wAA", "review_count": 340, "categories": [{"alias": "asianfusion", "title": "Asian Fusion"}, {"alias": "chinese", "title": "Chinese"}, {"alias": "singaporean", "title": "Singaporean"}], "rating": 2.5, "coordinates": {"latitude": 37.76213, "longitude": -121.9676}, "transactions": [], "price": "$$", "location": {"address1": "17900 San Ramon Valley Blvd", "address2": "", "address3": null, "city": "San Ramon", "zip_code": "94583", "country": "US", "state": "CA", "display_address": ["17900 San Ramon Valley Blvd", "San Ramon, CA 94583"]}, "phone": "+19254153236", "display_phone": "(925) 415-3236", "distance": 538.6214033568085}, {"id": "WtSrjUHPa7rqCK5vKWnyEw", "alias": "sushi-foodie-san-ramon", "name": "Sushi Foodie", "image_url": "https://s3-media1.fl.yelpcdn.com/bphoto/eDJnPVJwsLzZeOYBbg-mnQ/o.jpg", "is_closed": false, "url": "https://www.yelp.com/biz/sushi-foodie-san-ramon?adjust_creative=gJ2vrem5KxinHaV7_d8wAA&utm_campaign=yelp_api_v3&utm_medium=api_v3_business_search&utm_source=gJ2vrem5KxinHaV7_d8wAA", "review_count": 108, "categories": [{"alias": "japanese", "title": "Japanese"}, {"alias": "sushi", "title": "Sushi Bars"}], "rating": 3.5, "coordinates": {"latitude": 37.78141, "longitude": -121.9795}, "transactions": ["delivery", "pickup"], "price": "$", "location": {"address1": "2217 San Ramon Valley Blvd", "address2": "Ste L", "address3": "", "city": "San Ramon", "zip_code": "94583", "country": "US", "state": "CA", "display_address": ["2217 San Ramon Valley Blvd", "Ste L", "San Ramon, CA 94583"]}, "phone": "+19252081844", "display_phone": "(925) 208-1844", "distance": 2470.005697270545}, {"id": "MSoXBIJCZ2KZXI-G_Smt4A", "alias": "buffalo-wild-wings-san-ramon", "name": "Buffalo Wild Wings", "image_url": "https://s3-media4.fl.yelpcdn.com/bphoto/U40LKle9MPhbmIkNSbpd3A/o.jpg", "is_closed": false, "url": "https://www.yelp.com/biz/buffalo-wild-wings-san-ramon?adjust_creative=gJ2vrem5KxinHaV7_d8wAA&utm_campaign=yelp_api_v3&utm_medium=api_v3_business_search&utm_source=gJ2vrem5KxinHaV7_d8wAA", "review_count": 586, "categories": [{"alias": "tradamerican", "title": "American (Traditional)"}, {"alias": "chicken_wings", "title": "Chicken Wings"}, {"alias": "sportsbars", "title": "Sports Bars"}], "rating": 2.5, "coordinates": {"latitude": 37.7645489372924, "longitude": -121.952466666698}, "transactions": ["delivery", "pickup"], "price": "$$", "location": {"address1": "200 Montgomery St", "address2": "", "address3": "", "city": "San Ramon", "zip_code": "94583", "country": "US", "state": "CA", "display_address": ["200 Montgomery St", "San Ramon, CA 94583"]}, "phone": "+19253806631", "display_phone": "(925) 380-6631", "distance": 841.82058439125}, {"id": "dijxqggp99ObWFANKPZmIg", "alias": "pearl-garden-san-ramon", "name": "Pearl Garden", "image_url": "https://s3-media2.fl.yelpcdn.com/bphoto/O6zi04ygAg28Wv8r8vihsA/o.jpg", "is_closed": false, "url": "https://www.yelp.com/biz/pearl-garden-san-ramon?adjust_creative=gJ2vrem5KxinHaV7_d8wAA&utm_campaign=yelp_api_v3&utm_medium=api_v3_business_search&utm_source=gJ2vrem5KxinHaV7_d8wAA", "review_count": 315, "categories": [{"alias": "chinese", "title": "Chinese"}], "rating": 3.5, "coordinates": {"latitude": 37.780704498291, "longitude": -121.969223022461}, "transactions": ["delivery", "pickup"], "price": "$$", "location": {"address1": "2101 Camino Ramon", "address2": "Ste 100", "address3": "", "city": "San Ramon", "zip_code": "94583", "country": "US", "state": "CA", "display_address": ["2101 Camino Ramon", "Ste 100", "San Ramon, CA 94583"]}, "phone": "+19253559888", "display_phone": "(925) 355-9888", "distance": 1998.4139080705913}, {"id": "nqjTsZwPcDJSPro5z-n1Fg", "alias": "savourie-streets-food-truck-san-ramon", "name": "Savourie Streets Food Truck", "image_url": "https://s3-media2.fl.yelpcdn.com/bphoto/dBTHYaJiKW9Ogtd9WxXrBg/o.jpg", "is_closed": false, "url": "https://www.yelp.com/biz/savourie-streets-food-truck-san-ramon?adjust_creative=gJ2vrem5KxinHaV7_d8wAA&utm_campaign=yelp_api_v3&utm_medium=api_v3_business_search&utm_source=gJ2vrem5KxinHaV7_d8wAA", "review_count": 25, "categories": [{"alias": "foodtrucks", "title": "Food Trucks"}, {"alias": "sandwiches", "title": "Sandwiches"}, {"alias": "catering", "title": "Caterers"}], "rating": 4.0, "coordinates": {"latitude": 37.7781109543425, "longitude": -121.964057832956}, "transactions": [], "price": "$", "location": {"address1": "12919 Alcosta Blvd", "address2": "Ste 6", "address3": "", "city": "San Ramon", "zip_code": "94583", "country": "US", "state": "CA", "display_address": ["12919 Alcosta Blvd", "Ste 6", "San Ramon, CA 94583"]}, "phone": "+19254579600", "display_phone": "(925) 457-9600", "distance": 1618.6828359309538}, {"id": "Ydkr5GSE5InOga0K0zPFug", "alias": "in-n-out-burger-san-ramon-2", "name": "In-N-Out Burger", "image_url": "https://s3-media3.fl.yelpcdn.com/bphoto/rzhyRnictiPoaZ6VUtfuFg/o.jpg", "is_closed": false, "url": "https://www.yelp.com/biz/in-n-out-burger-san-ramon-2?adjust_creative=gJ2vrem5KxinHaV7_d8wAA&utm_campaign=yelp_api_v3&utm_medium=api_v3_business_search&utm_source=gJ2vrem5KxinHaV7_d8wAA", "review_count": 345, "categories": [{"alias": "hotdogs", "title": "Fast Food"}, {"alias": "burgers", "title": "Burgers"}], "rating": 4.0, "coordinates": {"latitude": 37.7791067, "longitude": -121.9770111}, "transactions": [], "price": "$", "location": {"address1": "2270 San Ramon Valley", "address2": null, "address3": "", "city": "San Ramon", "zip_code": "94583", "country": "US", "state": "CA", "display_address": ["2270 San Ramon Valley", "San Ramon, CA 94583"]}, "phone": "+18007861000", "display_phone": "(800) 786-1000", "distance": 2168.3250270327294}, {"id": "P04AcxLhMXLT4luQeyqd7w", "alias": "katys-korner-san-ramon", "name": "Katy's Korner", "image_url": "https://s3-media1.fl.yelpcdn.com/bphoto/lEyY9utYkOBc_K1-2ZaWIg/o.jpg", "is_closed": false, "url": "https://www.yelp.com/biz/katys-korner-san-ramon?adjust_creative=gJ2vrem5KxinHaV7_d8wAA&utm_campaign=yelp_api_v3&utm_medium=api_v3_business_search&utm_source=gJ2vrem5KxinHaV7_d8wAA", "review_count": 800, "categories": [{"alias": "breakfast_brunch", "title": "Breakfast & Brunch"}], "rating": 3.5, "coordinates": {"latitude": 37.77257, "longitude": -121.97362}, "transactions": [], "price": "$$", "location": {"address1": "2550 San Ramon Valley Blvd", "address2": "", "address3": "", "city": "San Ramon", "zip_code": "94583", "country": "US", "state": "CA", "display_address": ["2550 San Ramon Valley Blvd", "San Ramon, CA 94583"]}, "phone": "+19258312145", "display_phone": "(925) 831-2145", "distance": 1425.5222877474605}, {"id": "QTBXcck2icC1ypbqmF-nPA", "alias": "mod-pizza-san-ramon", "name": "MOD Pizza", "image_url": "https://s3-media2.fl.yelpcdn.com/bphoto/fnI6DNNS7MVVIC_HhMFmaw/o.jpg", "is_closed": false, "url": "https://www.yelp.com/biz/mod-pizza-san-ramon?adjust_creative=gJ2vrem5KxinHaV7_d8wAA&utm_campaign=yelp_api_v3&utm_medium=api_v3_business_search&utm_source=gJ2vrem5KxinHaV7_d8wAA", "review_count": 268, "categories": [{"alias": "hotdogs", "title": "Fast Food"}, {"alias": "pizza", "title": "Pizza"}], "rating": 4.0, "coordinates": {"latitude": 37.7621899, "longitude": -121.96183}, "transactions": [], "price": "$", "location": {"address1": "146 Sunset Dr", "address2": null, "address3": null, "city": "San Ramon", "zip_code": "94583", "country": "US", "state": "CA", "display_address": ["146 Sunset Dr", "San Ramon, CA 94583"]}, "phone": "+19254715799", "display_phone": "(925) 471-5799", "distance": 117.0539032587711}, {"id": "KYqzeVFsnMqU8ZVJ9kLQlw", "alias": "ikes-sandwiches-san-ramon", "name": "Ike's Sandwiches", "image_url": "https://s3-media1.fl.yelpcdn.com/bphoto/btAZ64z8G4dd7MdqrpZAnw/o.jpg", "is_closed": false, "url": "https://www.yelp.com/biz/ikes-sandwiches-san-ramon?adjust_creative=gJ2vrem5KxinHaV7_d8wAA&utm_campaign=yelp_api_v3&utm_medium=api_v3_business_search&utm_source=gJ2vrem5KxinHaV7_d8wAA", "review_count": 190, "categories": [{"alias": "sandwiches", "title": "Sandwiches"}, {"alias": "vegan", "title": "Vegan"}, {"alias": "gluten_free", "title": "Gluten-Free"}], "rating": 3.5, "coordinates": {"latitude": 37.77743, "longitude": -121.971507}, "transactions": ["pickup"], "price": "$$", "location": {"address1": "3104 Crow Canyon Pl", "address2": "", "address3": null, "city": "San Ramon", "zip_code": "94583", "country": "US", "state": "CA", "display_address": ["3104 Crow Canyon Pl", "San Ramon, CA 94583"]}, "phone": "+19253806771", "display_phone": "(925) 380-6771", "distance": 1740.6352456856016}, {"id": "ttXY9hsvl_dDgaNE-1rd1g", "alias": "pizza-my-heart-san-ramon", "name": "Pizza My Heart", "image_url": "https://s3-media2.fl.yelpcdn.com/bphoto/jP8FMapxQ4plbHta5CSH7A/o.jpg", "is_closed": false, "url": "https://www.yelp.com/biz/pizza-my-heart-san-ramon?adjust_creative=gJ2vrem5KxinHaV7_d8wAA&utm_campaign=yelp_api_v3&utm_medium=api_v3_business_search&utm_source=gJ2vrem5KxinHaV7_d8wAA", "review_count": 71, "categories": [{"alias": "pizza", "title": "Pizza"}], "rating": 4.0, "coordinates": {"latitude": 37.7783995372531, "longitude": -121.968774832785}, "transactions": [], "price": "$", "location": {"address1": "3141 Crow Canyon Rd", "address2": "", "address3": null, "city": "San Ramon", "zip_code": "94583", "country": "US", "state": "CA", "display_address": ["3141 Crow Canyon Rd", "San Ramon, CA 94583"]}, "phone": "+19253280525", "display_phone": "(925) 328-0525", "distance": 1745.8734525581667}, {"id": "PM1j1faAxoTfTt4pAddTFg", "alias": "new-moon-restaurant-san-ramon", "name": "New Moon Restaurant", "image_url": "https://s3-media1.fl.yelpcdn.com/bphoto/W2eJjfI7EJgPW3TS0OmXIw/o.jpg", "is_closed": false, "url": "https://www.yelp.com/biz/new-moon-restaurant-san-ramon?adjust_creative=gJ2vrem5KxinHaV7_d8wAA&utm_campaign=yelp_api_v3&utm_medium=api_v3_business_search&utm_source=gJ2vrem5KxinHaV7_d8wAA", "review_count": 117, "categories": [{"alias": "chinese", "title": "Chinese"}], "rating": 3.5, "coordinates": {"latitude": 37.72936, "longitude": -121.931546}, "transactions": [], "price": "$$", "location": {"address1": "9150 Alcosta Blvd", "address2": "Ste D", "address3": "", "city": "San Ramon", "zip_code": "94583", "country": "US", "state": "CA", "display_address": ["9150 Alcosta Blvd", "Ste D", "San Ramon, CA 94583"]}, "phone": "+19255601318", "display_phone": "(925) 560-1318", "distance": 4657.651211869797}, {"id": "uBS7Q9COCqmiZtWBFWoypg", "alias": "sakura-japanese-cuisine-san-ramon", "name": "Sakura Japanese Cuisine", "image_url": "https://s3-media1.fl.yelpcdn.com/bphoto/9H7KVALhTNK92iAbGARvHQ/o.jpg", "is_closed": false, "url": "https://www.yelp.com/biz/sakura-japanese-cuisine-san-ramon?adjust_creative=gJ2vrem5KxinHaV7_d8wAA&utm_campaign=yelp_api_v3&utm_medium=api_v3_business_search&utm_source=gJ2vrem5KxinHaV7_d8wAA", "review_count": 305, "categories": [{"alias": "japanese", "title": "Japanese"}, {"alias": "sushi", "title": "Sushi Bars"}, {"alias": "seafood", "title": "Seafood"}], "rating": 3.5, "coordinates": {"latitude": 37.778505, "longitude": -121.977383}, "transactions": [], "price": "$$", "location": {"address1": "2277 San Ramon Valley Blvd", "address2": "", "address3": "", "city": "San Ramon", "zip_code": "94583", "country": "US", "state": "CA", "display_address": ["2277 San Ramon Valley Blvd", "San Ramon, CA 94583"]}, "phone": "+19252771628", "display_phone": "(925) 277-1628", "distance": 2136.2511741031008}, {"id": "h8IQD-FW3kbFVzFgREXM3A", "alias": "the-habit-burger-grill-san-ramon", "name": "The Habit Burger Grill", "image_url": "https://s3-media1.fl.yelpcdn.com/bphoto/q_AGgH_EwevhJ5J_GAd-dQ/o.jpg", "is_closed": false, "url": "https://www.yelp.com/biz/the-habit-burger-grill-san-ramon?adjust_creative=gJ2vrem5KxinHaV7_d8wAA&utm_campaign=yelp_api_v3&utm_medium=api_v3_business_search&utm_source=gJ2vrem5KxinHaV7_d8wAA", "review_count": 303, "categories": [{"alias": "burgers", "title": "Burgers"}, {"alias": "salad", "title": "Salad"}], "rating": 3.5, "coordinates": {"latitude": 37.7786916295868, "longitude": -121.969376862452}, "transactions": [], "price": "$", "location": {"address1": "3121 Crow Canyon Pl", "address2": "Ste D", "address3": "", "city": "San Ramon", "zip_code": "94583", "country": "US", "state": "CA", "display_address": ["3121 Crow Canyon Pl", "Ste D", "San Ramon, CA 94583"]}, "phone": "+19253559672", "display_phone": "(925) 355-9672", "distance": 1794.9195270330142}, {"id": "YhM3xV0j1wGc1do14uPsxQ", "alias": "pho-monsoon-san-ramon-2", "name": "Pho Monsoon", "image_url": "https://s3-media2.fl.yelpcdn.com/bphoto/dPJPXTp0Mg7CFyP1JWMv0A/o.jpg", "is_closed": false, "url": "https://www.yelp.com/biz/pho-monsoon-san-ramon-2?adjust_creative=gJ2vrem5KxinHaV7_d8wAA&utm_campaign=yelp_api_v3&utm_medium=api_v3_business_search&utm_source=gJ2vrem5KxinHaV7_d8wAA", "review_count": 335, "categories": [{"alias": "vietnamese", "title": "Vietnamese"}, {"alias": "coffee", "title": "Coffee & Tea"}, {"alias": "sandwiches", "title": "Sandwiches"}], "rating": 3.5, "coordinates": {"latitude": 37.7635713, "longitude": -121.9498574}, "transactions": [], "price": "$$", "location": {"address1": "200 Market Pl", "address2": null, "address3": null, "city": "San Ramon", "zip_code": "94583", "country": "US", "state": "CA", "display_address": ["200 Market Pl", "San Ramon, CA 94583"]}, "phone": "+19259011800", "display_phone": "(925) 901-1800", "distance": 851.4719772300065}, {"id": "XJv456Afrp8BEFg1kqz0Rw", "alias": "pho-saigon-noodle-house-san-ramon", "name": "Pho Saigon Noodle House", "image_url": "https://s3-media1.fl.yelpcdn.com/bphoto/iGmCOUOWzXhGF4b0E-qs2A/o.jpg", "is_closed": false, "url": "https://www.yelp.com/biz/pho-saigon-noodle-house-san-ramon?adjust_creative=gJ2vrem5KxinHaV7_d8wAA&utm_campaign=yelp_api_v3&utm_medium=api_v3_business_search&utm_source=gJ2vrem5KxinHaV7_d8wAA", "review_count": 255, "categories": [{"alias": "vietnamese", "title": "Vietnamese"}, {"alias": "noodles", "title": "Noodles"}], "rating": 3.5, "coordinates": {"latitude": 37.72939, "longitude": -121.93145}, "transactions": ["pickup"], "price": "$", "location": {"address1": "9150 Alcosta Blvd", "address2": "Ste B", "address3": "", "city": "San Ramon", "zip_code": "94583", "country": "US", "state": "CA", "display_address": ["9150 Alcosta Blvd", "Ste B", "San Ramon, CA 94583"]}, "phone": "+19258296528", "display_phone": "(925) 829-6528", "distance": 4658.852881721346}, {"id": "wFnnpA2aOgYmyWw3H3QhZQ", "alias": "cactus-cafe-san-ramon-4", "name": "Cactus Cafe", "image_url": "https://s3-media3.fl.yelpcdn.com/bphoto/dv8LpWX50iQ2RQHzvOYXJQ/o.jpg", "is_closed": false, "url": "https://www.yelp.com/biz/cactus-cafe-san-ramon-4?adjust_creative=gJ2vrem5KxinHaV7_d8wAA&utm_campaign=yelp_api_v3&utm_medium=api_v3_business_search&utm_source=gJ2vrem5KxinHaV7_d8wAA", "review_count": 4, "categories": [{"alias": "tradamerican", "title": "American (Traditional)"}, {"alias": "coffee", "title": "Coffee & Tea"}, {"alias": "delis", "title": "Delis"}], "rating": 4.5, "coordinates": {"latitude": 37.77897, "longitude": -121.97364}, "transactions": [], "price": "$", "location": {"address1": "2010 Crow Canyon Pl", "address2": null, "address3": null, "city": "San Ramon", "zip_code": "94583", "country": "US", "state": "CA", "display_address": ["2010 Crow Canyon Pl", "San Ramon, CA 94583"]}, "phone": "+19259010668", "display_phone": "(925) 901-0668", "distance": 2020.4257878681983}, {"id": "n8daKVNaK3DOg333qKZV8Q", "alias": "the-view-restaurant-san-ramon", "name": "The View Restaurant", "image_url": "https://s3-media2.fl.yelpcdn.com/bphoto/EeN8t6duSDSoyO9zOd9RXg/o.jpg", "is_closed": false, "url": "https://www.yelp.com/biz/the-view-restaurant-san-ramon?adjust_creative=gJ2vrem5KxinHaV7_d8wAA&utm_campaign=yelp_api_v3&utm_medium=api_v3_business_search&utm_source=gJ2vrem5KxinHaV7_d8wAA", "review_count": 24, "categories": [{"alias": "newamerican", "title": "American (New)"}], "rating": 3.0, "coordinates": {"latitude": 37.7712402, "longitude": -121.9336616}, "transactions": [], "price": "$$", "location": {"address1": "9000 S Gale Ridge Rd", "address2": "", "address3": "The Bridges Golf Club", "city": "San Ramon", "zip_code": "94582", "country": "US", "state": "CA", "display_address": ["9000 S Gale Ridge Rd", "The Bridges Golf Club", "San Ramon, CA 94582"]}, "phone": "+19257354253", "display_phone": "(925) 735-4253", "distance": 2628.0674080840186}, {"id": "9qbrRm1i_HA1-UrAVIEuqQ", "alias": "sachi-sushi-san-ramon", "name": "Sachi Sushi", "image_url": "https://s3-media1.fl.yelpcdn.com/bphoto/kHV8e3YHZJMI8_gizCyiVQ/o.jpg", "is_closed": false, "url": "https://www.yelp.com/biz/sachi-sushi-san-ramon?adjust_creative=gJ2vrem5KxinHaV7_d8wAA&utm_campaign=yelp_api_v3&utm_medium=api_v3_business_search&utm_source=gJ2vrem5KxinHaV7_d8wAA", "review_count": 318, "categories": [{"alias": "sushi", "title": "Sushi Bars"}, {"alias": "japanese", "title": "Japanese"}, {"alias": "seafood", "title": "Seafood"}], "rating": 3.5, "coordinates": {"latitude": 37.7641708522953, "longitude": -121.951557188602}, "transactions": ["delivery", "pickup"], "price": "$$", "location": {"address1": "390 Market Pl", "address2": "", "address3": "", "city": "San Ramon", "zip_code": "94583", "country": "US", "state": "CA", "display_address": ["390 Market Pl", "San Ramon, CA 94583"]}, "phone": "+19258662248", "display_phone": "(925) 866-2248", "distance": 917.6258057760634}, {"id": "erAsvUfahzZ-y4tF6BPC_w", "alias": "hyderabad-biryani-house-san-ramon", "name": "Hyderabad Biryani House", "image_url": "https://s3-media4.fl.yelpcdn.com/bphoto/omcnb2yf2ro9WSWDTJvqxQ/o.jpg", "is_closed": false, "url": "https://www.yelp.com/biz/hyderabad-biryani-house-san-ramon?adjust_creative=gJ2vrem5KxinHaV7_d8wAA&utm_campaign=yelp_api_v3&utm_medium=api_v3_business_search&utm_source=gJ2vrem5KxinHaV7_d8wAA", "review_count": 343, "categories": [{"alias": "indpak", "title": "Indian"}], "rating": 3.5, "coordinates": {"latitude": 37.781163, "longitude": -121.979323}, "transactions": ["pickup"], "price": "$", "location": {"address1": "2217-D San Ramon Valley Blvd", "address2": "", "address3": "", "city": "San Ramon", "zip_code": "94583", "country": "US", "state": "CA", "display_address": ["2217-D San Ramon Valley Blvd", "San Ramon, CA 94583"]}, "phone": "+19258389090", "display_phone": "(925) 838-9090", "distance": 2473.5312132413933}, {"id": "5_644WeeHqjSPudJ1FvhIw", "alias": "streets-of-seoul-hayward", "name": "Streets of Seoul", "image_url": "https://s3-media4.fl.yelpcdn.com/bphoto/hJUNov6z0NmsOMCkTspzEw/o.jpg", "is_closed": false, "url": "https://www.yelp.com/biz/streets-of-seoul-hayward?adjust_creative=gJ2vrem5KxinHaV7_d8wAA&utm_campaign=yelp_api_v3&utm_medium=api_v3_business_search&utm_source=gJ2vrem5KxinHaV7_d8wAA", "review_count": 15, "categories": [{"alias": "foodtrucks", "title": "Food Trucks"}, {"alias": "korean", "title": "Korean"}], "rating": 4.5, "coordinates": {"latitude": 37.7732411481832, "longitude": -121.962019699096}, "transactions": [], "price": "$$", "location": {"address1": "2430 Whipple Rd", "address2": "", "address3": "", "city": "Hayward", "zip_code": "94544", "country": "US", "state": "CA", "display_address": ["2430 Whipple Rd", "Hayward, CA 94544"]}, "phone": "+15109154972", "display_phone": "(510) 915-4972", "distance": 1066.8078745151383}, {"id": "aH_8MYosVxGY7oV7Lzu-lA", "alias": "la-estrellita-cocina-san-ramon", "name": "La Estrellita Cocina", "image_url": "https://s3-media2.fl.yelpcdn.com/bphoto/OP5ffQm6XMB5eWyj4w5xlQ/o.jpg", "is_closed": false, "url": "https://www.yelp.com/biz/la-estrellita-cocina-san-ramon?adjust_creative=gJ2vrem5KxinHaV7_d8wAA&utm_campaign=yelp_api_v3&utm_medium=api_v3_business_search&utm_source=gJ2vrem5KxinHaV7_d8wAA", "review_count": 51, "categories": [{"alias": "mexican", "title": "Mexican"}], "rating": 3.5, "coordinates": {"latitude": 37.7728703, "longitude": -121.9737873}, "transactions": ["delivery", "pickup"], "price": "$$", "location": {"address1": "2550 San Ramon Valley Blvd", "address2": "", "address3": null, "city": "San Ramon", "zip_code": "94583", "country": "US", "state": "CA", "display_address": ["2550 San Ramon Valley Blvd", "San Ramon, CA 94583"]}, "phone": "+19253623769", "display_phone": "(925) 362-3769", "distance": 1459.3854669164107}, {"id": "Ado-rKD3qntT7qRle9XtVw", "alias": "rancho-grande-taqueria-san-ramon", "name": "Rancho Grande Taqueria", "image_url": "https://s3-media2.fl.yelpcdn.com/bphoto/KHBDyQh2PVFX_DEde819lw/o.jpg", "is_closed": false, "url": "https://www.yelp.com/biz/rancho-grande-taqueria-san-ramon?adjust_creative=gJ2vrem5KxinHaV7_d8wAA&utm_campaign=yelp_api_v3&utm_medium=api_v3_business_search&utm_source=gJ2vrem5KxinHaV7_d8wAA", "review_count": 212, "categories": [{"alias": "mexican", "title": "Mexican"}], "rating": 3.0, "coordinates": {"latitude": 37.774375, "longitude": -121.9755282}, "transactions": ["delivery", "pickup"], "price": "$", "location": {"address1": "2450 San Ramon Valley Blvd", "address2": "", "address3": "", "city": "San Ramon", "zip_code": "94583", "country": "US", "state": "CA", "display_address": ["2450 San Ramon Valley Blvd", "San Ramon, CA 94583"]}, "phone": "+19258206225", "display_phone": "(925) 820-6225", "distance": 1628.6591966642902}, {"id": "zZKccWH5W2Hp-4ilpyuKqw", "alias": "enker-food-and-pharmacy-san-ramon", "name": "Enker Food and Pharmacy", "image_url": "https://s3-media2.fl.yelpcdn.com/bphoto/vJ9oeAISqgpWtzjQWSjp_w/o.jpg", "is_closed": false, "url": "https://www.yelp.com/biz/enker-food-and-pharmacy-san-ramon?adjust_creative=gJ2vrem5KxinHaV7_d8wAA&utm_campaign=yelp_api_v3&utm_medium=api_v3_business_search&utm_source=gJ2vrem5KxinHaV7_d8wAA", "review_count": 11, "categories": [{"alias": "indpak", "title": "Indian"}, {"alias": "vegetarian", "title": "Vegetarian"}], "rating": 4.5, "coordinates": {"latitude": 37.7539230863669, "longitude": -121.939555257672}, "transactions": [], "location": {"address1": "12171 Alcosta Blvd", "address2": "", "address3": null, "city": "San Ramon", "zip_code": "94583", "country": "US", "state": "CA", "display_address": ["12171 Alcosta Blvd", "San Ramon, CA 94583"]}, "phone": "+19253647676", "display_phone": "(925) 364-7676", "distance": 2248.0455072174177}, {"id": "ytnj6errDy9oku4g8k68BA", "alias": "the-pinto-san-ramon", "name": "The Pinto", "image_url": "https://s3-media1.fl.yelpcdn.com/bphoto/sinQ44wRzsOvM2N8k2WPQg/o.jpg", "is_closed": false, "url": "https://www.yelp.com/biz/the-pinto-san-ramon?adjust_creative=gJ2vrem5KxinHaV7_d8wAA&utm_campaign=yelp_api_v3&utm_medium=api_v3_business_search&utm_source=gJ2vrem5KxinHaV7_d8wAA", "review_count": 2, "categories": [{"alias": "mexican", "title": "Mexican"}, {"alias": "burgers", "title": "Burgers"}, {"alias": "pizza", "title": "Pizza"}], "rating": 4.5, "coordinates": {"latitude": 37.7651495318266, "longitude": -121.963952556252}, "transactions": [], "location": {"address1": "2600 Camino Ramon", "address2": "Ste 100", "address3": null, "city": "San Ramon", "zip_code": "94583", "country": "US", "state": "CA", "display_address": ["2600 Camino Ramon", "Ste 100", "San Ramon, CA 94583"]}, "phone": "+19259684414", "display_phone": "(925) 968-4414", "distance": 241.0864076626646}, {"id": "cOLmfE-Xwvms4aj1IDrWeg", "alias": "mexxis-restaurant-and-catering-san-ramon-2", "name": "Mexxi's Restaurant & Catering", "image_url": "https://s3-media4.fl.yelpcdn.com/bphoto/BNbccT99kLizWfFc2B2MHg/o.jpg", "is_closed": false, "url": "https://www.yelp.com/biz/mexxis-restaurant-and-catering-san-ramon-2?adjust_creative=gJ2vrem5KxinHaV7_d8wAA&utm_campaign=yelp_api_v3&utm_medium=api_v3_business_search&utm_source=gJ2vrem5KxinHaV7_d8wAA", "review_count": 377, "categories": [{"alias": "mexican", "title": "Mexican"}], "rating": 3.5, "coordinates": {"latitude": 37.7289092424613, "longitude": -121.930162479938}, "transactions": ["delivery"], "price": "$", "location": {"address1": "9110 Alcosta Blvd", "address2": null, "address3": "", "city": "San Ramon", "zip_code": "94583", "country": "US", "state": "CA", "display_address": ["9110 Alcosta Blvd", "San Ramon, CA 94583"]}, "phone": "+19258031111", "display_phone": "(925) 803-1111", "distance": 4769.085409917792}, {"id": "r4Ipgd-MJ0isMbhpznSYEw", "alias": "sunrise-bagels-cafe-san-ramon", "name": "Sunrise Bagels Cafe", "image_url": "https://s3-media4.fl.yelpcdn.com/bphoto/X5Q5RtuUaRPJ5P_uxA70ew/o.jpg", "is_closed": false, "url": "https://www.yelp.com/biz/sunrise-bagels-cafe-san-ramon?adjust_creative=gJ2vrem5KxinHaV7_d8wAA&utm_campaign=yelp_api_v3&utm_medium=api_v3_business_search&utm_source=gJ2vrem5KxinHaV7_d8wAA", "review_count": 185, "categories": [{"alias": "bagels", "title": "Bagels"}, {"alias": "breakfast_brunch", "title": "Breakfast & Brunch"}, {"alias": "bubbletea", "title": "Bubble Tea"}], "rating": 4.0, "coordinates": {"latitude": 37.7799, "longitude": -121.9723}, "transactions": ["delivery", "pickup"], "price": "$", "location": {"address1": "2005 Crow Canyon Pl", "address2": "Ste 132", "address3": "", "city": "San Ramon", "zip_code": "94583", "country": "US", "state": "CA", "display_address": ["2005 Crow Canyon Pl", "Ste 132", "San Ramon, CA 94583"]}, "phone": "+19252421188", "display_phone": "(925) 242-1188", "distance": 2011.494964286447}, {"id": "noFwwPiykDR9bqKgGp2Erw", "alias": "gorgeous-gorilla-san-ramon-2", "name": "Gorgeous Gorilla", "image_url": "https://s3-media3.fl.yelpcdn.com/bphoto/jZw4hWYb7uUBF4_r_3nlVw/o.jpg", "is_closed": false, "url": "https://www.yelp.com/biz/gorgeous-gorilla-san-ramon-2?adjust_creative=gJ2vrem5KxinHaV7_d8wAA&utm_campaign=yelp_api_v3&utm_medium=api_v3_business_search&utm_source=gJ2vrem5KxinHaV7_d8wAA", "review_count": 2, "categories": [{"alias": "foodstands", "title": "Food Stands"}], "rating": 5.0, "coordinates": {"latitude": 37.77268, "longitude": -121.96365}, "transactions": [], "location": {"address1": "641 Camino Ramon", "address2": "", "address3": "Bishop Ranch 3 Parking Lot", "city": "San Ramon", "zip_code": "94583", "country": "US", "state": "CA", "display_address": ["641 Camino Ramon", "Bishop Ranch 3 Parking Lot", "San Ramon, CA 94583"]}, "phone": "+15107360727", "display_phone": "(510) 736-0727", "distance": 1037.2935626361398}, {"id": "gq9MBuOAa7jpiJ6kw0kNgg", "alias": "best-donuts-san-ramon-2", "name": "Best Donuts", "image_url": "https://s3-media1.fl.yelpcdn.com/bphoto/MNlMUjvegVhMzCygvRoXBw/o.jpg", "is_closed": false, "url": "https://www.yelp.com/biz/best-donuts-san-ramon-2?adjust_creative=gJ2vrem5KxinHaV7_d8wAA&utm_campaign=yelp_api_v3&utm_medium=api_v3_business_search&utm_source=gJ2vrem5KxinHaV7_d8wAA", "review_count": 91, "categories": [{"alias": "donuts", "title": "Donuts"}, {"alias": "sandwiches", "title": "Sandwiches"}, {"alias": "breakfast_brunch", "title": "Breakfast & Brunch"}], "rating": 4.5, "coordinates": {"latitude": 37.7811172957128, "longitude": -121.979463847228}, "transactions": ["delivery", "pickup"], "price": "$", "location": {"address1": "2217 San Ramon Valley Blvd", "address2": "Ste K", "address3": "", "city": "San Ramon", "zip_code": "94583", "country": "US", "state": "CA", "display_address": ["2217 San Ramon Valley Blvd", "Ste K", "San Ramon, CA 94583"]}, "phone": "+19258388388", "display_phone": "(925) 838-8388", "distance": 2477.1945954969583}, {"id": "J6jK5nj-kwPDVnZYpkXmAw", "alias": "cactus-cafe-6-san-ramon", "name": "Cactus Cafe 6", "image_url": "https://s3-media1.fl.yelpcdn.com/bphoto/p0g0QY2h1gWoClBSmBO8nA/o.jpg", "is_closed": false, "url": "https://www.yelp.com/biz/cactus-cafe-6-san-ramon?adjust_creative=gJ2vrem5KxinHaV7_d8wAA&utm_campaign=yelp_api_v3&utm_medium=api_v3_business_search&utm_source=gJ2vrem5KxinHaV7_d8wAA", "review_count": 8, "categories": [{"alias": "cafes", "title": "Cafes"}, {"alias": "mexican", "title": "Mexican"}], "rating": 4.5, "coordinates": {"latitude": 37.7721183, "longitude": -121.9634762}, "transactions": [], "price": "$", "location": {"address1": "2420 Camino Ramon", "address2": "Ste 120", "address3": "", "city": "San Ramon", "zip_code": "94583", "country": "US", "state": "CA", "display_address": ["2420 Camino Ramon", "Ste 120", "San Ramon, CA 94583"]}, "phone": "+19258660200", "display_phone": "(925) 866-0200", "distance": 948.017901445426}, {"id": "Xyyt5ePRd0IVO7LGgqFbdQ", "alias": "pavlos-pizza-and-pasta-san-ramon", "name": "Pavlo's Pizza & Pasta", "image_url": "https://s3-media3.fl.yelpcdn.com/bphoto/wiBn59ICVt2UjjniKx0kDA/o.jpg", "is_closed": false, "url": "https://www.yelp.com/biz/pavlos-pizza-and-pasta-san-ramon?adjust_creative=gJ2vrem5KxinHaV7_d8wAA&utm_campaign=yelp_api_v3&utm_medium=api_v3_business_search&utm_source=gJ2vrem5KxinHaV7_d8wAA", "review_count": 148, "categories": [{"alias": "pizza", "title": "Pizza"}, {"alias": "italian", "title": "Italian"}], "rating": 3.5, "coordinates": {"latitude": 37.7750162, "longitude": -121.9799879}, "transactions": ["delivery", "pickup"], "price": "$$", "location": {"address1": "2408 Twin Creeks Dr", "address2": "", "address3": "", "city": "San Ramon", "zip_code": "94583", "country": "US", "state": "CA", "display_address": ["2408 Twin Creeks Dr", "San Ramon, CA 94583"]}, "phone": "+19258382030", "display_phone": "(925) 838-2030", "distance": 1967.402222188831}, {"id": "rlpjUZONAkbg-oCpVD7sFQ", "alias": "chipotle-mexican-grill-san-ramon-2", "name": "Chipotle Mexican Grill", "image_url": "https://s3-media1.fl.yelpcdn.com/bphoto/2liG5fdfBXPWH-Pxe8Jyzw/o.jpg", "is_closed": false, "url": "https://www.yelp.com/biz/chipotle-mexican-grill-san-ramon-2?adjust_creative=gJ2vrem5KxinHaV7_d8wAA&utm_campaign=yelp_api_v3&utm_medium=api_v3_business_search&utm_source=gJ2vrem5KxinHaV7_d8wAA", "review_count": 395, "categories": [{"alias": "mexican", "title": "Mexican"}, {"alias": "hotdogs", "title": "Fast Food"}], "rating": 2.5, "coordinates": {"latitude": 37.7751517050468, "longitude": -121.978017963748}, "transactions": [], "price": "$", "location": {"address1": "2421 San Ramon Valley Blvd", "address2": "", "address3": "", "city": "San Ramon", "zip_code": "94583", "country": "US", "state": "CA", "display_address": ["2421 San Ramon Valley Blvd", "San Ramon, CA 94583"]}, "phone": "+19258204110", "display_phone": "(925) 820-4110", "distance": 1903.9244080827582}, {"id": "sT_DpbsN4TbBPVrVjf2Xzw", "alias": "rolls-deli-cafe-and-catering-san-ramon-2", "name": "Rolls Deli Cafe & Catering", "image_url": "https://s3-media1.fl.yelpcdn.com/bphoto/SdODNj_39uBbPSguhjF1cA/o.jpg", "is_closed": false, "url": "https://www.yelp.com/biz/rolls-deli-cafe-and-catering-san-ramon-2?adjust_creative=gJ2vrem5KxinHaV7_d8wAA&utm_campaign=yelp_api_v3&utm_medium=api_v3_business_search&utm_source=gJ2vrem5KxinHaV7_d8wAA", "review_count": 135, "categories": [{"alias": "cafes", "title": "Cafes"}], "rating": 4.0, "coordinates": {"latitude": 37.776078, "longitude": -121.971845}, "transactions": [], "price": "$", "location": {"address1": "3211 Crow Canyon Pl", "address2": null, "address3": "", "city": "San Ramon", "zip_code": "94583", "country": "US", "state": "CA", "display_address": ["3211 Crow Canyon Pl", "San Ramon, CA 94583"]}, "phone": "+19258668440", "display_phone": "(925) 866-8440", "distance": 1631.9356991614466}, {"id": "Go9y9CKpJETu4mEp_zjMUQ", "alias": "mr-pickles-sandwich-shop-san-ramon-2", "name": "Mr. Pickle's Sandwich Shop", "image_url": "https://s3-media3.fl.yelpcdn.com/bphoto/5Pe-u997BJYgqMwF8MHMWQ/o.jpg", "is_closed": false, "url": "https://www.yelp.com/biz/mr-pickles-sandwich-shop-san-ramon-2?adjust_creative=gJ2vrem5KxinHaV7_d8wAA&utm_campaign=yelp_api_v3&utm_medium=api_v3_business_search&utm_source=gJ2vrem5KxinHaV7_d8wAA", "review_count": 192, "categories": [{"alias": "sandwiches", "title": "Sandwiches"}, {"alias": "salad", "title": "Salad"}, {"alias": "soup", "title": "Soup"}], "rating": 3.5, "coordinates": {"latitude": 37.77846, "longitude": -121.96874}, "transactions": [], "price": "$", "location": {"address1": "3141 Crow Canyon Pl", "address2": "Ste F2", "address3": "", "city": "San Ramon", "zip_code": "94583", "country": "US", "state": "CA", "display_address": ["3141 Crow Canyon Pl", "Ste F2", "San Ramon, CA 94583"]}, "phone": "+19252779568", "display_phone": "(925) 277-9568", "distance": 1748.89981392553}, {"id": "toz0VhsZK0MKVDCbT-vRMQ", "alias": "bishop-farms-san-ramon", "name": "Bishop Farms", "image_url": "https://s3-media3.fl.yelpcdn.com/bphoto/ynSiZJS87V4iemz_XwF-XA/o.jpg", "is_closed": false, "url": "https://www.yelp.com/biz/bishop-farms-san-ramon?adjust_creative=gJ2vrem5KxinHaV7_d8wAA&utm_campaign=yelp_api_v3&utm_medium=api_v3_business_search&utm_source=gJ2vrem5KxinHaV7_d8wAA", "review_count": 12, "categories": [{"alias": "newamerican", "title": "American (New)"}], "rating": 3.0, "coordinates": {"latitude": 37.764862830635, "longitude": -121.964810039454}, "transactions": [], "price": "$", "location": {"address1": "2600 Camino Ramon", "address2": "", "address3": null, "city": "San Ramon", "zip_code": "94683", "country": "US", "state": "CA", "display_address": ["2600 Camino Ramon", "San Ramon, CA 94683"]}, "phone": "", "display_phone": "", "distance": 283.50280249582516}, {"id": "Nxfbke4TOWqOOlARac2Vag", "alias": "the-cheese-steak-shop-san-ramon", "name": "The Cheese Steak Shop", "image_url": "https://s3-media2.fl.yelpcdn.com/bphoto/xN1Heqas7M1kP_gTPHCh4g/o.jpg", "is_closed": false, "url": "https://www.yelp.com/biz/the-cheese-steak-shop-san-ramon?adjust_creative=gJ2vrem5KxinHaV7_d8wAA&utm_campaign=yelp_api_v3&utm_medium=api_v3_business_search&utm_source=gJ2vrem5KxinHaV7_d8wAA", "review_count": 181, "categories": [{"alias": "sandwiches", "title": "Sandwiches"}, {"alias": "cheesesteaks", "title": "Cheesesteaks"}], "rating": 3.0, "coordinates": {"latitude": 37.7775268554688, "longitude": -121.972557067871}, "transactions": ["delivery", "pickup"], "price": "$", "location": {"address1": "3110 Crow Canyon Pl", "address2": "", "address3": "Crow Canyon Crest Shopping Center", "city": "San Ramon", "zip_code": "94583", "country": "US", "state": "CA", "display_address": ["3110 Crow Canyon Pl", "Crow Canyon Crest Shopping Center", "San Ramon, CA 94583"]}, "phone": "+19252421112", "display_phone": "(925) 242-1112", "distance": 1823.3644037959966}, {"id": "s5cVAyAbq4fQzNFmdsEFHw", "alias": "mountain-mikes-pizza-san-ramon", "name": "Mountain Mike's Pizza", "image_url": "https://s3-media4.fl.yelpcdn.com/bphoto/UVo98bEEGOEMRCIbo1yMGg/o.jpg", "is_closed": false, "url": "https://www.yelp.com/biz/mountain-mikes-pizza-san-ramon?adjust_creative=gJ2vrem5KxinHaV7_d8wAA&utm_campaign=yelp_api_v3&utm_medium=api_v3_business_search&utm_source=gJ2vrem5KxinHaV7_d8wAA", "review_count": 61, "categories": [{"alias": "pizza", "title": "Pizza"}], "rating": 3.5, "coordinates": {"latitude": 37.7817404, "longitude": -121.9792933}, "transactions": ["delivery", "pickup"], "price": "$$", "location": {"address1": "2205 San Ramon Valley Rd", "address2": "", "address3": null, "city": "San Ramon", "zip_code": "94583", "country": "US", "state": "CA", "display_address": ["2205 San Ramon Valley Rd", "San Ramon, CA 94583"]}, "phone": "+19253149600", "display_phone": "(925) 314-9600", "distance": 2522.816418863808}, {"id": "LY5yBAtIhLr60EC4KNCDOA", "alias": "panera-bread-san-ramon", "name": "Panera Bread", "image_url": "https://s3-media2.fl.yelpcdn.com/bphoto/fHFSNaAyCOSo0quKRD3kRg/o.jpg", "is_closed": false, "url": "https://www.yelp.com/biz/panera-bread-san-ramon?adjust_creative=gJ2vrem5KxinHaV7_d8wAA&utm_campaign=yelp_api_v3&utm_medium=api_v3_business_search&utm_source=gJ2vrem5KxinHaV7_d8wAA", "review_count": 224, "categories": [{"alias": "sandwiches", "title": "Sandwiches"}, {"alias": "salad", "title": "Salad"}, {"alias": "soup", "title": "Soup"}], "rating": 2.5, "coordinates": {"latitude": 37.778786, "longitude": -121.969679}, "transactions": [], "price": "$$", "location": {"address1": "3121 Crow Canyon Pl", "address2": "", "address3": "Crow Canyon Commons", "city": "San Ramon", "zip_code": "94583", "country": "US", "state": "CA", "display_address": ["3121 Crow Canyon Pl", "Crow Canyon Commons", "San Ramon, CA 94583"]}, "phone": "+19252752140", "display_phone": "(925) 275-2140", "distance": 1810.7000575488282}, {"id": "xomxVUXe8Sy5R2nt7qBxxg", "alias": "fired-mobile-pizza-oven-stockton", "name": "FIRED Mobile Pizza Oven", "image_url": "https://s3-media4.fl.yelpcdn.com/bphoto/JV4MGBFFrJGZQbmtdoOLFQ/o.jpg", "is_closed": false, "url": "https://www.yelp.com/biz/fired-mobile-pizza-oven-stockton?adjust_creative=gJ2vrem5KxinHaV7_d8wAA&utm_campaign=yelp_api_v3&utm_medium=api_v3_business_search&utm_source=gJ2vrem5KxinHaV7_d8wAA", "review_count": 8, "categories": [{"alias": "pizza", "title": "Pizza"}, {"alias": "catering", "title": "Caterers"}, {"alias": "foodtrucks", "title": "Food Trucks"}], "rating": 5.0, "coordinates": {"latitude": 38.0521138, "longitude": -121.3484448}, "transactions": [], "location": {"address1": null, "address2": null, "address3": "", "city": "Stockton", "zip_code": "95209", "country": "US", "state": "CA", "display_address": ["Stockton, CA 95209"]}, "phone": "+12092424105", "display_phone": "(209) 242-4105", "distance": 62658.98795439424}, {"id": "Q21fKwXvaXm3J79XYmUThQ", "alias": "genji-san-ramon", "name": "Genji", "image_url": "https://s3-media4.fl.yelpcdn.com/bphoto/35SAN0cCY9t_AOHdfQy7ng/o.jpg", "is_closed": false, "url": "https://www.yelp.com/biz/genji-san-ramon?adjust_creative=gJ2vrem5KxinHaV7_d8wAA&utm_campaign=yelp_api_v3&utm_medium=api_v3_business_search&utm_source=gJ2vrem5KxinHaV7_d8wAA", "review_count": 2, "categories": [{"alias": "sushi", "title": "Sushi Bars"}, {"alias": "japanese", "title": "Japanese"}], "rating": 3.5, "coordinates": {"latitude": 37.7619019, "longitude": -121.9617691}, "transactions": [], "location": {"address1": "100 Sunset Dr", "address2": "", "address3": "Whole Foods Market", "city": "San Ramon", "zip_code": "94583", "country": "US", "state": "CA", "display_address": ["100 Sunset Dr", "Whole Foods Market", "San Ramon, CA 94583"]}, "phone": "+19253559000", "display_phone": "(925) 355-9000", "distance": 218.69504719245384}, {"id": "40DtuR_HxNuBVf_uSoy66Q", "alias": "keeku-da-dhaba-fremont-2", "name": "Keeku da Dhaba", "image_url": "https://s3-media2.fl.yelpcdn.com/bphoto/8x2WS8oGXINIKI6pNnQYBw/o.jpg", "is_closed": false, "url": "https://www.yelp.com/biz/keeku-da-dhaba-fremont-2?adjust_creative=gJ2vrem5KxinHaV7_d8wAA&utm_campaign=yelp_api_v3&utm_medium=api_v3_business_search&utm_source=gJ2vrem5KxinHaV7_d8wAA", "review_count": 115, "categories": [{"alias": "indpak", "title": "Indian"}, {"alias": "foodtrucks", "title": "Food Trucks"}, {"alias": "kebab", "title": "Kebab"}], "rating": 4.5, "coordinates": {"latitude": 37.551938, "longitude": -121.985058}, "transactions": [], "location": {"address1": "3400 Mowry Ave", "address2": "", "address3": "Bharat Bazaar Parking Space", "city": "Fremont", "zip_code": "94538", "country": "US", "state": "CA", "display_address": ["3400 Mowry Ave", "Bharat Bazaar Parking Space", "Fremont, CA 94538"]}, "phone": "+15107893437", "display_phone": "(510) 789-3437", "distance": 23620.714953462553}, {"id": "ssiXZdW_fHsJ4V7PQb-KzQ", "alias": "wendys-san-ramon", "name": "Wendy's", "image_url": "https://s3-media2.fl.yelpcdn.com/bphoto/ZhqFQ-aShKWi0Z8uTuLXsw/o.jpg", "is_closed": false, "url": "https://www.yelp.com/biz/wendys-san-ramon?adjust_creative=gJ2vrem5KxinHaV7_d8wAA&utm_campaign=yelp_api_v3&utm_medium=api_v3_business_search&utm_source=gJ2vrem5KxinHaV7_d8wAA", "review_count": 50, "categories": [{"alias": "hotdogs", "title": "Fast Food"}, {"alias": "burgers", "title": "Burgers"}], "rating": 3.0, "coordinates": {"latitude": 37.78125, "longitude": -121.97805}, "transactions": ["delivery", "pickup"], "price": "$", "location": {"address1": "2222 San Ramon Valley Blvd", "address2": "", "address3": null, "city": "San Ramon", "zip_code": "94583", "country": "US", "state": "CA", "display_address": ["2222 San Ramon Valley Blvd", "San Ramon, CA 94583"]}, "phone": "+19253806592", "display_phone": "(925) 380-6592", "distance": 2425.1870526579423}, {"id": "Xrh60IV1AvrE_zVjhKA3BA", "alias": "european-deli-san-ramon", "name": "European Deli", "image_url": "https://s3-media4.fl.yelpcdn.com/bphoto/fDk1pjACha099DwML_6FfA/o.jpg", "is_closed": false, "url": "https://www.yelp.com/biz/european-deli-san-ramon?adjust_creative=gJ2vrem5KxinHaV7_d8wAA&utm_campaign=yelp_api_v3&utm_medium=api_v3_business_search&utm_source=gJ2vrem5KxinHaV7_d8wAA", "review_count": 29, "categories": [{"alias": "delis", "title": "Delis"}], "rating": 3.0, "coordinates": {"latitude": 37.7817998, "longitude": -121.9790511}, "transactions": [], "price": "$$", "location": {"address1": "2211 San Ramon Valley Blvd", "address2": "Ste F", "address3": null, "city": "San Ramon", "zip_code": "94583", "country": "US", "state": "CA", "display_address": ["2211 San Ramon Valley Blvd", "Ste F", "San Ramon, CA 94583"]}, "phone": "+19258202053", "display_phone": "(925) 820-2053", "distance": 2541.1631751116715}, {"id": "bhTHxoz77nDyj5UciboTgA", "alias": "jimmy-johns-san-ramon-2", "name": "Jimmy John's", "image_url": "https://s3-media1.fl.yelpcdn.com/bphoto/CVu0y9INo3bxU7Eiilhe1w/o.jpg", "is_closed": false, "url": "https://www.yelp.com/biz/jimmy-johns-san-ramon-2?adjust_creative=gJ2vrem5KxinHaV7_d8wAA&utm_campaign=yelp_api_v3&utm_medium=api_v3_business_search&utm_source=gJ2vrem5KxinHaV7_d8wAA", "review_count": 104, "categories": [{"alias": "sandwiches", "title": "Sandwiches"}, {"alias": "hotdogs", "title": "Fast Food"}, {"alias": "delis", "title": "Delis"}], "rating": 3.5, "coordinates": {"latitude": 37.763014, "longitude": -121.952296}, "transactions": ["pickup", "delivery"], "price": "$", "location": {"address1": "159 Market Pl", "address2": "", "address3": "The Marketplace Shopping Ctr", "city": "San Ramon", "zip_code": "94583", "country": "US", "state": "CA", "display_address": ["159 Market Pl", "The Marketplace Shopping Ctr", "San Ramon, CA 94583"]}, "phone": "+19252771203", "display_phone": "(925) 277-1203", "distance": 856.1337575356464}, {"id": "HHCB8JSxN5RDTUG737lhJQ", "alias": "nations-giant-hamburgers-san-ramon", "name": "Nation's Giant Hamburgers", "image_url": "https://s3-media1.fl.yelpcdn.com/bphoto/tDpTf4o7b7UDbcYlFufcjg/o.jpg", "is_closed": false, "url": "https://www.yelp.com/biz/nations-giant-hamburgers-san-ramon?adjust_creative=gJ2vrem5KxinHaV7_d8wAA&utm_campaign=yelp_api_v3&utm_medium=api_v3_business_search&utm_source=gJ2vrem5KxinHaV7_d8wAA", "review_count": 219, "categories": [{"alias": "hotdog", "title": "Hot Dogs"}, {"alias": "burgers", "title": "Burgers"}, {"alias": "breakfast_brunch", "title": "Breakfast & Brunch"}], "rating": 3.0, "coordinates": {"latitude": 37.774539, "longitude": -121.9757813}, "transactions": [], "price": "$", "location": {"address1": "2426 San Ramon Valley Blvd", "address2": "", "address3": "", "city": "San Ramon", "zip_code": "94583", "country": "US", "state": "CA", "display_address": ["2426 San Ramon Valley Blvd", "San Ramon, CA 94583"]}, "phone": "+19258318882", "display_phone": "(925) 831-8882", "distance": 1659.8620534628787}, {"id": "UkM0w55LgpdIVwBrYxznlw", "alias": "bagel-street-cafe-san-ramon", "name": "Bagel Street Cafe", "image_url": "https://s3-media1.fl.yelpcdn.com/bphoto/hjbvCcdrcrnwaePVgsGnig/o.jpg", "is_closed": false, "url": "https://www.yelp.com/biz/bagel-street-cafe-san-ramon?adjust_creative=gJ2vrem5KxinHaV7_d8wAA&utm_campaign=yelp_api_v3&utm_medium=api_v3_business_search&utm_source=gJ2vrem5KxinHaV7_d8wAA", "review_count": 128, "categories": [{"alias": "bagels", "title": "Bagels"}, {"alias": "coffee", "title": "Coffee & Tea"}, {"alias": "breakfast_brunch", "title": "Breakfast & Brunch"}], "rating": 3.0, "coordinates": {"latitude": 37.762526469838, "longitude": -121.96274682213}, "transactions": [], "price": "$", "location": {"address1": "142 Sunset Dr", "address2": "", "address3": "", "city": "San Ramon", "zip_code": "94583", "country": "US", "state": "CA", "display_address": ["142 Sunset Dr", "San Ramon, CA 94583"]}, "phone": "+19259739888", "display_phone": "(925) 973-9888", "distance": 141.8843672498649}, {"id": "bfM8VDWv3GyXorDuaqaV9g", "alias": "round-table-pizza-san-ramon-2", "name": "Round Table Pizza", "image_url": "https://s3-media2.fl.yelpcdn.com/bphoto/kf_oSMi5UyO03r-zqeS2hg/o.jpg", "is_closed": false, "url": "https://www.yelp.com/biz/round-table-pizza-san-ramon-2?adjust_creative=gJ2vrem5KxinHaV7_d8wAA&utm_campaign=yelp_api_v3&utm_medium=api_v3_business_search&utm_source=gJ2vrem5KxinHaV7_d8wAA", "review_count": 106, "categories": [{"alias": "pizza", "title": "Pizza"}, {"alias": "buffets", "title": "Buffets"}], "rating": 2.5, "coordinates": {"latitude": 37.764039686186, "longitude": -121.951197204754}, "transactions": [], "price": "$$", "location": {"address1": "450 Market Place", "address2": "", "address3": "", "city": "San Ramon", "zip_code": "94583", "country": "US", "state": "CA", "display_address": ["450 Market Place", "San Ramon, CA 94583"]}, "phone": "+19258671606", "display_phone": "(925) 867-1606", "distance": 948.4260126491082}, {"id": "nJFBot3cqcbqkeUo1wUqJQ", "alias": "eriks-delicaf\u00e9-san-ramon-2", "name": "Erik's DeliCaf\u00e9", "image_url": "https://s3-media4.fl.yelpcdn.com/bphoto/PlRC7PH34JoPQ92YBHQBOQ/o.jpg", "is_closed": false, "url": "https://www.yelp.com/biz/eriks-delicaf%C3%A9-san-ramon-2?adjust_creative=gJ2vrem5KxinHaV7_d8wAA&utm_campaign=yelp_api_v3&utm_medium=api_v3_business_search&utm_source=gJ2vrem5KxinHaV7_d8wAA", "review_count": 114, "categories": [{"alias": "delis", "title": "Delis"}, {"alias": "sandwiches", "title": "Sandwiches"}, {"alias": "soup", "title": "Soup"}], "rating": 3.5, "coordinates": {"latitude": 37.7713836, "longitude": -121.9747278}, "transactions": ["pickup", "delivery"], "price": "$", "location": {"address1": "2551 San Ramon Valley Blvd", "address2": "", "address3": "", "city": "San Ramon", "zip_code": "94583", "country": "US", "state": "CA", "display_address": ["2551 San Ramon Valley Blvd", "San Ramon, CA 94583"]}, "phone": "+19257430101", "display_phone": "(925) 743-0101", "distance": 1413.0045192895172}, {"id": "DC42MrpWtqEeWRmMsn6Z8w", "alias": "the-everest-momo-fremont-2", "name": "The Everest Momo", "image_url": "https://s3-media2.fl.yelpcdn.com/bphoto/T2f7tUQ1c104otx9oSdqYw/o.jpg", "is_closed": false, "url": "https://www.yelp.com/biz/the-everest-momo-fremont-2?adjust_creative=gJ2vrem5KxinHaV7_d8wAA&utm_campaign=yelp_api_v3&utm_medium=api_v3_business_search&utm_source=gJ2vrem5KxinHaV7_d8wAA", "review_count": 23, "categories": [{"alias": "foodtrucks", "title": "Food Trucks"}, {"alias": "indpak", "title": "Indian"}, {"alias": "himalayan", "title": "Himalayan/Nepalese"}], "rating": 4.5, "coordinates": {"latitude": 37.54643, "longitude": -121.98512}, "transactions": [], "price": "$", "location": {"address1": "39233 Fremont Blvd", "address2": null, "address3": null, "city": "Fremont", "zip_code": "94538", "country": "US", "state": "CA", "display_address": ["39233 Fremont Blvd", "Fremont, CA 94538"]}, "phone": "+14088406369", "display_phone": "(408) 840-6369", "distance": 24228.87565045209}, {"id": "RJFppX1llQsNrCeqv0yKhw", "alias": "panda-express-san-ramon", "name": "Panda Express", "image_url": "https://s3-media2.fl.yelpcdn.com/bphoto/DuFlTs6d82JLUFC32PjtLw/o.jpg", "is_closed": false, "url": "https://www.yelp.com/biz/panda-express-san-ramon?adjust_creative=gJ2vrem5KxinHaV7_d8wAA&utm_campaign=yelp_api_v3&utm_medium=api_v3_business_search&utm_source=gJ2vrem5KxinHaV7_d8wAA", "review_count": 88, "categories": [{"alias": "chinese", "title": "Chinese"}, {"alias": "hotdogs", "title": "Fast Food"}], "rating": 2.5, "coordinates": {"latitude": 37.7776570950386, "longitude": -121.968423042483}, "transactions": [], "price": "$", "location": {"address1": "3141 Crow Canyon Pl", "address2": "", "address3": "", "city": "San Ramon", "zip_code": "94583", "country": "US", "state": "CA", "display_address": ["3141 Crow Canyon Pl", "San Ramon, CA 94583"]}, "phone": "+19259010471", "display_phone": "(925) 901-0471", "distance": 1657.721808972081}, {"id": "cLVpXKgamOCBX0hZ49fAGQ", "alias": "taco-bell-san-ramon", "name": "Taco Bell", "image_url": "https://s3-media2.fl.yelpcdn.com/bphoto/j44Kh0ZzT9Hme8Sg5r4sBg/o.jpg", "is_closed": false, "url": "https://www.yelp.com/biz/taco-bell-san-ramon?adjust_creative=gJ2vrem5KxinHaV7_d8wAA&utm_campaign=yelp_api_v3&utm_medium=api_v3_business_search&utm_source=gJ2vrem5KxinHaV7_d8wAA", "review_count": 148, "categories": [{"alias": "hotdogs", "title": "Fast Food"}, {"alias": "tacos", "title": "Tacos"}], "rating": 2.0, "coordinates": {"latitude": 37.775048, "longitude": -121.979283}, "transactions": ["delivery"], "price": "$", "location": {"address1": "2415 San Ramon Valley Blvd", "address2": "", "address3": "", "city": "San Ramon", "zip_code": "94583", "country": "US", "state": "CA", "display_address": ["2415 San Ramon Valley Blvd", "San Ramon, CA 94583"]}, "phone": "+19254060183", "display_phone": "(925) 406-0183", "distance": 1980.2826910876565}, {"id": "XCC2GEmWwwsb6LoeZLaqXA", "alias": "momolicious-san-francisco-2", "name": "MOMOlicious", "image_url": "https://s3-media1.fl.yelpcdn.com/bphoto/3yNgEihH74gOY8BSlXWZtg/o.jpg", "is_closed": false, "url": "https://www.yelp.com/biz/momolicious-san-francisco-2?adjust_creative=gJ2vrem5KxinHaV7_d8wAA&utm_campaign=yelp_api_v3&utm_medium=api_v3_business_search&utm_source=gJ2vrem5KxinHaV7_d8wAA", "review_count": 100, "categories": [{"alias": "foodtrucks", "title": "Food Trucks"}, {"alias": "himalayan", "title": "Himalayan/Nepalese"}, {"alias": "noodles", "title": "Noodles"}], "rating": 4.5, "coordinates": {"latitude": 37.7945413, "longitude": -122.3949711}, "transactions": [], "price": "$$", "location": {"address1": "10 Market St", "address2": null, "address3": "", "city": "San Francisco", "zip_code": "94105", "country": "US", "state": "CA", "display_address": ["10 Market St", "San Francisco, CA 94105"]}, "phone": "+15102876606", "display_phone": "(510) 287-6606", "distance": 38140.222638472995}, {"id": "uDiET4svV2YANPkSPDB9wQ", "alias": "o-my-cr\u00eapes-dublin-2", "name": "O My Cr\u00eapes!", "image_url": "https://s3-media2.fl.yelpcdn.com/bphoto/fhO5f-An4GYyPjPv57A66Q/o.jpg", "is_closed": false, "url": "https://www.yelp.com/biz/o-my-cr%C3%AApes-dublin-2?adjust_creative=gJ2vrem5KxinHaV7_d8wAA&utm_campaign=yelp_api_v3&utm_medium=api_v3_business_search&utm_source=gJ2vrem5KxinHaV7_d8wAA", "review_count": 52, "categories": [{"alias": "foodtrucks", "title": "Food Trucks"}, {"alias": "creperies", "title": "Creperies"}, {"alias": "catering", "title": "Caterers"}], "rating": 5.0, "coordinates": {"latitude": 37.71604, "longitude": -121.91311}, "transactions": [], "price": "$$", "location": {"address1": "", "address2": null, "address3": null, "city": "Dublin", "zip_code": "94568", "country": "US", "state": "CA", "display_address": ["Dublin, CA 94568"]}, "phone": "+19259848338", "display_phone": "(925) 984-8338", "distance": 6995.067639849342}, {"id": "CUwBAy6lrFi4x6Neu9eRVw", "alias": "mini-street-burger-alameda-3", "name": "Mini Street Burger", "image_url": "https://s3-media2.fl.yelpcdn.com/bphoto/Kh-OQKBIclWY1dCeIuu57w/o.jpg", "is_closed": false, "url": "https://www.yelp.com/biz/mini-street-burger-alameda-3?adjust_creative=gJ2vrem5KxinHaV7_d8wAA&utm_campaign=yelp_api_v3&utm_medium=api_v3_business_search&utm_source=gJ2vrem5KxinHaV7_d8wAA", "review_count": 28, "categories": [{"alias": "foodtrucks", "title": "Food Trucks"}, {"alias": "burgers", "title": "Burgers"}], "rating": 4.0, "coordinates": {"latitude": 37.82628, "longitude": -122.25101}, "transactions": [], "location": {"address1": null, "address2": null, "address3": null, "city": "Alameda", "zip_code": "94611", "country": "US", "state": "CA", "display_address": ["Alameda, CA 94611"]}, "phone": "+15108278982", "display_phone": "(510) 827-8982", "distance": 22560.12199998584}, {"id": "Ju5aw2MmiGbnUGMYXwc4WA", "alias": "cactus-cafe-san-ramon-2", "name": "Cactus Cafe", "image_url": "https://s3-media3.fl.yelpcdn.com/bphoto/B2yua3uw7XVSXteqQNF3aQ/o.jpg", "is_closed": false, "url": "https://www.yelp.com/biz/cactus-cafe-san-ramon-2?adjust_creative=gJ2vrem5KxinHaV7_d8wAA&utm_campaign=yelp_api_v3&utm_medium=api_v3_business_search&utm_source=gJ2vrem5KxinHaV7_d8wAA", "review_count": 21, "categories": [{"alias": "cafes", "title": "Cafes"}], "rating": 2.0, "coordinates": {"latitude": 37.7670974731445, "longitude": -121.958702087402}, "transactions": [], "price": "$$$$", "location": {"address1": "2623 Camino Ramon", "address2": "Ste 160", "address3": "", "city": "San Ramon", "zip_code": "94583", "country": "US", "state": "CA", "display_address": ["2623 Camino Ramon", "Ste 160", "San Ramon, CA 94583"]}, "phone": "+19258300300", "display_phone": "(925) 830-0300", "distance": 507.3636384768715}, {"id": "rM6pPB_qmQ3de5yGpfLT1g", "alias": "lomo-libre-san-francisco-2", "name": "Lomo Libre", "image_url": "https://s3-media1.fl.yelpcdn.com/bphoto/vjnO-EUjFHKoLMy2_JQYvg/o.jpg", "is_closed": false, "url": "https://www.yelp.com/biz/lomo-libre-san-francisco-2?adjust_creative=gJ2vrem5KxinHaV7_d8wAA&utm_campaign=yelp_api_v3&utm_medium=api_v3_business_search&utm_source=gJ2vrem5KxinHaV7_d8wAA", "review_count": 8, "categories": [{"alias": "foodtrucks", "title": "Food Trucks"}, {"alias": "peruvian", "title": "Peruvian"}], "rating": 5.0, "coordinates": {"latitude": 37.799634, "longitude": -122.436301}, "transactions": [], "location": {"address1": "2101 Lombard St", "address2": "", "address3": null, "city": "San Francisco", "zip_code": "94123", "country": "US", "state": "CA", "display_address": ["2101 Lombard St", "San Francisco, CA 94123"]}, "phone": "+14156198149", "display_phone": "(415) 619-8149", "distance": 41877.25281684541}, {"id": "RsgxKM4y5V_po23Iy3lTww", "alias": "fiya-spice-caribbean-pittsburg", "name": "Fiya Spice Caribbean", "image_url": "https://s3-media1.fl.yelpcdn.com/bphoto/7NBUdJXMLVWdJqIumy-GBg/o.jpg", "is_closed": false, "url": "https://www.yelp.com/biz/fiya-spice-caribbean-pittsburg?adjust_creative=gJ2vrem5KxinHaV7_d8wAA&utm_campaign=yelp_api_v3&utm_medium=api_v3_business_search&utm_source=gJ2vrem5KxinHaV7_d8wAA", "review_count": 1, "categories": [{"alias": "foodtrucks", "title": "Food Trucks"}, {"alias": "caribbean", "title": "Caribbean"}, {"alias": "catering", "title": "Caterers"}], "rating": 5.0, "coordinates": {"latitude": 38.011279, "longitude": -121.876098}, "transactions": [], "location": {"address1": "", "address2": null, "address3": "", "city": "Pittsburg", "zip_code": "94565", "country": "US", "state": "CA", "display_address": ["Pittsburg, CA 94565"]}, "phone": "+15106863325", "display_phone": "(510) 686-3325", "distance": 28548.074518616853}, {"id": "MO4ERg_NmXZMQNOIm0hHJg", "alias": "dominos-pizza-san-ramon", "name": "Domino's Pizza", "image_url": "https://s3-media3.fl.yelpcdn.com/bphoto/iV7h85D-V0_aTx8eiDiRGA/o.jpg", "is_closed": false, "url": "https://www.yelp.com/biz/dominos-pizza-san-ramon?adjust_creative=gJ2vrem5KxinHaV7_d8wAA&utm_campaign=yelp_api_v3&utm_medium=api_v3_business_search&utm_source=gJ2vrem5KxinHaV7_d8wAA", "review_count": 143, "categories": [{"alias": "pizza", "title": "Pizza"}], "rating": 2.0, "coordinates": {"latitude": 37.77143, "longitude": -121.94782}, "transactions": [], "price": "$", "location": {"address1": "500 Bollinger Canyon Way", "address2": "Ste A2", "address3": "", "city": "San Ramon", "zip_code": "94582", "country": "US", "state": "CA", "display_address": ["500 Bollinger Canyon Way", "Ste A2", "San Ramon, CA 94582"]}, "phone": "+19257350114", "display_phone": "(925) 735-0114", "distance": 1522.8687488423625}, {"id": "lZBFrHnIkKqnJsUT08DIYQ", "alias": "bishop-farms-san-ramon-2", "name": "Bishop Farms", "image_url": "https://s3-media1.fl.yelpcdn.com/bphoto/JzgoCVLrMwPO_q1s7WLiFw/o.jpg", "is_closed": false, "url": "https://www.yelp.com/biz/bishop-farms-san-ramon-2?adjust_creative=gJ2vrem5KxinHaV7_d8wAA&utm_campaign=yelp_api_v3&utm_medium=api_v3_business_search&utm_source=gJ2vrem5KxinHaV7_d8wAA", "review_count": 7, "categories": [{"alias": "salad", "title": "Salad"}, {"alias": "cafes", "title": "Cafes"}, {"alias": "sandwiches", "title": "Sandwiches"}], "rating": 2.5, "coordinates": {"latitude": 37.77436, "longitude": -121.96101}, "transactions": [], "location": {"address1": "12667 Alcosta Blvd", "address2": "Ste 125", "address3": null, "city": "San Ramon", "zip_code": "94583", "country": "US", "state": "CA", "display_address": ["12667 Alcosta Blvd", "Ste 125", "San Ramon, CA 94583"]}, "phone": "", "display_phone": "", "distance": 1216.1182515441346}, {"id": "DkFrnX11JNgzE8oaEny3Sw", "alias": "mcdonalds-san-ramon-2", "name": "McDonald's", "image_url": "https://s3-media3.fl.yelpcdn.com/bphoto/Ne_AMUotqI--ZqEj1PUUdw/o.jpg", "is_closed": false, "url": "https://www.yelp.com/biz/mcdonalds-san-ramon-2?adjust_creative=gJ2vrem5KxinHaV7_d8wAA&utm_campaign=yelp_api_v3&utm_medium=api_v3_business_search&utm_source=gJ2vrem5KxinHaV7_d8wAA", "review_count": 117, "categories": [{"alias": "hotdogs", "title": "Fast Food"}, {"alias": "burgers", "title": "Burgers"}, {"alias": "coffee", "title": "Coffee & Tea"}], "rating": 2.0, "coordinates": {"latitude": 37.7743719, "longitude": -121.976598}, "transactions": [], "price": "$", "location": {"address1": "2481 San Ramon Valley Rd", "address2": "", "address3": "", "city": "San Ramon", "zip_code": "94583", "country": "US", "state": "CA", "display_address": ["2481 San Ramon Valley Rd", "San Ramon, CA 94583"]}, "phone": "+19258204325", "display_phone": "(925) 820-4325", "distance": 1753.3382449203955}, {"id": "jCcAuXhCpeJP2n-8ol7mxg", "alias": "kolobok-russian-soul-food-truck-oakland", "name": "Kolobok Russian Soul Food Truck", "image_url": "https://s3-media1.fl.yelpcdn.com/bphoto/k8s1Bfc05Iw7SJXE6VJ74Q/o.jpg", "is_closed": false, "url": "https://www.yelp.com/biz/kolobok-russian-soul-food-truck-oakland?adjust_creative=gJ2vrem5KxinHaV7_d8wAA&utm_campaign=yelp_api_v3&utm_medium=api_v3_business_search&utm_source=gJ2vrem5KxinHaV7_d8wAA", "review_count": 47, "categories": [{"alias": "foodtrucks", "title": "Food Trucks"}, {"alias": "russian", "title": "Russian"}], "rating": 4.5, "coordinates": {"latitude": 37.7883087690458, "longitude": -122.309032460882}, "transactions": [], "price": "$$", "location": {"address1": null, "address2": null, "address3": "", "city": "Oakland", "zip_code": "94577", "country": "US", "state": "CA", "display_address": ["Oakland, CA 94577"]}, "phone": "+15105996542", "display_phone": "(510) 599-6542", "distance": 30625.76610385984}, {"id": "84Irk5lNFXfWCvLmz2llLg", "alias": "rodericks-restaurant-and-mobile-catering-oakland", "name": "Roderick's Restaurant & Mobile Catering", "image_url": "https://s3-media3.fl.yelpcdn.com/bphoto/OiqF8ctxchXEXUqOl_jbSg/o.jpg", "is_closed": false, "url": "https://www.yelp.com/biz/rodericks-restaurant-and-mobile-catering-oakland?adjust_creative=gJ2vrem5KxinHaV7_d8wAA&utm_campaign=yelp_api_v3&utm_medium=api_v3_business_search&utm_source=gJ2vrem5KxinHaV7_d8wAA", "review_count": 128, "categories": [{"alias": "foodtrucks", "title": "Food Trucks"}, {"alias": "southern", "title": "Southern"}], "rating": 4.5, "coordinates": {"latitude": 37.751577, "longitude": -122.153708}, "transactions": [], "price": "$", "location": {"address1": "2708 98th Ave", "address2": "", "address3": "", "city": "Oakland", "zip_code": "94605", "country": "US", "state": "CA", "display_address": ["2708 98th Ave", "Oakland, CA 94605"]}, "phone": "+15105644648", "display_phone": "(510) 564-4648", "distance": 16908.879373249503}, {"id": "ojUAPwlCiu_4vm_Z0ZqiYQ", "alias": "bayareatacocatering-belmont", "name": "BayAreaTacoCatering", "image_url": "https://s3-media2.fl.yelpcdn.com/bphoto/GMhjsoS5maG6UsosVN8Yhw/o.jpg", "is_closed": false, "url": "https://www.yelp.com/biz/bayareatacocatering-belmont?adjust_creative=gJ2vrem5KxinHaV7_d8wAA&utm_campaign=yelp_api_v3&utm_medium=api_v3_business_search&utm_source=gJ2vrem5KxinHaV7_d8wAA", "review_count": 24, "categories": [{"alias": "tacos", "title": "Tacos"}, {"alias": "catering", "title": "Caterers"}, {"alias": "foodtrucks", "title": "Food Trucks"}], "rating": 5.0, "coordinates": {"latitude": 37.5117858227472, "longitude": -122.292540979695}, "transactions": [], "price": "$", "location": {"address1": null, "address2": null, "address3": "", "city": "Belmont", "zip_code": "94002", "country": "US", "state": "CA", "display_address": ["Belmont, CA 94002"]}, "phone": "+15108666832", "display_phone": "(510) 866-6832", "distance": 40392.63032150043}, {"id": "STivkK3UrBW9VB2LDDMqLA", "alias": "buon-appetito-cafe-san-ramon", "name": "Buon Appetito Cafe", "image_url": "https://s3-media2.fl.yelpcdn.com/bphoto/h-OzqmhcRa03K_3zGdmHOg/o.jpg", "is_closed": false, "url": "https://www.yelp.com/biz/buon-appetito-cafe-san-ramon?adjust_creative=gJ2vrem5KxinHaV7_d8wAA&utm_campaign=yelp_api_v3&utm_medium=api_v3_business_search&utm_source=gJ2vrem5KxinHaV7_d8wAA", "review_count": 2, "categories": [{"alias": "delis", "title": "Delis"}], "rating": 5.0, "coordinates": {"latitude": 37.7804617, "longitude": -121.9641586}, "transactions": [], "price": "$", "location": {"address1": "12949 Alcosta Blvd", "address2": "Ste 100", "address3": "", "city": "San Ramon", "zip_code": "94583", "country": "US", "state": "CA", "display_address": ["12949 Alcosta Blvd", "Ste 100", "San Ramon, CA 94583"]}, "phone": "+19258301021", "display_phone": "(925) 830-1021", "distance": 1816.790715704316}, {"id": "QrNedmmK2U675XhAnXlqrA", "alias": "kfc-san-ramon", "name": "KFC", "image_url": "https://s3-media2.fl.yelpcdn.com/bphoto/J-eV4F4TZ8QU221wjX1lGQ/o.jpg", "is_closed": false, "url": "https://www.yelp.com/biz/kfc-san-ramon?adjust_creative=gJ2vrem5KxinHaV7_d8wAA&utm_campaign=yelp_api_v3&utm_medium=api_v3_business_search&utm_source=gJ2vrem5KxinHaV7_d8wAA", "review_count": 98, "categories": [{"alias": "hotdogs", "title": "Fast Food"}, {"alias": "chicken_wings", "title": "Chicken Wings"}, {"alias": "chickenshop", "title": "Chicken Shop"}], "rating": 2.0, "coordinates": {"latitude": 37.7840762211862, "longitude": -121.979601020255}, "transactions": ["pickup", "delivery"], "price": "$", "location": {"address1": "2020 San Ramon Valley Blvd", "address2": "", "address3": "", "city": "San Ramon", "zip_code": "94583", "country": "US", "state": "CA", "display_address": ["2020 San Ramon Valley Blvd", "San Ramon, CA 94583"]}, "phone": "+19258202124", "display_phone": "(925) 820-2124", "distance": 2749.5726359893397}, {"id": "lgheXsHqe66AEZwoPDIEpw", "alias": "taco-coma-newark", "name": "Taco Coma", "image_url": "https://s3-media3.fl.yelpcdn.com/bphoto/DDz5lZDL5lDiRR_Ph0L4Sg/o.jpg", "is_closed": false, "url": "https://www.yelp.com/biz/taco-coma-newark?adjust_creative=gJ2vrem5KxinHaV7_d8wAA&utm_campaign=yelp_api_v3&utm_medium=api_v3_business_search&utm_source=gJ2vrem5KxinHaV7_d8wAA", "review_count": 3, "categories": [{"alias": "foodstands", "title": "Food Stands"}, {"alias": "tacos", "title": "Tacos"}], "rating": 5.0, "coordinates": {"latitude": 37.53453, "longitude": -122.03284}, "transactions": [], "location": {"address1": "", "address2": null, "address3": "", "city": "Newark", "zip_code": "94560", "country": "US", "state": "CA", "display_address": ["Newark, CA 94560"]}, "phone": "+15106971448", "display_phone": "(510) 697-1448", "distance": 26839.99975132686}, {"id": "g5w2XRQAbGTWbBbimFe_ng", "alias": "costco-food-court-danville", "name": "Costco Food Court", "image_url": "https://s3-media2.fl.yelpcdn.com/bphoto/sNT6naSEB575Jo2pkasvfg/o.jpg", "is_closed": false, "url": "https://www.yelp.com/biz/costco-food-court-danville?adjust_creative=gJ2vrem5KxinHaV7_d8wAA&utm_campaign=yelp_api_v3&utm_medium=api_v3_business_search&utm_source=gJ2vrem5KxinHaV7_d8wAA", "review_count": 36, "categories": [{"alias": "icecream", "title": "Ice Cream & Frozen Yogurt"}, {"alias": "food_court", "title": "Food Court"}], "rating": 3.5, "coordinates": {"latitude": 37.78259, "longitude": -121.97285}, "transactions": [], "price": "$", "location": {"address1": "3150 Fostoria Way", "address2": "", "address3": "", "city": "Danville", "zip_code": "94526", "country": "US", "state": "CA", "display_address": ["3150 Fostoria Way", "Danville, CA 94526"]}, "phone": "+19252770407", "display_phone": "(925) 277-0407", "distance": 2341.4884589740764}, {"id": "45j3e0TA-DDvwk2bvM19Rw", "alias": "burger-king-san-ramon", "name": "Burger King", "image_url": "https://s3-media3.fl.yelpcdn.com/bphoto/Hl6Wzd5dTwVq2YxcEYhdHg/o.jpg", "is_closed": false, "url": "https://www.yelp.com/biz/burger-king-san-ramon?adjust_creative=gJ2vrem5KxinHaV7_d8wAA&utm_campaign=yelp_api_v3&utm_medium=api_v3_business_search&utm_source=gJ2vrem5KxinHaV7_d8wAA", "review_count": 62, "categories": [{"alias": "hotdogs", "title": "Fast Food"}, {"alias": "burgers", "title": "Burgers"}], "rating": 1.5, "coordinates": {"latitude": 37.7813218, "longitude": -121.9655543}, "transactions": [], "price": "$", "location": {"address1": "3440 Crow Canyon Rd", "address2": "", "address3": "", "city": "San Ramon", "zip_code": "94583", "country": "US", "state": "CA", "display_address": ["3440 Crow Canyon Rd", "San Ramon, CA 94583"]}, "phone": "+19258661102", "display_phone": "(925) 866-1102", "distance": 2001.1366624498826}, {"id": "5e0sb8pgx7KcQBwz6KsEHw", "alias": "bank-of-the-west-cafeteria-bear-bistro-san-ramon", "name": "Bank of the West Cafeteria - Bear Bistro", "image_url": "", "is_closed": false, "url": "https://www.yelp.com/biz/bank-of-the-west-cafeteria-bear-bistro-san-ramon?adjust_creative=gJ2vrem5KxinHaV7_d8wAA&utm_campaign=yelp_api_v3&utm_medium=api_v3_business_search&utm_source=gJ2vrem5KxinHaV7_d8wAA", "review_count": 3, "categories": [{"alias": "sandwiches", "title": "Sandwiches"}], "rating": 4.5, "coordinates": {"latitude": 37.771782, "longitude": -121.961952}, "transactions": [], "price": "$", "location": {"address1": "Bishop Ranch 7", "address2": "", "address3": "2527 Camino Ramon", "city": "San Ramon", "zip_code": "94583", "country": "US", "state": "CA", "display_address": ["Bishop Ranch 7", "2527 Camino Ramon", "San Ramon, CA 94583"]}, "phone": "+19258432233", "display_phone": "(925) 843-2233", "distance": 901.1711269051375}, {"id": "8SNGFcMWZkvS4GWDUL8w1Q", "alias": "noon-o-kabob-san-jose-4", "name": "Noon O Kabob", "image_url": "https://s3-media2.fl.yelpcdn.com/bphoto/5GmY5FRw0m0XEWC5XXbVlA/o.jpg", "is_closed": false, "url": "https://www.yelp.com/biz/noon-o-kabob-san-jose-4?adjust_creative=gJ2vrem5KxinHaV7_d8wAA&utm_campaign=yelp_api_v3&utm_medium=api_v3_business_search&utm_source=gJ2vrem5KxinHaV7_d8wAA", "review_count": 29, "categories": [{"alias": "foodtrucks", "title": "Food Trucks"}, {"alias": "kebab", "title": "Kebab"}, {"alias": "persian", "title": "Persian/Iranian"}], "rating": 4.5, "coordinates": {"latitude": 37.3940232, "longitude": -122.0288052}, "transactions": [], "price": "$$", "location": {"address1": null, "address2": null, "address3": null, "city": "San Jose", "zip_code": "95101", "country": "US", "state": "CA", "display_address": ["San Jose, CA 95101"]}, "phone": "+14083346777", "display_phone": "(408) 334-6777", "distance": 41520.05933100629}, {"id": "wIX8-1ubfKYn9Se4zrBJOg", "alias": "togo-s-sandwiches-san-ramon", "name": "Togo\u2019s Sandwiches", "image_url": "https://s3-media2.fl.yelpcdn.com/bphoto/3hxzIBDel3JumZEuUoJvgA/o.jpg", "is_closed": false, "url": "https://www.yelp.com/biz/togo-s-sandwiches-san-ramon?adjust_creative=gJ2vrem5KxinHaV7_d8wAA&utm_campaign=yelp_api_v3&utm_medium=api_v3_business_search&utm_source=gJ2vrem5KxinHaV7_d8wAA", "review_count": 69, "categories": [{"alias": "sandwiches", "title": "Sandwiches"}, {"alias": "delis", "title": "Delis"}, {"alias": "hotdogs", "title": "Fast Food"}], "rating": 3.0, "coordinates": {"latitude": 37.7726177024672, "longitude": -121.973657401551}, "transactions": [], "price": "$", "location": {"address1": "2550 San Ramon Valley Blvd", "address2": "Ste K", "address3": "", "city": "San Ramon", "zip_code": "94583", "country": "US", "state": "CA", "display_address": ["2550 San Ramon Valley Blvd", "Ste K", "San Ramon, CA 94583"]}, "phone": "+19258313596", "display_phone": "(925) 831-3596", "distance": 1431.5752464488398}, {"id": "o7UVuyIZSh5Masjjnwdk5w", "alias": "quarterly-san-ramon", "name": "Quarterly", "image_url": "https://s3-media3.fl.yelpcdn.com/bphoto/OchNQJ-I35dqtSqvXjdtKQ/o.jpg", "is_closed": false, "url": "https://www.yelp.com/biz/quarterly-san-ramon?adjust_creative=gJ2vrem5KxinHaV7_d8wAA&utm_campaign=yelp_api_v3&utm_medium=api_v3_business_search&utm_source=gJ2vrem5KxinHaV7_d8wAA", "review_count": 8, "categories": [{"alias": "pizza", "title": "Pizza"}, {"alias": "desserts", "title": "Desserts"}, {"alias": "salad", "title": "Salad"}], "rating": 3.0, "coordinates": {"latitude": 37.7651042091083, "longitude": -121.963842920959}, "transactions": [], "price": "$$", "location": {"address1": "2600 Camino Ramon", "address2": "Ste 100", "address3": "Roundhouse Market & Conference Center", "city": "San Ramon", "zip_code": "94583", "country": "US", "state": "CA", "display_address": ["2600 Camino Ramon", "Ste 100", "Roundhouse Market & Conference Center", "San Ramon, CA 94583"]}, "phone": "+19259684407", "display_phone": "(925) 968-4407", "distance": 230.66583472001176}, {"id": "NcgQArzWCTFKxRvE9az2uw", "alias": "subway-restaurants-san-ramon-3", "name": "Subway Restaurants", "image_url": "https://s3-media3.fl.yelpcdn.com/bphoto/EJl69qmxAOeXPWE_3-UFhA/o.jpg", "is_closed": false, "url": "https://www.yelp.com/biz/subway-restaurants-san-ramon-3?adjust_creative=gJ2vrem5KxinHaV7_d8wAA&utm_campaign=yelp_api_v3&utm_medium=api_v3_business_search&utm_source=gJ2vrem5KxinHaV7_d8wAA", "review_count": 54, "categories": [{"alias": "sandwiches", "title": "Sandwiches"}], "rating": 2.0, "coordinates": {"latitude": 37.774743, "longitude": -121.977681}, "transactions": ["pickup", "delivery"], "price": "$", "location": {"address1": "2441 San Ramon Valley Blvd", "address2": "Suite 2", "address3": null, "city": "San Ramon", "zip_code": "94583", "country": "US", "state": "CA", "display_address": ["2441 San Ramon Valley Blvd", "Suite 2", "San Ramon, CA 94583"]}, "phone": "+19258388060", "display_phone": "(925) 838-8060", "distance": 1852.1495346876225}, {"id": "p4bXGE_LHECKSNwmdbYjoQ", "alias": "carls-jr-san-ramon", "name": "Carl's Jr", "image_url": "https://s3-media2.fl.yelpcdn.com/bphoto/VxqH715vqQB7tp_IPySMjA/o.jpg", "is_closed": false, "url": "https://www.yelp.com/biz/carls-jr-san-ramon?adjust_creative=gJ2vrem5KxinHaV7_d8wAA&utm_campaign=yelp_api_v3&utm_medium=api_v3_business_search&utm_source=gJ2vrem5KxinHaV7_d8wAA", "review_count": 94, "categories": [{"alias": "burgers", "title": "Burgers"}, {"alias": "hotdogs", "title": "Fast Food"}], "rating": 2.5, "coordinates": {"latitude": 37.779020622018, "longitude": -121.96929654073}, "transactions": ["pickup", "delivery"], "price": "$", "location": {"address1": "3131 Crow Canyon Pl", "address2": "", "address3": "", "city": "San Ramon", "zip_code": "94583", "country": "US", "state": "CA", "display_address": ["3131 Crow Canyon Pl", "San Ramon, CA 94583"]}, "phone": "+19258661156", "display_phone": "(925) 866-1156", "distance": 1826.5625283266986}, {"id": "sR0Wy3LYGdYV9HLszRlMmw", "alias": "tacos-la-palmita-stockton", "name": "Tacos La Palmita", "image_url": "https://s3-media2.fl.yelpcdn.com/bphoto/pzYoRmZjUQqxZ7qOyU7hUQ/o.jpg", "is_closed": false, "url": "https://www.yelp.com/biz/tacos-la-palmita-stockton?adjust_creative=gJ2vrem5KxinHaV7_d8wAA&utm_campaign=yelp_api_v3&utm_medium=api_v3_business_search&utm_source=gJ2vrem5KxinHaV7_d8wAA", "review_count": 90, "categories": [{"alias": "tacos", "title": "Tacos"}, {"alias": "foodtrucks", "title": "Food Trucks"}], "rating": 4.5, "coordinates": {"latitude": 38.008129, "longitude": -121.320219}, "transactions": ["pickup", "delivery"], "price": "$", "location": {"address1": "6393 Pacific Ave", "address2": null, "address3": null, "city": "Stockton", "zip_code": "95207", "country": "US", "state": "CA", "display_address": ["6393 Pacific Ave", "Stockton, CA 95207"]}, "phone": "+12093026825", "display_phone": "(209) 302-6825", "distance": 62537.37184345661}, {"id": "C8QSWh3j0xkXwiWC8h-7ag", "alias": "three-amigos-market-and-deli-oakland", "name": "Three Amigos Market & Deli", "image_url": "https://s3-media1.fl.yelpcdn.com/bphoto/B4LNxfyWsiyHibJqkrK1gQ/o.jpg", "is_closed": false, "url": "https://www.yelp.com/biz/three-amigos-market-and-deli-oakland?adjust_creative=gJ2vrem5KxinHaV7_d8wAA&utm_campaign=yelp_api_v3&utm_medium=api_v3_business_search&utm_source=gJ2vrem5KxinHaV7_d8wAA", "review_count": 9, "categories": [{"alias": "grocery", "title": "Grocery"}, {"alias": "sandwiches", "title": "Sandwiches"}, {"alias": "delis", "title": "Delis"}], "rating": 4.5, "coordinates": {"latitude": 37.791048, "longitude": -122.245431}, "transactions": [], "price": "$", "location": {"address1": "1554 13th Ave", "address2": "", "address3": "", "city": "Oakland", "zip_code": "94606", "country": "US", "state": "CA", "display_address": ["1554 13th Ave", "Oakland, CA 94606"]}, "phone": "+15102612353", "display_phone": "(510) 261-2353", "distance": 25098.006571519032}, {"id": "M3vYD__s0sSkOie_Uwft3A", "alias": "taste-buds-bbq-tracy-2", "name": "Taste Buds BBQ", "image_url": "https://s3-media1.fl.yelpcdn.com/bphoto/pX1yclRMlmo1S7Db6iO6Lg/o.jpg", "is_closed": false, "url": "https://www.yelp.com/biz/taste-buds-bbq-tracy-2?adjust_creative=gJ2vrem5KxinHaV7_d8wAA&utm_campaign=yelp_api_v3&utm_medium=api_v3_business_search&utm_source=gJ2vrem5KxinHaV7_d8wAA", "review_count": 3, "categories": [{"alias": "bbq", "title": "Barbeque"}, {"alias": "catering", "title": "Caterers"}, {"alias": "foodtrucks", "title": "Food Trucks"}], "rating": 4.5, "coordinates": {"latitude": 37.74251, "longitude": -121.42994}, "transactions": [], "location": {"address1": "", "address2": null, "address3": "", "city": "Tracy", "zip_code": "95376", "country": "US", "state": "CA", "display_address": ["Tracy, CA 95376"]}, "phone": "+16502241324", "display_phone": "(650) 224-1324", "distance": 46516.52568815871}, {"id": "m3vcHRg9MVcnzH6_nHuUOg", "alias": "subway-restaurants-san-ramon-4", "name": "Subway Restaurants", "image_url": "https://s3-media3.fl.yelpcdn.com/bphoto/CBg85kC-qbnTBiPpXlJefA/o.jpg", "is_closed": false, "url": "https://www.yelp.com/biz/subway-restaurants-san-ramon-4?adjust_creative=gJ2vrem5KxinHaV7_d8wAA&utm_campaign=yelp_api_v3&utm_medium=api_v3_business_search&utm_source=gJ2vrem5KxinHaV7_d8wAA", "review_count": 20, "categories": [{"alias": "sandwiches", "title": "Sandwiches"}], "rating": 3.0, "coordinates": {"latitude": 37.72935683, "longitude": -121.93150683}, "transactions": ["pickup", "delivery"], "price": "$", "location": {"address1": "9150 Alcosta Blvd", "address2": "Suite C", "address3": "", "city": "San Ramon", "zip_code": "94583", "country": "US", "state": "CA", "display_address": ["9150 Alcosta Blvd", "Suite C", "San Ramon, CA 94583"]}, "phone": "+19258034014", "display_phone": "(925) 803-4014", "distance": 4659.162588505336}, {"id": "xICC6cd6dnT3SKm6fQ3wTg", "alias": "cafe-ramon-san-ramon", "name": "Cafe Ramon", "image_url": "", "is_closed": false, "url": "https://www.yelp.com/biz/cafe-ramon-san-ramon?adjust_creative=gJ2vrem5KxinHaV7_d8wAA&utm_campaign=yelp_api_v3&utm_medium=api_v3_business_search&utm_source=gJ2vrem5KxinHaV7_d8wAA", "review_count": 1, "categories": [{"alias": "cafes", "title": "Cafes"}], "rating": 4.0, "coordinates": {"latitude": 37.775705522929, "longitude": -121.958331987262}, "transactions": [], "location": {"address1": "6001 Norris Canyon Rd", "address2": "", "address3": "", "city": "San Ramon", "zip_code": "94583", "country": "US", "state": "CA", "display_address": ["6001 Norris Canyon Rd", "San Ramon, CA 94583"]}, "phone": "", "display_phone": "", "distance": 1378.533849046313}, {"id": "BZPb8c6LTP--fVsoyPUFcw", "alias": "chaat-house-san-ramon", "name": "Chaat House", "image_url": "", "is_closed": false, "url": "https://www.yelp.com/biz/chaat-house-san-ramon?adjust_creative=gJ2vrem5KxinHaV7_d8wAA&utm_campaign=yelp_api_v3&utm_medium=api_v3_business_search&utm_source=gJ2vrem5KxinHaV7_d8wAA", "review_count": 2, "categories": [{"alias": "restaurants", "title": "Restaurants"}], "rating": 2.5, "coordinates": {"latitude": 37.75791, "longitude": -121.9659}, "transactions": [], "location": {"address1": null, "address2": "", "address3": "Bollinger Drive", "city": "San Ramon", "zip_code": "94583", "country": "US", "state": "CA", "display_address": ["Bollinger Drive", "San Ramon, CA 94583"]}, "phone": "", "display_phone": "", "distance": 1715.7088754548704}, {"id": "C9uewBH5505NV0EWYBIJAA", "alias": "lady-and-l-aperitivo-san-jose", "name": "Lady & L'Aperitivo", "image_url": "https://s3-media4.fl.yelpcdn.com/bphoto/3nz0sRE9MlOq_4xVRQRt9w/o.jpg", "is_closed": false, "url": "https://www.yelp.com/biz/lady-and-l-aperitivo-san-jose?adjust_creative=gJ2vrem5KxinHaV7_d8wAA&utm_campaign=yelp_api_v3&utm_medium=api_v3_business_search&utm_source=gJ2vrem5KxinHaV7_d8wAA", "review_count": 1, "categories": [{"alias": "bakeries", "title": "Bakeries"}, {"alias": "desserts", "title": "Desserts"}, {"alias": "cheesesteaks", "title": "Cheesesteaks"}], "rating": 5.0, "coordinates": {"latitude": 37.2208938598633, "longitude": -121.861633300781}, "transactions": [], "location": {"address1": null, "address2": null, "address3": "", "city": "San Jose", "zip_code": "95120", "country": "US", "state": "CA", "display_address": ["San Jose, CA 95120"]}, "phone": "", "display_phone": "", "distance": 66847.56132007796}, {"id": "uuouQQIFQ1B9mkmcxaAKFA", "alias": "tacos-el-rey-oakland", "name": "Tacos El Rey", "image_url": "https://s3-media2.fl.yelpcdn.com/bphoto/DblyFrtT9uyPCQAUfPbYbQ/o.jpg", "is_closed": false, "url": "https://www.yelp.com/biz/tacos-el-rey-oakland?adjust_creative=gJ2vrem5KxinHaV7_d8wAA&utm_campaign=yelp_api_v3&utm_medium=api_v3_business_search&utm_source=gJ2vrem5KxinHaV7_d8wAA", "review_count": 9, "categories": [{"alias": "foodtrucks", "title": "Food Trucks"}, {"alias": "mexican", "title": "Mexican"}], "rating": 4.0, "coordinates": {"latitude": 37.8294034, "longitude": -122.2875758}, "transactions": [], "price": "$", "location": {"address1": "40th & Horton", "address2": "", "address3": null, "city": "Oakland", "zip_code": "94608", "country": "US", "state": "CA", "display_address": ["40th & Horton", "Oakland, CA 94608"]}, "phone": "+15108130232", "display_phone": "(510) 813-0232", "distance": 29528.54607573678}, {"id": "XTJJ_PUQoJKIh31ZIzsFzw", "alias": "cochinita-food-truck-san-francisco-6", "name": "Cochinita Food Truck", "image_url": "https://s3-media2.fl.yelpcdn.com/bphoto/w77SOd2jVJjOh1lwuYQ42w/o.jpg", "is_closed": false, "url": "https://www.yelp.com/biz/cochinita-food-truck-san-francisco-6?adjust_creative=gJ2vrem5KxinHaV7_d8wAA&utm_campaign=yelp_api_v3&utm_medium=api_v3_business_search&utm_source=gJ2vrem5KxinHaV7_d8wAA", "review_count": 49, "categories": [{"alias": "foodtrucks", "title": "Food Trucks"}, {"alias": "mexican", "title": "Mexican"}], "rating": 4.5, "coordinates": {"latitude": 37.770753, "longitude": -122.3916722}, "transactions": [], "price": "$", "location": {"address1": "601 Mission Blvd N", "address2": null, "address3": "", "city": "San Francisco", "zip_code": "94103", "country": "US", "state": "CA", "display_address": ["601 Mission Blvd N", "San Francisco, CA 94103"]}, "phone": "+14159883663", "display_phone": "(415) 988-3663", "distance": 37778.66217205759}, {"id": "PGRmK_CAqM54V-LJ8rZWJg", "alias": "green-burrito-san-ramon", "name": "Green Burrito", "image_url": "https://s3-media2.fl.yelpcdn.com/bphoto/Ow5n7LTy-RW6YnuSGv94Bw/o.jpg", "is_closed": false, "url": "https://www.yelp.com/biz/green-burrito-san-ramon?adjust_creative=gJ2vrem5KxinHaV7_d8wAA&utm_campaign=yelp_api_v3&utm_medium=api_v3_business_search&utm_source=gJ2vrem5KxinHaV7_d8wAA", "review_count": 3, "categories": [{"alias": "mexican", "title": "Mexican"}], "rating": 2.5, "coordinates": {"latitude": 37.779264, "longitude": -121.969167}, "transactions": [], "location": {"address1": "3131 Crow Canyon Rd", "address2": "", "address3": "", "city": "San Ramon", "zip_code": "94583", "country": "US", "state": "CA", "display_address": ["3131 Crow Canyon Rd", "San Ramon, CA 94583"]}, "phone": "+19258661156", "display_phone": "(925) 866-1156", "distance": 1847.988242608252}, {"id": "S9MYGapWK7T7oKUEYLz6Iw", "alias": "the-boneyard-san-bruno-3", "name": "The Boneyard", "image_url": "https://s3-media3.fl.yelpcdn.com/bphoto/uG6EEbOomy5tsXTsHGodxg/o.jpg", "is_closed": false, "url": "https://www.yelp.com/biz/the-boneyard-san-bruno-3?adjust_creative=gJ2vrem5KxinHaV7_d8wAA&utm_campaign=yelp_api_v3&utm_medium=api_v3_business_search&utm_source=gJ2vrem5KxinHaV7_d8wAA", "review_count": 87, "categories": [{"alias": "foodtrucks", "title": "Food Trucks"}, {"alias": "bbq", "title": "Barbeque"}, {"alias": "catering", "title": "Caterers"}], "rating": 3.5, "coordinates": {"latitude": 37.7939188282826, "longitude": -122.400518522289}, "transactions": ["delivery", "pickup"], "price": "$$", "location": {"address1": "1225 San Mateo Ave", "address2": null, "address3": "", "city": "San Bruno", "zip_code": "94066", "country": "US", "state": "CA", "display_address": ["1225 San Mateo Ave", "San Bruno, CA 94066"]}, "phone": "+14159350696", "display_phone": "(415) 935-0696", "distance": 38688.65714166635}, {"id": "wt8oSBJ03ECtoi9vzSeQOg", "alias": "golden-gate-kettle-corn-san-ramon", "name": "Golden Gate Kettle Corn", "image_url": "", "is_closed": false, "url": "https://www.yelp.com/biz/golden-gate-kettle-corn-san-ramon?adjust_creative=gJ2vrem5KxinHaV7_d8wAA&utm_campaign=yelp_api_v3&utm_medium=api_v3_business_search&utm_source=gJ2vrem5KxinHaV7_d8wAA", "review_count": 1, "categories": [{"alias": "farmersmarket", "title": "Farmers Market"}, {"alias": "foodstands", "title": "Food Stands"}], "rating": 3.0, "coordinates": {"latitude": 37.77949, "longitude": -121.96904}, "transactions": [], "location": {"address1": "", "address2": "", "address3": "", "city": "San Ramon", "zip_code": "", "country": "US", "state": "CA", "display_address": ["San Ramon, CA"]}, "phone": "", "display_phone": "", "distance": 708.8571631527265}, {"id": "2KZswa_G3RjqmEsgwuEi3w", "alias": "bishop-farms-cafe-at-br3-san-ramon", "name": "Bishop Farms Cafe at BR3", "image_url": "", "is_closed": false, "url": "https://www.yelp.com/biz/bishop-farms-cafe-at-br3-san-ramon?adjust_creative=gJ2vrem5KxinHaV7_d8wAA&utm_campaign=yelp_api_v3&utm_medium=api_v3_business_search&utm_source=gJ2vrem5KxinHaV7_d8wAA", "review_count": 1, "categories": [{"alias": "cafes", "title": "Cafes"}], "rating": 2.0, "coordinates": {"latitude": 37.76902, "longitude": -121.960023}, "transactions": [], "location": {"address1": "2603 Camino Ramon", "address2": "", "address3": null, "city": "San Ramon", "zip_code": "94583", "country": "US", "state": "CA", "display_address": ["2603 Camino Ramon", "San Ramon, CA 94583"]}, "phone": "", "display_phone": "", "distance": 621.537014698412}, {"id": "SbjAjfh2riT7rWxo2OITJA", "alias": "candies-kitchen-sacramento", "name": "Candies Kitchen", "image_url": "https://s3-media1.fl.yelpcdn.com/bphoto/wZehoZn9-gQLuWPX4QIOLA/o.jpg", "is_closed": false, "url": "https://www.yelp.com/biz/candies-kitchen-sacramento?adjust_creative=gJ2vrem5KxinHaV7_d8wAA&utm_campaign=yelp_api_v3&utm_medium=api_v3_business_search&utm_source=gJ2vrem5KxinHaV7_d8wAA", "review_count": 2, "categories": [{"alias": "cajun", "title": "Cajun/Creole"}, {"alias": "soulfood", "title": "Soul Food"}, {"alias": "foodtrucks", "title": "Food Trucks"}], "rating": 3.5, "coordinates": {"latitude": 38.59429, "longitude": -121.48536}, "transactions": [], "location": {"address1": "1100 Richards Blvd", "address2": null, "address3": "", "city": "Sacramento", "zip_code": "95811", "country": "US", "state": "CA", "display_address": ["1100 Richards Blvd", "Sacramento, CA 95811"]}, "phone": "+19164399922", "display_phone": "(916) 439-9922", "distance": 101335.86194164438}]}