{"location": "San Anselmo, CA", "term": "restaurant", "radius": 1482, "businesses": [{"id": "gzky773BGgYQZmH08VE_Rw", "alias": "cucina-sa-san-anselmo-2", "name": "Cucina sa", "image_url": "https://s3-media4.fl.yelpcdn.com/bphoto/p1SUltdfd5QuGmxYTygpiQ/o.jpg", "is_closed": false, "url": "https://www.yelp.com/biz/cucina-sa-san-anselmo-2?adjust_creative=gJ2vrem5KxinHaV7_d8wAA&utm_campaign=yelp_api_v3&utm_medium=api_v3_business_search&utm_source=gJ2vrem5KxinHaV7_d8wAA", "review_count": 220, "categories": [{"alias": "italian", "title": "Italian"}, {"alias": "pizza", "title": "Pizza"}, {"alias": "cocktailbars", "title": "Cocktail Bars"}], "rating": 4.0, "coordinates": {"latitude": 37.97456, "longitude": -122.56234}, "transactions": ["restaurant_reservation"], "price": "$$", "location": {"address1": "510 San Anselmo Ave", "address2": "", "address3": "", "city": "San Anselmo", "zip_code": "94960", "country": "US", "state": "CA", "display_address": ["510 San Anselmo Ave", "San Anselmo, CA 94960"]}, "phone": "+14154542942", "display_phone": "(415) 454-2942", "distance": 332.31192253908705}, {"id": "XRRk7dqaWFcFrBwZInhYkg", "alias": "madcap-san-anselmo", "name": "Madcap", "image_url": "https://s3-media1.fl.yelpcdn.com/bphoto/MI-cw88k9lV0JPT3fJo3uQ/o.jpg", "is_closed": false, "url": "https://www.yelp.com/biz/madcap-san-anselmo?adjust_creative=gJ2vrem5KxinHaV7_d8wAA&utm_campaign=yelp_api_v3&utm_medium=api_v3_business_search&utm_source=gJ2vrem5KxinHaV7_d8wAA", "review_count": 217, "categories": [{"alias": "newamerican", "title": "American (New)"}, {"alias": "french", "title": "French"}, {"alias": "japanese", "title": "Japanese"}], "rating": 4.5, "coordinates": {"latitude": 37.97474, "longitude": -122.5614}, "transactions": ["restaurant_reservation"], "price": "$$$", "location": {"address1": "198 Sir Francis Drake Blvd", "address2": null, "address3": "", "city": "San Anselmo", "zip_code": "94960", "country": "US", "state": "CA", "display_address": ["198 Sir Francis Drake Blvd", "San Anselmo, CA 94960"]}, "phone": "+14154539898", "display_phone": "(415) 453-9898", "distance": 348.06038086491003}, {"id": "ilwOI6Q6LrfBd9V1xvtalg", "alias": "baan-thai-cuisine-san-anselmo", "name": "Baan Thai Cuisine", "image_url": "https://s3-media3.fl.yelpcdn.com/bphoto/EfKbuvHlJ31P_8hY4oKyiA/o.jpg", "is_closed": false, "url": "https://www.yelp.com/biz/baan-thai-cuisine-san-anselmo?adjust_creative=gJ2vrem5KxinHaV7_d8wAA&utm_campaign=yelp_api_v3&utm_medium=api_v3_business_search&utm_source=gJ2vrem5KxinHaV7_d8wAA", "review_count": 156, "categories": [{"alias": "thai", "title": "Thai"}, {"alias": "salad", "title": "Salad"}, {"alias": "beerbar", "title": "Beer Bar"}], "rating": 4.5, "coordinates": {"latitude": 37.9764596, "longitude": -122.5634291}, "transactions": ["pickup", "delivery"], "price": "$$", "location": {"address1": "726 San Anselmo Ave", "address2": "", "address3": "", "city": "San Anselmo", "zip_code": "94960", "country": "US", "state": "CA", "display_address": ["726 San Anselmo Ave", "San Anselmo, CA 94960"]}, "phone": "+14154579470", "display_phone": "(415) 457-9470", "distance": 101.49913301755556}, {"id": "NhWkAfSScrTmngP78mu5dA", "alias": "valenti-and-co-san-anselmo", "name": "Valenti & Co", "image_url": "https://s3-media4.fl.yelpcdn.com/bphoto/hybokfA11sywmfoezHRKqg/o.jpg", "is_closed": false, "url": "https://www.yelp.com/biz/valenti-and-co-san-anselmo?adjust_creative=gJ2vrem5KxinHaV7_d8wAA&utm_campaign=yelp_api_v3&utm_medium=api_v3_business_search&utm_source=gJ2vrem5KxinHaV7_d8wAA", "review_count": 248, "categories": [{"alias": "italian", "title": "Italian"}, {"alias": "wine_bars", "title": "Wine Bars"}], "rating": 4.5, "coordinates": {"latitude": 37.9732419, "longitude": -122.5622363}, "transactions": [], "price": "$$$", "location": {"address1": "337 San Anselmo Ave", "address2": "", "address3": "", "city": "San Anselmo", "zip_code": "94960", "country": "US", "state": "CA", "display_address": ["337 San Anselmo Ave", "San Anselmo, CA 94960"]}, "phone": "+14154547800", "display_phone": "(415) 454-7800", "distance": 473.90182596433726}, {"id": "ufJcJ66Gn-Ao4esWYi_24w", "alias": "insalatas-restaurant-san-anselmo", "name": "Insalata's Restaurant", "image_url": "https://s3-media2.fl.yelpcdn.com/bphoto/mWltHyru0fPB5rJVH-uxvQ/o.jpg", "is_closed": false, "url": "https://www.yelp.com/biz/insalatas-restaurant-san-anselmo?adjust_creative=gJ2vrem5KxinHaV7_d8wAA&utm_campaign=yelp_api_v3&utm_medium=api_v3_business_search&utm_source=gJ2vrem5KxinHaV7_d8wAA", "review_count": 340, "categories": [{"alias": "mediterranean", "title": "Mediterranean"}], "rating": 4.0, "coordinates": {"latitude": 37.97312, "longitude": -122.56125}, "transactions": ["delivery"], "price": "$$$", "location": {"address1": "120 Sir Francis Drake Blvd", "address2": "", "address3": "", "city": "San Anselmo", "zip_code": "94960", "country": "US", "state": "CA", "display_address": ["120 Sir Francis Drake Blvd", "San Anselmo, CA 94960"]}, "phone": "+14154577700", "display_phone": "(415) 457-7700", "distance": 510.7725310462006}, {"id": "6oZ3hhvaxHFKwEOs6DiATg", "alias": "marinitas-san-anselmo", "name": "Marinitas", "image_url": "https://s3-media2.fl.yelpcdn.com/bphoto/htCkQym07tXGct7g1ajqPg/o.jpg", "is_closed": false, "url": "https://www.yelp.com/biz/marinitas-san-anselmo?adjust_creative=gJ2vrem5KxinHaV7_d8wAA&utm_campaign=yelp_api_v3&utm_medium=api_v3_business_search&utm_source=gJ2vrem5KxinHaV7_d8wAA", "review_count": 545, "categories": [{"alias": "latin", "title": "Latin American"}, {"alias": "mexican", "title": "Mexican"}], "rating": 3.5, "coordinates": {"latitude": 37.97502, "longitude": -122.56142}, "transactions": ["delivery", "restaurant_reservation"], "price": "$$", "location": {"address1": "218 Sir Francis Drake Blvd", "address2": "", "address3": "", "city": "San Anselmo", "zip_code": "94960", "country": "US", "state": "CA", "display_address": ["218 Sir Francis Drake Blvd", "San Anselmo, CA 94960"]}, "phone": "+14154548900", "display_phone": "(415) 454-8900", "distance": 320.7239374923515}, {"id": "tfXzD95vKpC1Yvyf3tGZ-w", "alias": "sushi-69-san-anselmo", "name": "Sushi 69", "image_url": "https://s3-media3.fl.yelpcdn.com/bphoto/nMIOOhRsgy5cef5STr7Ikw/o.jpg", "is_closed": false, "url": "https://www.yelp.com/biz/sushi-69-san-anselmo?adjust_creative=gJ2vrem5KxinHaV7_d8wAA&utm_campaign=yelp_api_v3&utm_medium=api_v3_business_search&utm_source=gJ2vrem5KxinHaV7_d8wAA", "review_count": 216, "categories": [{"alias": "sushi", "title": "Sushi Bars"}, {"alias": "japanese", "title": "Japanese"}], "rating": 4.0, "coordinates": {"latitude": 37.9763973142197, "longitude": -122.563153490877}, "transactions": ["delivery"], "price": "$$$", "location": {"address1": "69 Center Blvd", "address2": "", "address3": "", "city": "San Anselmo", "zip_code": "94960", "country": "US", "state": "CA", "display_address": ["69 Center Blvd", "San Anselmo, CA 94960"]}, "phone": "+14154596969", "display_phone": "(415) 459-6969", "distance": 115.07428337636573}, {"id": "yV4YjgT-d2LRu0cM_OT8Uw", "alias": "creekside-pizza-and-taproom-san-anselmo-2", "name": "Creekside Pizza & Taproom", "image_url": "https://s3-media1.fl.yelpcdn.com/bphoto/IOsE2TlVYU-NzQhYQNKZWg/o.jpg", "is_closed": false, "url": "https://www.yelp.com/biz/creekside-pizza-and-taproom-san-anselmo-2?adjust_creative=gJ2vrem5KxinHaV7_d8wAA&utm_campaign=yelp_api_v3&utm_medium=api_v3_business_search&utm_source=gJ2vrem5KxinHaV7_d8wAA", "review_count": 149, "categories": [{"alias": "pizza", "title": "Pizza"}, {"alias": "beerbar", "title": "Beer Bar"}, {"alias": "sandwiches", "title": "Sandwiches"}], "rating": 4.5, "coordinates": {"latitude": 37.97634, "longitude": -122.56317}, "transactions": ["pickup", "delivery"], "price": "$$", "location": {"address1": "638 San Anselmo Ave", "address2": "", "address3": null, "city": "San Anselmo", "zip_code": "94960", "country": "US", "state": "CA", "display_address": ["638 San Anselmo Ave", "San Anselmo, CA 94960"]}, "phone": "+14157854450", "display_phone": "(415) 785-4450", "distance": 139.05097462135637}, {"id": "wHDMkrFb2nsbMHi0qE0hPw", "alias": "auryn-thai-cuisine-san-anselmo", "name": "Auryn Thai Cuisine", "image_url": "https://s3-media4.fl.yelpcdn.com/bphoto/-_TqN9IwaaLiqkEgypgKQw/o.jpg", "is_closed": false, "url": "https://www.yelp.com/biz/auryn-thai-cuisine-san-anselmo?adjust_creative=gJ2vrem5KxinHaV7_d8wAA&utm_campaign=yelp_api_v3&utm_medium=api_v3_business_search&utm_source=gJ2vrem5KxinHaV7_d8wAA", "review_count": 88, "categories": [{"alias": "thai", "title": "Thai"}], "rating": 4.0, "coordinates": {"latitude": 37.9792668259984, "longitude": -122.564076036215}, "transactions": ["pickup"], "price": "$$", "location": {"address1": "810 Sir Francis Drake Blvd", "address2": "", "address3": "", "city": "San Anselmo", "zip_code": "94960", "country": "US", "state": "CA", "display_address": ["810 Sir Francis Drake Blvd", "San Anselmo, CA 94960"]}, "phone": "+14154558300", "display_phone": "(415) 455-8300", "distance": 215.7667491561696}, {"id": "1l5lgWt5vzJfLKd7LMjfCQ", "alias": "pizzalina-san-anselmo", "name": "Pizzalina", "image_url": "https://s3-media1.fl.yelpcdn.com/bphoto/SPpGSneaIDL4yoeXd6pEmw/o.jpg", "is_closed": false, "url": "https://www.yelp.com/biz/pizzalina-san-anselmo?adjust_creative=gJ2vrem5KxinHaV7_d8wAA&utm_campaign=yelp_api_v3&utm_medium=api_v3_business_search&utm_source=gJ2vrem5KxinHaV7_d8wAA", "review_count": 192, "categories": [{"alias": "pizza", "title": "Pizza"}, {"alias": "wine_bars", "title": "Wine Bars"}], "rating": 4.0, "coordinates": {"latitude": 37.9813426, "longitude": -122.5664461}, "transactions": ["pickup", "delivery"], "price": "$$", "location": {"address1": "914 Sir Francis Drake", "address2": "", "address3": "", "city": "San Anselmo", "zip_code": "94960", "country": "US", "state": "CA", "display_address": ["914 Sir Francis Drake", "San Anselmo, CA 94960"]}, "phone": "+14152569780", "display_phone": "(415) 256-9780", "distance": 506.60622717216455}, {"id": "5VDb2C1EjmLTXdaeIKT8sQ", "alias": "taco-janes-san-anselmo", "name": "Taco Jane's", "image_url": "https://s3-media4.fl.yelpcdn.com/bphoto/savnYQqCop_pZG6pEDUkoQ/o.jpg", "is_closed": false, "url": "https://www.yelp.com/biz/taco-janes-san-anselmo?adjust_creative=gJ2vrem5KxinHaV7_d8wAA&utm_campaign=yelp_api_v3&utm_medium=api_v3_business_search&utm_source=gJ2vrem5KxinHaV7_d8wAA", "review_count": 288, "categories": [{"alias": "mexican", "title": "Mexican"}, {"alias": "latin", "title": "Latin American"}], "rating": 3.5, "coordinates": {"latitude": 37.975868, "longitude": -122.563652}, "transactions": ["delivery"], "price": "$$", "location": {"address1": "21 Tamalpais Ave", "address2": "", "address3": "", "city": "San Anselmo", "zip_code": "94960", "country": "US", "state": "CA", "display_address": ["21 Tamalpais Ave", "San Anselmo, CA 94960"]}, "phone": "+14154546562", "display_phone": "(415) 454-6562", "distance": 165.4485828772292}, {"id": "wybd9i-hDjWU7Q7J-jltEg", "alias": "flour-craft-bakery-san-anselmo-san-anselmo", "name": "Flour Craft Bakery- San Anselmo", "image_url": "https://s3-media4.fl.yelpcdn.com/bphoto/OuDMqvUk3JP2Sypmxyhz9g/o.jpg", "is_closed": false, "url": "https://www.yelp.com/biz/flour-craft-bakery-san-anselmo-san-anselmo?adjust_creative=gJ2vrem5KxinHaV7_d8wAA&utm_campaign=yelp_api_v3&utm_medium=api_v3_business_search&utm_source=gJ2vrem5KxinHaV7_d8wAA", "review_count": 127, "categories": [{"alias": "bakeries", "title": "Bakeries"}, {"alias": "desserts", "title": "Desserts"}, {"alias": "gluten_free", "title": "Gluten-Free"}], "rating": 4.5, "coordinates": {"latitude": 37.9768433, "longitude": -122.5641111}, "transactions": [], "price": "$$", "location": {"address1": "702 San Anselmo Ave", "address2": "", "address3": "", "city": "San Anselmo", "zip_code": "94960", "country": "US", "state": "CA", "display_address": ["702 San Anselmo Ave", "San Anselmo, CA 94960"]}, "phone": "+14154533100", "display_phone": "(415) 453-3100", "distance": 69.96435570061229}, {"id": "GIAm8W8Rg0exWlTgj-cB9A", "alias": "the-hub-san-anselmo", "name": "The Hub", "image_url": "https://s3-media3.fl.yelpcdn.com/bphoto/Cjcq-sdZJRTeAQDj9A29Kw/o.jpg", "is_closed": false, "url": "https://www.yelp.com/biz/the-hub-san-anselmo?adjust_creative=gJ2vrem5KxinHaV7_d8wAA&utm_campaign=yelp_api_v3&utm_medium=api_v3_business_search&utm_source=gJ2vrem5KxinHaV7_d8wAA", "review_count": 40, "categories": [{"alias": "burgers", "title": "Burgers"}, {"alias": "beerbar", "title": "Beer Bar"}], "rating": 3.5, "coordinates": {"latitude": 37.98097, "longitude": -122.56493}, "transactions": ["pickup", "delivery"], "location": {"address1": "882 Sir Francis Drake Blvd", "address2": "", "address3": null, "city": "San Anselmo", "zip_code": "94960", "country": "US", "state": "CA", "display_address": ["882 Sir Francis Drake Blvd", "San Anselmo, CA 94960"]}, "phone": "+14157854802", "display_phone": "(415) 785-4802", "distance": 431.2832684431526}, {"id": "fEieX4XShBAmlSWJhF2w_w", "alias": "m-h-bread-and-butter-san-anselmo", "name": "M.H.Bread and Butter", "image_url": "https://s3-media1.fl.yelpcdn.com/bphoto/Ce-CIRNoOP4vijF_368bfw/o.jpg", "is_closed": false, "url": "https://www.yelp.com/biz/m-h-bread-and-butter-san-anselmo?adjust_creative=gJ2vrem5KxinHaV7_d8wAA&utm_campaign=yelp_api_v3&utm_medium=api_v3_business_search&utm_source=gJ2vrem5KxinHaV7_d8wAA", "review_count": 360, "categories": [{"alias": "bakeries", "title": "Bakeries"}, {"alias": "coffee", "title": "Coffee & Tea"}, {"alias": "sandwiches", "title": "Sandwiches"}], "rating": 4.5, "coordinates": {"latitude": 37.970569, "longitude": -122.561661}, "transactions": [], "price": "$$", "location": {"address1": "101 San Anselmo Ave", "address2": "", "address3": "", "city": "San Anselmo", "zip_code": "94960", "country": "US", "state": "CA", "display_address": ["101 San Anselmo Ave", "San Anselmo, CA 94960"]}, "phone": "+14157554575", "display_phone": "(415) 755-4575", "distance": 774.5110979336499}, {"id": "FJ9bKo_vt20vh3XFYIX8Uw", "alias": "china-villa-san-anselmo", "name": "China Villa", "image_url": "https://s3-media1.fl.yelpcdn.com/bphoto/F18z6ibhE7Tta19cJD2LRg/o.jpg", "is_closed": false, "url": "https://www.yelp.com/biz/china-villa-san-anselmo?adjust_creative=gJ2vrem5KxinHaV7_d8wAA&utm_campaign=yelp_api_v3&utm_medium=api_v3_business_search&utm_source=gJ2vrem5KxinHaV7_d8wAA", "review_count": 88, "categories": [{"alias": "chinese", "title": "Chinese"}], "rating": 3.5, "coordinates": {"latitude": 37.97611, "longitude": -122.56129}, "transactions": ["pickup", "delivery"], "price": "$$", "location": {"address1": "340 Sir Francis Drake Blvd", "address2": "", "address3": "", "city": "San Anselmo", "zip_code": "94960", "country": "US", "state": "CA", "display_address": ["340 Sir Francis Drake Blvd", "San Anselmo, CA 94960"]}, "phone": "+14154532468", "display_phone": "(415) 453-2468", "distance": 239.32016028077467}, {"id": "IVvN-_S1f-_2Ep4KgEmAKw", "alias": "comforts-san-anselmo", "name": "Comforts", "image_url": "https://s3-media2.fl.yelpcdn.com/bphoto/sSWISy7nuL0GaJzGkValgA/o.jpg", "is_closed": false, "url": "https://www.yelp.com/biz/comforts-san-anselmo?adjust_creative=gJ2vrem5KxinHaV7_d8wAA&utm_campaign=yelp_api_v3&utm_medium=api_v3_business_search&utm_source=gJ2vrem5KxinHaV7_d8wAA", "review_count": 505, "categories": [{"alias": "breakfast_brunch", "title": "Breakfast & Brunch"}, {"alias": "desserts", "title": "Desserts"}, {"alias": "bakeries", "title": "Bakeries"}], "rating": 4.0, "coordinates": {"latitude": 37.97316, "longitude": -122.56249}, "transactions": [], "price": "$$", "location": {"address1": "335 San Anselmo Ave", "address2": "", "address3": "", "city": "San Anselmo", "zip_code": "94960", "country": "US", "state": "CA", "display_address": ["335 San Anselmo Ave", "San Anselmo, CA 94960"]}, "phone": "+14154549840", "display_phone": "(415) 454-9840", "distance": 475.99224387623246}, {"id": "vtW1vzsPPoSZ2XeeuryE5A", "alias": "taqueria-mi-familia-san-anselmo", "name": "Taqueria Mi Familia", "image_url": "https://s3-media3.fl.yelpcdn.com/bphoto/AxxrSx15w2_W8Tk42bQYDw/o.jpg", "is_closed": false, "url": "https://www.yelp.com/biz/taqueria-mi-familia-san-anselmo?adjust_creative=gJ2vrem5KxinHaV7_d8wAA&utm_campaign=yelp_api_v3&utm_medium=api_v3_business_search&utm_source=gJ2vrem5KxinHaV7_d8wAA", "review_count": 77, "categories": [{"alias": "mexican", "title": "Mexican"}], "rating": 4.0, "coordinates": {"latitude": 37.9767875671387, "longitude": -122.560272216797}, "transactions": [], "price": "$", "location": {"address1": "580 Red Hill Ave", "address2": "", "address3": "", "city": "San Anselmo", "zip_code": "94960", "country": "US", "state": "CA", "display_address": ["580 Red Hill Ave", "San Anselmo, CA 94960"]}, "phone": "+14152569411", "display_phone": "(415) 256-9411", "distance": 292.56096037272937}, {"id": "Vo5pVLa7_EPJLaxfNcIOsw", "alias": "hot-wok-chinese-food-san-anselmo", "name": "Hot Wok Chinese  Food", "image_url": "https://s3-media1.fl.yelpcdn.com/bphoto/kX5nDTRNsPXR5MrCirLgow/o.jpg", "is_closed": false, "url": "https://www.yelp.com/biz/hot-wok-chinese-food-san-anselmo?adjust_creative=gJ2vrem5KxinHaV7_d8wAA&utm_campaign=yelp_api_v3&utm_medium=api_v3_business_search&utm_source=gJ2vrem5KxinHaV7_d8wAA", "review_count": 47, "categories": [{"alias": "chinese", "title": "Chinese"}], "rating": 4.0, "coordinates": {"latitude": 37.9811193849742, "longitude": -122.56568044368}, "transactions": ["delivery"], "price": "$", "location": {"address1": "898 Sir Francis Drake Blvd", "address2": "", "address3": "", "city": "San Anselmo", "zip_code": "94960", "country": "US", "state": "CA", "display_address": ["898 Sir Francis Drake Blvd", "San Anselmo, CA 94960"]}, "phone": "+14154540877", "display_phone": "(415) 454-0877", "distance": 454.808313853198}, {"id": "skcEycP43fght1baLa3qDA", "alias": "taqueria-mi-pueblo-san-anselmo", "name": "Taqueria Mi Pueblo", "image_url": "https://s3-media3.fl.yelpcdn.com/bphoto/KVpwBk5X4V-A1n4zjlAM-w/o.jpg", "is_closed": false, "url": "https://www.yelp.com/biz/taqueria-mi-pueblo-san-anselmo?adjust_creative=gJ2vrem5KxinHaV7_d8wAA&utm_campaign=yelp_api_v3&utm_medium=api_v3_business_search&utm_source=gJ2vrem5KxinHaV7_d8wAA", "review_count": 211, "categories": [{"alias": "mexican", "title": "Mexican"}], "rating": 3.5, "coordinates": {"latitude": 37.97483, "longitude": -122.5613}, "transactions": ["pickup"], "price": "$", "location": {"address1": "208 Sir Francis Drake Blvd", "address2": "", "address3": "", "city": "San Anselmo", "zip_code": "94960", "country": "US", "state": "CA", "display_address": ["208 Sir Francis Drake Blvd", "San Anselmo, CA 94960"]}, "phone": "+14154601027", "display_phone": "(415) 460-1027", "distance": 337.9732668130209}, {"id": "vata57oWE3XcF-Uxa0bMeA", "alias": "hildas-coffee-shop-san-anselmo", "name": "Hilda's Coffee Shop", "image_url": "https://s3-media1.fl.yelpcdn.com/bphoto/MNXYhLBfTVu-AYI05jFTkQ/o.jpg", "is_closed": false, "url": "https://www.yelp.com/biz/hildas-coffee-shop-san-anselmo?adjust_creative=gJ2vrem5KxinHaV7_d8wAA&utm_campaign=yelp_api_v3&utm_medium=api_v3_business_search&utm_source=gJ2vrem5KxinHaV7_d8wAA", "review_count": 130, "categories": [{"alias": "cafes", "title": "Cafes"}, {"alias": "tradamerican", "title": "American (Traditional)"}, {"alias": "pancakes", "title": "Pancakes"}], "rating": 4.0, "coordinates": {"latitude": 37.9756992, "longitude": -122.562617}, "transactions": [], "price": "$$", "location": {"address1": "639 San Anselmo Ave", "address2": "", "address3": "", "city": "San Anselmo", "zip_code": "94960", "country": "US", "state": "CA", "display_address": ["639 San Anselmo Ave", "San Anselmo, CA 94960"]}, "phone": "+14154579266", "display_phone": "(415) 457-9266", "distance": 205.19784079122422}, {"id": "AviCUFqngtePvlimkjeV8Q", "alias": "java-hub-cafe-san-anselmo", "name": "Java Hub Cafe", "image_url": "https://s3-media3.fl.yelpcdn.com/bphoto/0uup0zepVJS3I1ArhL-maQ/o.jpg", "is_closed": false, "url": "https://www.yelp.com/biz/java-hub-cafe-san-anselmo?adjust_creative=gJ2vrem5KxinHaV7_d8wAA&utm_campaign=yelp_api_v3&utm_medium=api_v3_business_search&utm_source=gJ2vrem5KxinHaV7_d8wAA", "review_count": 46, "categories": [{"alias": "coffee", "title": "Coffee & Tea"}, {"alias": "korean", "title": "Korean"}, {"alias": "juicebars", "title": "Juice Bars & Smoothies"}], "rating": 4.0, "coordinates": {"latitude": 37.97614, "longitude": -122.55963}, "transactions": [], "price": "$", "location": {"address1": "60 Greenfield Ave", "address2": "", "address3": "", "city": "San Anselmo", "zip_code": "94960", "country": "US", "state": "CA", "display_address": ["60 Greenfield Ave", "San Anselmo, CA 94960"]}, "phone": "+14154514928", "display_phone": "(415) 451-4928", "distance": 378.0685525764581}, {"id": "B2FrSVFof5BAdAPVoBj_JA", "alias": "edo-grill-san-anselmo", "name": "Edo Grill", "image_url": "https://s3-media1.fl.yelpcdn.com/bphoto/5dslcK5tMn1Q6Z1mBX0eFQ/o.jpg", "is_closed": false, "url": "https://www.yelp.com/biz/edo-grill-san-anselmo?adjust_creative=gJ2vrem5KxinHaV7_d8wAA&utm_campaign=yelp_api_v3&utm_medium=api_v3_business_search&utm_source=gJ2vrem5KxinHaV7_d8wAA", "review_count": 44, "categories": [{"alias": "japanese", "title": "Japanese"}], "rating": 3.5, "coordinates": {"latitude": 37.979891826648, "longitude": -122.56466773423}, "transactions": ["delivery"], "price": "$", "location": {"address1": "830 Sir Francis Drake Blvd", "address2": "", "address3": "", "city": "San Anselmo", "zip_code": "94960", "country": "US", "state": "CA", "display_address": ["830 Sir Francis Drake Blvd", "San Anselmo, CA 94960"]}, "phone": "+14152578866", "display_phone": "(415) 257-8866", "distance": 295.800315646145}, {"id": "NJfleOPydVaBu2qoqmoW3A", "alias": "stefanos-solar-pizza-san-anselmo-3", "name": "Stefanos Solar Pizza", "image_url": "https://s3-media4.fl.yelpcdn.com/bphoto/sblBKYKZqIOfwRHwSvCTvw/o.jpg", "is_closed": false, "url": "https://www.yelp.com/biz/stefanos-solar-pizza-san-anselmo-3?adjust_creative=gJ2vrem5KxinHaV7_d8wAA&utm_campaign=yelp_api_v3&utm_medium=api_v3_business_search&utm_source=gJ2vrem5KxinHaV7_d8wAA", "review_count": 39, "categories": [{"alias": "pizza", "title": "Pizza"}, {"alias": "italian", "title": "Italian"}], "rating": 3.5, "coordinates": {"latitude": 37.9731556149659, "longitude": -122.562103172071}, "transactions": ["pickup", "delivery"], "price": "$$", "location": {"address1": "330 San Anselmo Ave", "address2": null, "address3": null, "city": "San Anselmo", "zip_code": "94960", "country": "US", "state": "CA", "display_address": ["330 San Anselmo Ave", "San Anselmo, CA 94960"]}, "phone": "+14154606330", "display_phone": "(415) 460-6330", "distance": 486.2895558415524}, {"id": "zqTDxZOL8_R6MTzptEhHgg", "alias": "high-tech-burrito-san-anselmo", "name": "High Tech Burrito", "image_url": "https://s3-media4.fl.yelpcdn.com/bphoto/E3FLLQdM3SPadSf49stlWw/o.jpg", "is_closed": false, "url": "https://www.yelp.com/biz/high-tech-burrito-san-anselmo?adjust_creative=gJ2vrem5KxinHaV7_d8wAA&utm_campaign=yelp_api_v3&utm_medium=api_v3_business_search&utm_source=gJ2vrem5KxinHaV7_d8wAA", "review_count": 58, "categories": [{"alias": "mexican", "title": "Mexican"}], "rating": 2.5, "coordinates": {"latitude": 37.9818, "longitude": -122.56611}, "transactions": [], "price": "$$", "location": {"address1": "914-A Sir Francis Drake Blvd", "address2": "", "address3": "", "city": "San Anselmo", "zip_code": "94960", "country": "US", "state": "CA", "display_address": ["914-A Sir Francis Drake Blvd", "San Anselmo, CA 94960"]}, "phone": "+14154559176", "display_phone": "(415) 455-9176", "distance": 521.2912953881214}, {"id": "aMOL56YvqXhdZUnQcDoyNw", "alias": "subway-restaurants-san-anselmo", "name": "Subway Restaurants", "image_url": "https://s3-media3.fl.yelpcdn.com/bphoto/EQx2ZXyoR4oYQsg3pZKetA/o.jpg", "is_closed": false, "url": "https://www.yelp.com/biz/subway-restaurants-san-anselmo?adjust_creative=gJ2vrem5KxinHaV7_d8wAA&utm_campaign=yelp_api_v3&utm_medium=api_v3_business_search&utm_source=gJ2vrem5KxinHaV7_d8wAA", "review_count": 21, "categories": [{"alias": "sandwiches", "title": "Sandwiches"}], "rating": 2.5, "coordinates": {"latitude": 37.98099, "longitude": -122.56457667}, "transactions": [], "price": "$", "location": {"address1": "844 Sir Francis Drake Blvd", "address2": "", "address3": "", "city": "San Anselmo", "zip_code": "94960", "country": "US", "state": "CA", "display_address": ["844 Sir Francis Drake Blvd", "San Anselmo, CA 94960"]}, "phone": "+14154561170", "display_phone": "(415) 456-1170", "distance": 376.95939260127903}, {"id": "rM6pPB_qmQ3de5yGpfLT1g", "alias": "lomo-libre-san-francisco-2", "name": "Lomo Libre", "image_url": "https://s3-media1.fl.yelpcdn.com/bphoto/vjnO-EUjFHKoLMy2_JQYvg/o.jpg", "is_closed": false, "url": "https://www.yelp.com/biz/lomo-libre-san-francisco-2?adjust_creative=gJ2vrem5KxinHaV7_d8wAA&utm_campaign=yelp_api_v3&utm_medium=api_v3_business_search&utm_source=gJ2vrem5KxinHaV7_d8wAA", "review_count": 8, "categories": [{"alias": "foodtrucks", "title": "Food Trucks"}, {"alias": "peruvian", "title": "Peruvian"}], "rating": 5.0, "coordinates": {"latitude": 37.799634, "longitude": -122.436301}, "transactions": [], "location": {"address1": "2101 Lombard St", "address2": "", "address3": null, "city": "San Francisco", "zip_code": "94123", "country": "US", "state": "CA", "display_address": ["2101 Lombard St", "San Francisco, CA 94123"]}, "phone": "+14156198149", "display_phone": "(415) 619-8149", "distance": 22702.222736972522}, {"id": "jCcAuXhCpeJP2n-8ol7mxg", "alias": "kolobok-russian-soul-food-truck-oakland", "name": "Kolobok Russian Soul Food Truck", "image_url": "https://s3-media1.fl.yelpcdn.com/bphoto/k8s1Bfc05Iw7SJXE6VJ74Q/o.jpg", "is_closed": false, "url": "https://www.yelp.com/biz/kolobok-russian-soul-food-truck-oakland?adjust_creative=gJ2vrem5KxinHaV7_d8wAA&utm_campaign=yelp_api_v3&utm_medium=api_v3_business_search&utm_source=gJ2vrem5KxinHaV7_d8wAA", "review_count": 47, "categories": [{"alias": "foodtrucks", "title": "Food Trucks"}, {"alias": "russian", "title": "Russian"}], "rating": 4.5, "coordinates": {"latitude": 37.7883087690458, "longitude": -122.309032460882}, "transactions": [], "price": "$$", "location": {"address1": null, "address2": null, "address3": "", "city": "Oakland", "zip_code": "94577", "country": "US", "state": "CA", "display_address": ["Oakland, CA 94577"]}, "phone": "+15105996542", "display_phone": "(510) 599-6542", "distance": 30679.219961210165}, {"id": "CUwBAy6lrFi4x6Neu9eRVw", "alias": "mini-street-burger-alameda-3", "name": "Mini Street Burger", "image_url": "https://s3-media2.fl.yelpcdn.com/bphoto/Kh-OQKBIclWY1dCeIuu57w/o.jpg", "is_closed": false, "url": "https://www.yelp.com/biz/mini-street-burger-alameda-3?adjust_creative=gJ2vrem5KxinHaV7_d8wAA&utm_campaign=yelp_api_v3&utm_medium=api_v3_business_search&utm_source=gJ2vrem5KxinHaV7_d8wAA", "review_count": 28, "categories": [{"alias": "foodtrucks", "title": "Food Trucks"}, {"alias": "burgers", "title": "Burgers"}], "rating": 4.0, "coordinates": {"latitude": 37.82628, "longitude": -122.25101}, "transactions": [], "location": {"address1": null, "address2": null, "address3": null, "city": "Alameda", "zip_code": "94611", "country": "US", "state": "CA", "display_address": ["Alameda, CA 94611"]}, "phone": "+15108278982", "display_phone": "(510) 827-8982", "distance": 35449.99624271686}, {"id": "uuouQQIFQ1B9mkmcxaAKFA", "alias": "tacos-el-rey-oakland", "name": "Tacos El Rey", "image_url": "https://s3-media2.fl.yelpcdn.com/bphoto/DblyFrtT9uyPCQAUfPbYbQ/o.jpg", "is_closed": false, "url": "https://www.yelp.com/biz/tacos-el-rey-oakland?adjust_creative=gJ2vrem5KxinHaV7_d8wAA&utm_campaign=yelp_api_v3&utm_medium=api_v3_business_search&utm_source=gJ2vrem5KxinHaV7_d8wAA", "review_count": 9, "categories": [{"alias": "foodtrucks", "title": "Food Trucks"}, {"alias": "mexican", "title": "Mexican"}], "rating": 4.0, "coordinates": {"latitude": 37.8294034, "longitude": -122.2875758}, "transactions": [], "price": "$", "location": {"address1": "40th & Horton", "address2": "", "address3": null, "city": "Oakland", "zip_code": "94608", "country": "US", "state": "CA", "display_address": ["40th & Horton", "Oakland, CA 94608"]}, "phone": "+15108130232", "display_phone": "(510) 813-0232", "distance": 29280.706590650178}, {"id": "XTJJ_PUQoJKIh31ZIzsFzw", "alias": "cochinita-food-truck-san-francisco-6", "name": "Cochinita Food Truck", "image_url": "https://s3-media2.fl.yelpcdn.com/bphoto/w77SOd2jVJjOh1lwuYQ42w/o.jpg", "is_closed": false, "url": "https://www.yelp.com/biz/cochinita-food-truck-san-francisco-6?adjust_creative=gJ2vrem5KxinHaV7_d8wAA&utm_campaign=yelp_api_v3&utm_medium=api_v3_business_search&utm_source=gJ2vrem5KxinHaV7_d8wAA", "review_count": 49, "categories": [{"alias": "foodtrucks", "title": "Food Trucks"}, {"alias": "mexican", "title": "Mexican"}], "rating": 4.5, "coordinates": {"latitude": 37.770753, "longitude": -122.3916722}, "transactions": [], "price": "$", "location": {"address1": "601 Mission Blvd N", "address2": null, "address3": "", "city": "San Francisco", "zip_code": "94103", "country": "US", "state": "CA", "display_address": ["601 Mission Blvd N", "San Francisco, CA 94103"]}, "phone": "+14159883663", "display_phone": "(415) 988-3663", "distance": 27488.54655764366}, {"id": "i6ZwMjYIbmFZ8EGYz6x5Bw", "alias": "phat-salads-and-wraps-napa", "name": "Phat Salads and Wraps", "image_url": "https://s3-media2.fl.yelpcdn.com/bphoto/FbrUwtrVIx2cLXiPdBhHkw/o.jpg", "is_closed": false, "url": "https://www.yelp.com/biz/phat-salads-and-wraps-napa?adjust_creative=gJ2vrem5KxinHaV7_d8wAA&utm_campaign=yelp_api_v3&utm_medium=api_v3_business_search&utm_source=gJ2vrem5KxinHaV7_d8wAA", "review_count": 48, "categories": [{"alias": "foodtrucks", "title": "Food Trucks"}, {"alias": "wraps", "title": "Wraps"}], "rating": 4.0, "coordinates": {"latitude": 38.3234491, "longitude": -122.3023962}, "transactions": [], "price": "$", "location": {"address1": "", "address2": "", "address3": "", "city": "Napa", "zip_code": "94558", "country": "US", "state": "CA", "display_address": ["Napa, CA 94558"]}, "phone": "+17073639658", "display_phone": "(707) 363-9658", "distance": 44753.43657252417}, {"id": "DC42MrpWtqEeWRmMsn6Z8w", "alias": "the-everest-momo-fremont-2", "name": "The Everest Momo", "image_url": "https://s3-media2.fl.yelpcdn.com/bphoto/T2f7tUQ1c104otx9oSdqYw/o.jpg", "is_closed": false, "url": "https://www.yelp.com/biz/the-everest-momo-fremont-2?adjust_creative=gJ2vrem5KxinHaV7_d8wAA&utm_campaign=yelp_api_v3&utm_medium=api_v3_business_search&utm_source=gJ2vrem5KxinHaV7_d8wAA", "review_count": 23, "categories": [{"alias": "foodtrucks", "title": "Food Trucks"}, {"alias": "indpak", "title": "Indian"}, {"alias": "himalayan", "title": "Himalayan/Nepalese"}], "rating": 4.5, "coordinates": {"latitude": 37.54643, "longitude": -121.98512}, "transactions": [], "price": "$", "location": {"address1": "39233 Fremont Blvd", "address2": null, "address3": null, "city": "Fremont", "zip_code": "94538", "country": "US", "state": "CA", "display_address": ["39233 Fremont Blvd", "Fremont, CA 94538"]}, "phone": "+14088406369", "display_phone": "(408) 840-6369", "distance": 69872.55724691367}, {"id": "lgheXsHqe66AEZwoPDIEpw", "alias": "taco-coma-newark", "name": "Taco Coma", "image_url": "https://s3-media3.fl.yelpcdn.com/bphoto/DDz5lZDL5lDiRR_Ph0L4Sg/o.jpg", "is_closed": false, "url": "https://www.yelp.com/biz/taco-coma-newark?adjust_creative=gJ2vrem5KxinHaV7_d8wAA&utm_campaign=yelp_api_v3&utm_medium=api_v3_business_search&utm_source=gJ2vrem5KxinHaV7_d8wAA", "review_count": 3, "categories": [{"alias": "foodstands", "title": "Food Stands"}, {"alias": "tacos", "title": "Tacos"}], "rating": 5.0, "coordinates": {"latitude": 37.53453, "longitude": -122.03284}, "transactions": [], "location": {"address1": "", "address2": null, "address3": "", "city": "Newark", "zip_code": "94560", "country": "US", "state": "CA", "display_address": ["Newark, CA 94560"]}, "phone": "+15106971448", "display_phone": "(510) 697-1448", "distance": 67875.42685413914}, {"id": "8SNGFcMWZkvS4GWDUL8w1Q", "alias": "noon-o-kabob-san-jose-4", "name": "Noon O Kabob", "image_url": "https://s3-media2.fl.yelpcdn.com/bphoto/5GmY5FRw0m0XEWC5XXbVlA/o.jpg", "is_closed": false, "url": "https://www.yelp.com/biz/noon-o-kabob-san-jose-4?adjust_creative=gJ2vrem5KxinHaV7_d8wAA&utm_campaign=yelp_api_v3&utm_medium=api_v3_business_search&utm_source=gJ2vrem5KxinHaV7_d8wAA", "review_count": 29, "categories": [{"alias": "foodtrucks", "title": "Food Trucks"}, {"alias": "kebab", "title": "Kebab"}, {"alias": "persian", "title": "Persian/Iranian"}], "rating": 4.5, "coordinates": {"latitude": 37.3940232, "longitude": -122.0288052}, "transactions": [], "price": "$$", "location": {"address1": null, "address2": null, "address3": null, "city": "San Jose", "zip_code": "95101", "country": "US", "state": "CA", "display_address": ["San Jose, CA 95101"]}, "phone": "+14083346777", "display_phone": "(408) 334-6777", "distance": 80139.21608921512}, {"id": "C9uewBH5505NV0EWYBIJAA", "alias": "lady-and-l-aperitivo-san-jose", "name": "Lady & L'Aperitivo", "image_url": "https://s3-media4.fl.yelpcdn.com/bphoto/3nz0sRE9MlOq_4xVRQRt9w/o.jpg", "is_closed": false, "url": "https://www.yelp.com/biz/lady-and-l-aperitivo-san-jose?adjust_creative=gJ2vrem5KxinHaV7_d8wAA&utm_campaign=yelp_api_v3&utm_medium=api_v3_business_search&utm_source=gJ2vrem5KxinHaV7_d8wAA", "review_count": 1, "categories": [{"alias": "bakeries", "title": "Bakeries"}, {"alias": "desserts", "title": "Desserts"}, {"alias": "cheesesteaks", "title": "Cheesesteaks"}], "rating": 5.0, "coordinates": {"latitude": 37.2208938598633, "longitude": -121.861633300781}, "transactions": [], "location": {"address1": null, "address2": null, "address3": "", "city": "San Jose", "zip_code": "95120", "country": "US", "state": "CA", "display_address": ["San Jose, CA 95120"]}, "phone": "", "display_phone": "", "distance": 109898.86595066317}, {"id": "22KzWfCP7jt9tOl6Gl17LQ", "alias": "mai-thai-kitchen-las-vegas", "name": "Mai Thai Kitchen", "image_url": "https://s3-media1.fl.yelpcdn.com/bphoto/t1Zp5dvdlEzcNrgITCLZkw/o.jpg", "is_closed": false, "url": "https://www.yelp.com/biz/mai-thai-kitchen-las-vegas?adjust_creative=gJ2vrem5KxinHaV7_d8wAA&utm_campaign=yelp_api_v3&utm_medium=api_v3_business_search&utm_source=gJ2vrem5KxinHaV7_d8wAA", "review_count": 9, "categories": [{"alias": "foodtrucks", "title": "Food Trucks"}, {"alias": "thai", "title": "Thai"}, {"alias": "catering", "title": "Caterers"}], "rating": 3.5, "coordinates": {"latitude": 36.1067341598394, "longitude": -115.040667839348}, "transactions": [], "price": "$$$$", "location": {"address1": "", "address2": "", "address3": null, "city": "Las Vegas", "zip_code": "89122", "country": "US", "state": "NV", "display_address": ["Las Vegas, NV 89122"]}, "phone": "+14152591625", "display_phone": "(415) 259-1625", "distance": 699107.6469042383}]}