{"location": "Sausalito, CA", "term": "restaurant", "radius": 1210, "businesses": [{"id": "48i36N8eWgnpsvJzJ1QKwA", "alias": "fish-sausalito", "name": "Fish", "image_url": "https://s3-media1.fl.yelpcdn.com/bphoto/HiSRp0IRKMIMbb9XN1YmDQ/o.jpg", "is_closed": false, "url": "https://www.yelp.com/biz/fish-sausalito?adjust_creative=gJ2vrem5KxinHaV7_d8wAA&utm_campaign=yelp_api_v3&utm_medium=api_v3_business_search&utm_source=gJ2vrem5KxinHaV7_d8wAA", "review_count": 2345, "categories": [{"alias": "seafood", "title": "Seafood"}, {"alias": "bars", "title": "Bars"}], "rating": 4.0, "coordinates": {"latitude": 37.8681399, "longitude": -122.49766}, "transactions": ["delivery"], "price": "$$", "location": {"address1": "350 Harbor Dr", "address2": null, "address3": "", "city": "Sausalito", "zip_code": "94965", "country": "US", "state": "CA", "display_address": ["350 Harbor Dr", "Sausalito, CA 94965"]}, "phone": "+14153313474", "display_phone": "(415) 331-3474", "distance": 780.2300078690231}, {"id": "A48hNce1axs5Rs8KCekwgQ", "alias": "le-garage-sausalito", "name": "Le Garage", "image_url": "https://s3-media1.fl.yelpcdn.com/bphoto/st_Rtvd7cbatCXF_Vd-AEw/o.jpg", "is_closed": false, "url": "https://www.yelp.com/biz/le-garage-sausalito?adjust_creative=gJ2vrem5KxinHaV7_d8wAA&utm_campaign=yelp_api_v3&utm_medium=api_v3_business_search&utm_source=gJ2vrem5KxinHaV7_d8wAA", "review_count": 1402, "categories": [{"alias": "french", "title": "French"}, {"alias": "breakfast_brunch", "title": "Breakfast & Brunch"}, {"alias": "dinnertheater", "title": "Dinner Theater"}], "rating": 4.0, "coordinates": {"latitude": 37.8637241488, "longitude": -122.491174439}, "transactions": ["restaurant_reservation"], "price": "$$", "location": {"address1": "85 Liberty Ship Way", "address2": "Ste 109", "address3": "", "city": "Sausalito", "zip_code": "94965", "country": "US", "state": "CA", "display_address": ["85 Liberty Ship Way", "Ste 109", "Sausalito, CA 94965"]}, "phone": "+14153325625", "display_phone": "(415) 332-5625", "distance": 465.6287622361866}, {"id": "OLTHdhUyfQadczotGHxBdw", "alias": "saylors-restaurant-and-bar-sausalito", "name": "Saylor's Restaurant & Bar", "image_url": "https://s3-media1.fl.yelpcdn.com/bphoto/NXu2GVO498dKO5z2UmPU7w/o.jpg", "is_closed": false, "url": "https://www.yelp.com/biz/saylors-restaurant-and-bar-sausalito?adjust_creative=gJ2vrem5KxinHaV7_d8wAA&utm_campaign=yelp_api_v3&utm_medium=api_v3_business_search&utm_source=gJ2vrem5KxinHaV7_d8wAA", "review_count": 422, "categories": [{"alias": "mexican", "title": "Mexican"}, {"alias": "bars", "title": "Bars"}], "rating": 4.0, "coordinates": {"latitude": 37.86215, "longitude": -122.4955}, "transactions": ["restaurant_reservation", "pickup", "delivery"], "price": "$$", "location": {"address1": "2009 Bridgeway", "address2": "", "address3": "", "city": "Sausalito", "zip_code": "94965", "country": "US", "state": "CA", "display_address": ["2009 Bridgeway", "Sausalito, CA 94965"]}, "phone": "+14153321512", "display_phone": "(415) 332-1512", "distance": 94.55593063266639}, {"id": "-ll5zMoJ-WXrUPWHwATZmA", "alias": "avatars-restaurant-sausalito", "name": "Avatar's Restaurant", "image_url": "https://s3-media4.fl.yelpcdn.com/bphoto/PVWgbhFT-iwXeufdennerA/o.jpg", "is_closed": false, "url": "https://www.yelp.com/biz/avatars-restaurant-sausalito?adjust_creative=gJ2vrem5KxinHaV7_d8wAA&utm_campaign=yelp_api_v3&utm_medium=api_v3_business_search&utm_source=gJ2vrem5KxinHaV7_d8wAA", "review_count": 1546, "categories": [{"alias": "indpak", "title": "Indian"}, {"alias": "asianfusion", "title": "Asian Fusion"}, {"alias": "mexican", "title": "Mexican"}], "rating": 4.5, "coordinates": {"latitude": 37.8686903295039, "longitude": -122.501987684253}, "transactions": ["delivery"], "price": "$$", "location": {"address1": "2656 Bridgeway Blvd", "address2": "", "address3": "", "city": "Sausalito", "zip_code": "94965", "country": "US", "state": "CA", "display_address": ["2656 Bridgeway Blvd", "Sausalito, CA 94965"]}, "phone": "+14153328083", "display_phone": "(415) 332-8083", "distance": 999.9636693471813}, {"id": "mfqWPD_11MYKyDjCw-6BCw", "alias": "sandrino-sausalito-5", "name": "Sandrino", "image_url": "https://s3-media2.fl.yelpcdn.com/bphoto/2IdfAzkuNqkQJa4drYHa2Q/o.jpg", "is_closed": false, "url": "https://www.yelp.com/biz/sandrino-sausalito-5?adjust_creative=gJ2vrem5KxinHaV7_d8wAA&utm_campaign=yelp_api_v3&utm_medium=api_v3_business_search&utm_source=gJ2vrem5KxinHaV7_d8wAA", "review_count": 390, "categories": [{"alias": "pizza", "title": "Pizza"}, {"alias": "italian", "title": "Italian"}, {"alias": "desserts", "title": "Desserts"}], "rating": 4.5, "coordinates": {"latitude": 37.85839, "longitude": -122.48523}, "transactions": ["delivery"], "price": "$$", "location": {"address1": "45 Caledonia St", "address2": "", "address3": "", "city": "Sausalito", "zip_code": "94965", "country": "US", "state": "CA", "display_address": ["45 Caledonia St", "Sausalito, CA 94965"]}, "phone": "+14157299166", "display_phone": "(415) 729-9166", "distance": 956.263126365528}, {"id": "583LN_CosfUJMLBqEqiVfg", "alias": "joinery-sausalito", "name": "Joinery", "image_url": "https://s3-media3.fl.yelpcdn.com/bphoto/-3Q2TiSjdQgEDB-TuHkJ9A/o.jpg", "is_closed": false, "url": "https://www.yelp.com/biz/joinery-sausalito?adjust_creative=gJ2vrem5KxinHaV7_d8wAA&utm_campaign=yelp_api_v3&utm_medium=api_v3_business_search&utm_source=gJ2vrem5KxinHaV7_d8wAA", "review_count": 367, "categories": [{"alias": "tradamerican", "title": "American (Traditional)"}, {"alias": "beerbar", "title": "Beer Bar"}, {"alias": "sandwiches", "title": "Sandwiches"}], "rating": 4.0, "coordinates": {"latitude": 37.8599260568947, "longitude": -122.485686002719}, "transactions": [], "price": "$$", "location": {"address1": "300 Turney St", "address2": "", "address3": null, "city": "Sausalito", "zip_code": "94965", "country": "US", "state": "CA", "display_address": ["300 Turney St", "Sausalito, CA 94965"]}, "phone": "+14157668999", "display_phone": "(415) 766-8999", "distance": 874.869602970047}, {"id": "vPc-Lhgzghjrt6_ySehNPA", "alias": "osteria-divino-sausalito", "name": "Osteria Divino", "image_url": "https://s3-media1.fl.yelpcdn.com/bphoto/uIEou42iU1HHSc8Tyebk6Q/o.jpg", "is_closed": false, "url": "https://www.yelp.com/biz/osteria-divino-sausalito?adjust_creative=gJ2vrem5KxinHaV7_d8wAA&utm_campaign=yelp_api_v3&utm_medium=api_v3_business_search&utm_source=gJ2vrem5KxinHaV7_d8wAA", "review_count": 383, "categories": [{"alias": "italian", "title": "Italian"}, {"alias": "jazzandblues", "title": "Jazz & Blues"}], "rating": 4.0, "coordinates": {"latitude": 37.8582356125116, "longitude": -122.484718859196}, "transactions": [], "price": "$$", "location": {"address1": "37 Caledonia St", "address2": "", "address3": "", "city": "Sausalito", "zip_code": "94965", "country": "US", "state": "CA", "display_address": ["37 Caledonia St", "Sausalito, CA 94965"]}, "phone": "+14153319355", "display_phone": "(415) 331-9355", "distance": 980.3268188175632}, {"id": "Q9lEIjgWpsSy2osZMbU93g", "alias": "bump-bar-sausalito", "name": "Bump Bar", "image_url": "https://s3-media1.fl.yelpcdn.com/bphoto/RZGuNMjrwrYDYj10LlLF0Q/o.jpg", "is_closed": false, "url": "https://www.yelp.com/biz/bump-bar-sausalito?adjust_creative=gJ2vrem5KxinHaV7_d8wAA&utm_campaign=yelp_api_v3&utm_medium=api_v3_business_search&utm_source=gJ2vrem5KxinHaV7_d8wAA", "review_count": 2, "categories": [{"alias": "restaurants", "title": "Restaurants"}, {"alias": "wine_bars", "title": "Wine Bars"}], "rating": 5.0, "coordinates": {"latitude": 37.860068, "longitude": -122.4871526}, "transactions": [], "location": {"address1": "1403 Bridgeway", "address2": null, "address3": null, "city": "Sausalito", "zip_code": "94965", "country": "US", "state": "CA", "display_address": ["1403 Bridgeway", "Sausalito, CA 94965"]}, "phone": "+14153320826", "display_phone": "(415) 332-0826", "distance": 745.371409436866}, {"id": "K7cgOR7huve3OkOFkRAhig", "alias": "salitos-crab-house-and-prime-rib-sausalito", "name": "Salito's Crab House & Prime Rib", "image_url": "https://s3-media3.fl.yelpcdn.com/bphoto/_0mQkdmJ27Xj5ubv11RsdA/o.jpg", "is_closed": false, "url": "https://www.yelp.com/biz/salitos-crab-house-and-prime-rib-sausalito?adjust_creative=gJ2vrem5KxinHaV7_d8wAA&utm_campaign=yelp_api_v3&utm_medium=api_v3_business_search&utm_source=gJ2vrem5KxinHaV7_d8wAA", "review_count": 965, "categories": [{"alias": "seafood", "title": "Seafood"}, {"alias": "cocktailbars", "title": "Cocktail Bars"}], "rating": 3.5, "coordinates": {"latitude": 37.859727, "longitude": -122.485075}, "transactions": [], "price": "$$$", "location": {"address1": "1200 Bridgeway", "address2": "", "address3": "", "city": "Sausalito", "zip_code": "94965", "country": "US", "state": "CA", "display_address": ["1200 Bridgeway", "Sausalito, CA 94965"]}, "phone": "+14153313226", "display_phone": "(415) 331-3226", "distance": 931.632809559784}, {"id": "ZHRYhHqJTHGBoAb4XshE8Q", "alias": "sushi-ran-sausalito", "name": "Sushi Ran", "image_url": "https://s3-media2.fl.yelpcdn.com/bphoto/spCpzU-PR8aWM0W7WP2CWw/o.jpg", "is_closed": false, "url": "https://www.yelp.com/biz/sushi-ran-sausalito?adjust_creative=gJ2vrem5KxinHaV7_d8wAA&utm_campaign=yelp_api_v3&utm_medium=api_v3_business_search&utm_source=gJ2vrem5KxinHaV7_d8wAA", "review_count": 1508, "categories": [{"alias": "sushi", "title": "Sushi Bars"}, {"alias": "japanese", "title": "Japanese"}], "rating": 4.0, "coordinates": {"latitude": 37.8585, "longitude": -122.48595}, "transactions": [], "price": "$$$", "location": {"address1": "107 Caledonia St", "address2": "", "address3": "", "city": "Sausalito", "zip_code": "94965", "country": "US", "state": "CA", "display_address": ["107 Caledonia St", "Sausalito, CA 94965"]}, "phone": "+14153323620", "display_phone": "(415) 332-3620", "distance": 893.6665202315783}, {"id": "0ZLxNJ2yoEUn9azwzfODWw", "alias": "bar-bocce-sausalito", "name": "Bar Bocce", "image_url": "https://s3-media4.fl.yelpcdn.com/bphoto/AK_bq9bSmmOtEiUr8wHqNg/o.jpg", "is_closed": false, "url": "https://www.yelp.com/biz/bar-bocce-sausalito?adjust_creative=gJ2vrem5KxinHaV7_d8wAA&utm_campaign=yelp_api_v3&utm_medium=api_v3_business_search&utm_source=gJ2vrem5KxinHaV7_d8wAA", "review_count": 948, "categories": [{"alias": "italian", "title": "Italian"}, {"alias": "pizza", "title": "Pizza"}, {"alias": "tapasmallplates", "title": "Tapas/Small Plates"}], "rating": 3.5, "coordinates": {"latitude": 37.859618, "longitude": -122.484816}, "transactions": [], "price": "$$", "location": {"address1": "1250 Bridgeway", "address2": "", "address3": "", "city": "Sausalito", "zip_code": "94965", "country": "US", "state": "CA", "display_address": ["1250 Bridgeway", "Sausalito, CA 94965"]}, "phone": "+14153310555", "display_phone": "(415) 331-0555", "distance": 956.2718157215296}, {"id": "RUBmJ66aj3cjUYyBb1Qgwg", "alias": "sausalito-gourmet-delicatessen-sausalito", "name": "Sausalito Gourmet Delicatessen", "image_url": "https://s3-media3.fl.yelpcdn.com/bphoto/FDnNIQsfVTNlB62og1lsJg/o.jpg", "is_closed": false, "url": "https://www.yelp.com/biz/sausalito-gourmet-delicatessen-sausalito?adjust_creative=gJ2vrem5KxinHaV7_d8wAA&utm_campaign=yelp_api_v3&utm_medium=api_v3_business_search&utm_source=gJ2vrem5KxinHaV7_d8wAA", "review_count": 275, "categories": [{"alias": "delis", "title": "Delis"}, {"alias": "sandwiches", "title": "Sandwiches"}], "rating": 4.5, "coordinates": {"latitude": 37.8591156005859, "longitude": -122.486801147461}, "transactions": ["delivery"], "price": "$$", "location": {"address1": "209 Caledonia St", "address2": "", "address3": "", "city": "Sausalito", "zip_code": "94965", "country": "US", "state": "CA", "display_address": ["209 Caledonia St", "Sausalito, CA 94965"]}, "phone": "+14153324880", "display_phone": "(415) 332-4880", "distance": 803.58015007418}, {"id": "_IFE0oABwjMkKyFBVxAZ_g", "alias": "freds-coffee-shop-sausalito", "name": "Fred's Coffee Shop", "image_url": "https://s3-media3.fl.yelpcdn.com/bphoto/H-PbSvBl_OQIOmOToxrLBQ/o.jpg", "is_closed": false, "url": "https://www.yelp.com/biz/freds-coffee-shop-sausalito?adjust_creative=gJ2vrem5KxinHaV7_d8wAA&utm_campaign=yelp_api_v3&utm_medium=api_v3_business_search&utm_source=gJ2vrem5KxinHaV7_d8wAA", "review_count": 910, "categories": [{"alias": "coffee", "title": "Coffee & Tea"}, {"alias": "breakfast_brunch", "title": "Breakfast & Brunch"}, {"alias": "tradamerican", "title": "American (Traditional)"}], "rating": 4.0, "coordinates": {"latitude": 37.862074, "longitude": -122.494714}, "transactions": [], "price": "$$", "location": {"address1": "1917 Bridgeway Blvd", "address2": "", "address3": "", "city": "Sausalito", "zip_code": "94965", "country": "US", "state": "CA", "display_address": ["1917 Bridgeway Blvd", "Sausalito, CA 94965"]}, "phone": "+14153324575", "display_phone": "(415) 332-4575", "distance": 110.30658445541121}, {"id": "fBLN2ozZz1KkYgA5hAtd9A", "alias": "lighthouse-cafe-sausalito", "name": "Lighthouse Cafe", "image_url": "https://s3-media2.fl.yelpcdn.com/bphoto/vITMpMpCQQyZydTvcSJG3A/o.jpg", "is_closed": false, "url": "https://www.yelp.com/biz/lighthouse-cafe-sausalito?adjust_creative=gJ2vrem5KxinHaV7_d8wAA&utm_campaign=yelp_api_v3&utm_medium=api_v3_business_search&utm_source=gJ2vrem5KxinHaV7_d8wAA", "review_count": 639, "categories": [{"alias": "breakfast_brunch", "title": "Breakfast & Brunch"}, {"alias": "seafood", "title": "Seafood"}, {"alias": "tradamerican", "title": "American (Traditional)"}], "rating": 4.0, "coordinates": {"latitude": 37.85966, "longitude": -122.48642}, "transactions": ["pickup", "delivery"], "price": "$$", "location": {"address1": "1311 Bridgeway", "address2": "", "address3": "", "city": "Sausalito", "zip_code": "94965", "country": "US", "state": "CA", "display_address": ["1311 Bridgeway", "Sausalito, CA 94965"]}, "phone": "+14153313034", "display_phone": "(415) 331-3034", "distance": 817.6810008030329}, {"id": "pHpesIEy96mKEAawZFEY2g", "alias": "sausalito-seahorse-sausalito", "name": "Sausalito SeaHorse", "image_url": "https://s3-media3.fl.yelpcdn.com/bphoto/QPDUrGYSLfHQgURua4hRkA/o.jpg", "is_closed": false, "url": "https://www.yelp.com/biz/sausalito-seahorse-sausalito?adjust_creative=gJ2vrem5KxinHaV7_d8wAA&utm_campaign=yelp_api_v3&utm_medium=api_v3_business_search&utm_source=gJ2vrem5KxinHaV7_d8wAA", "review_count": 304, "categories": [{"alias": "italian", "title": "Italian"}, {"alias": "musicvenues", "title": "Music Venues"}, {"alias": "seafood", "title": "Seafood"}], "rating": 3.0, "coordinates": {"latitude": 37.86878, "longitude": -122.49839}, "transactions": [], "price": "$$", "location": {"address1": "305 Harbor Dr", "address2": "", "address3": "", "city": "Sausalito", "zip_code": "94965", "country": "US", "state": "CA", "display_address": ["305 Harbor Dr", "Sausalito, CA 94965"]}, "phone": "+14153312899", "display_phone": "(415) 331-2899", "distance": 877.1504706144258}, {"id": "tvNSPS7f-AbO5O4ZX9cXCA", "alias": "fast-food-francais-sausalito", "name": "Fast Food Francais", "image_url": "https://s3-media4.fl.yelpcdn.com/bphoto/9XLulJmk7tnVWblwxOWvYA/o.jpg", "is_closed": false, "url": "https://www.yelp.com/biz/fast-food-francais-sausalito?adjust_creative=gJ2vrem5KxinHaV7_d8wAA&utm_campaign=yelp_api_v3&utm_medium=api_v3_business_search&utm_source=gJ2vrem5KxinHaV7_d8wAA", "review_count": 380, "categories": [{"alias": "french", "title": "French"}, {"alias": "newamerican", "title": "American (New)"}], "rating": 3.5, "coordinates": {"latitude": 37.8582420349121, "longitude": -122.485145568848}, "transactions": ["restaurant_reservation", "pickup", "delivery"], "price": "$$", "location": {"address1": "39 Caledonia St", "address2": null, "address3": "", "city": "Sausalito", "zip_code": "94965", "country": "US", "state": "CA", "display_address": ["39 Caledonia St", "Sausalito, CA 94965"]}, "phone": "+14158879047", "display_phone": "(415) 887-9047", "distance": 971.3273891823945}, {"id": "Fjq3_gbjvVCjhhCeZobt_w", "alias": "taste-of-the-himalayas-sausalito", "name": "Taste of the Himalayas", "image_url": "https://s3-media2.fl.yelpcdn.com/bphoto/U6s9qCa3LwuPQp5DypL_Cw/o.jpg", "is_closed": false, "url": "https://www.yelp.com/biz/taste-of-the-himalayas-sausalito?adjust_creative=gJ2vrem5KxinHaV7_d8wAA&utm_campaign=yelp_api_v3&utm_medium=api_v3_business_search&utm_source=gJ2vrem5KxinHaV7_d8wAA", "review_count": 314, "categories": [{"alias": "himalayan", "title": "Himalayan/Nepalese"}, {"alias": "indpak", "title": "Indian"}], "rating": 4.0, "coordinates": {"latitude": 37.86858, "longitude": -122.50317}, "transactions": ["pickup"], "price": "$$", "location": {"address1": "2633 Bridgeway", "address2": "", "address3": "", "city": "Sausalito", "zip_code": "94965", "country": "US", "state": "CA", "display_address": ["2633 Bridgeway", "Sausalito, CA 94965"]}, "phone": "+14153311335", "display_phone": "(415) 331-1335", "distance": 1045.4703496414575}, {"id": "UvMRXcY4e-YnR3tCsFafrw", "alias": "bua-thai-kitchen-sausalito-3", "name": "Bua Thai Kitchen", "image_url": "https://s3-media1.fl.yelpcdn.com/bphoto/DuEzuMRbeFUbfV8blqRjgg/o.jpg", "is_closed": false, "url": "https://www.yelp.com/biz/bua-thai-kitchen-sausalito-3?adjust_creative=gJ2vrem5KxinHaV7_d8wAA&utm_campaign=yelp_api_v3&utm_medium=api_v3_business_search&utm_source=gJ2vrem5KxinHaV7_d8wAA", "review_count": 142, "categories": [{"alias": "thai", "title": "Thai"}, {"alias": "breakfast_brunch", "title": "Breakfast & Brunch"}], "rating": 4.0, "coordinates": {"latitude": 37.86858, "longitude": -122.50317}, "transactions": ["restaurant_reservation", "pickup"], "price": "$$", "location": {"address1": "2633 Bridgeway", "address2": "", "address3": null, "city": "Sausalito", "zip_code": "94965", "country": "US", "state": "CA", "display_address": ["2633 Bridgeway", "Sausalito, CA 94965"]}, "phone": "+14158879488", "display_phone": "(415) 887-9488", "distance": 1045.4703496414575}, {"id": "WAAi3fvJG1v_hVP2SzkjLA", "alias": "tommys-wok-sausalito", "name": "Tommy's Wok", "image_url": "https://s3-media2.fl.yelpcdn.com/bphoto/1Hq7tA97nxaLeEH_PpteIg/o.jpg", "is_closed": false, "url": "https://www.yelp.com/biz/tommys-wok-sausalito?adjust_creative=gJ2vrem5KxinHaV7_d8wAA&utm_campaign=yelp_api_v3&utm_medium=api_v3_business_search&utm_source=gJ2vrem5KxinHaV7_d8wAA", "review_count": 287, "categories": [{"alias": "chinese", "title": "Chinese"}, {"alias": "seafood", "title": "Seafood"}], "rating": 4.0, "coordinates": {"latitude": 37.86956, "longitude": -122.50374}, "transactions": ["delivery"], "price": "$$", "location": {"address1": "3001 Bridgeway", "address2": "", "address3": "", "city": "Sausalito", "zip_code": "94965", "country": "US", "state": "CA", "display_address": ["3001 Bridgeway", "Sausalito, CA 94965"]}, "phone": "+14153325818", "display_phone": "(415) 332-5818", "distance": 1176.6876615002498}, {"id": "7E6GYcBcC-L5B1vOJdqrZg", "alias": "arawan-thai-cuisine-sausalito", "name": "Arawan Thai Cuisine", "image_url": "https://s3-media4.fl.yelpcdn.com/bphoto/15gwd7NHUhQBM10NJLYJJg/o.jpg", "is_closed": false, "url": "https://www.yelp.com/biz/arawan-thai-cuisine-sausalito?adjust_creative=gJ2vrem5KxinHaV7_d8wAA&utm_campaign=yelp_api_v3&utm_medium=api_v3_business_search&utm_source=gJ2vrem5KxinHaV7_d8wAA", "review_count": 224, "categories": [{"alias": "thai", "title": "Thai"}], "rating": 4.0, "coordinates": {"latitude": 37.8584279, "longitude": -122.4853139}, "transactions": ["delivery"], "price": "$$", "location": {"address1": "47 Caledonia St", "address2": "", "address3": "", "city": "Sausalito", "zip_code": "94965", "country": "US", "state": "CA", "display_address": ["47 Caledonia St", "Sausalito, CA 94965"]}, "phone": "+14157299395", "display_phone": "(415) 729-9395", "distance": 949.4119506359947}, {"id": "nWnPQdTAsY4W3l3YJXeIfA", "alias": "sartaj-india-cafe-sausalito-2", "name": "Sartaj India Cafe", "image_url": "https://s3-media2.fl.yelpcdn.com/bphoto/nECnJAHDizwaoghvlM6t7g/o.jpg", "is_closed": false, "url": "https://www.yelp.com/biz/sartaj-india-cafe-sausalito-2?adjust_creative=gJ2vrem5KxinHaV7_d8wAA&utm_campaign=yelp_api_v3&utm_medium=api_v3_business_search&utm_source=gJ2vrem5KxinHaV7_d8wAA", "review_count": 266, "categories": [{"alias": "indpak", "title": "Indian"}], "rating": 4.5, "coordinates": {"latitude": 37.85837, "longitude": -122.48518}, "transactions": [], "price": "$$", "location": {"address1": "43 Caledonia St", "address2": "", "address3": null, "city": "Sausalito", "zip_code": "94965", "country": "US", "state": "CA", "display_address": ["43 Caledonia St", "Sausalito, CA 94965"]}, "phone": "+14153327103", "display_phone": "(415) 332-7103", "distance": 963.7745093438504}, {"id": "r2sA8DwIVoeK_CTmFjTgKQ", "alias": "kittis-place-sausalito-2", "name": "Kitti's Place", "image_url": "https://s3-media3.fl.yelpcdn.com/bphoto/bUa_qQxCZJX6abtBqmcgeA/o.jpg", "is_closed": false, "url": "https://www.yelp.com/biz/kittis-place-sausalito-2?adjust_creative=gJ2vrem5KxinHaV7_d8wAA&utm_campaign=yelp_api_v3&utm_medium=api_v3_business_search&utm_source=gJ2vrem5KxinHaV7_d8wAA", "review_count": 128, "categories": [{"alias": "thai", "title": "Thai"}, {"alias": "asianfusion", "title": "Asian Fusion"}], "rating": 4.0, "coordinates": {"latitude": 37.86956, "longitude": -122.50374}, "transactions": ["delivery"], "price": "$$", "location": {"address1": "3001 Bridgeway", "address2": "", "address3": "", "city": "Sausalito", "zip_code": "94965", "country": "US", "state": "CA", "display_address": ["3001 Bridgeway", "Sausalito, CA 94965"]}, "phone": "+14153310390", "display_phone": "(415) 331-0390", "distance": 1176.6876615002498}, {"id": "QhPEH1pqvRfkyVue7Rv2hw", "alias": "feng-nian-chinese-restaurant-sausalito", "name": "Feng Nian Chinese Restaurant", "image_url": "https://s3-media3.fl.yelpcdn.com/bphoto/VJEA6TGjJtEmZ6Fo87zTRA/o.jpg", "is_closed": false, "url": "https://www.yelp.com/biz/feng-nian-chinese-restaurant-sausalito?adjust_creative=gJ2vrem5KxinHaV7_d8wAA&utm_campaign=yelp_api_v3&utm_medium=api_v3_business_search&utm_source=gJ2vrem5KxinHaV7_d8wAA", "review_count": 152, "categories": [{"alias": "chinese", "title": "Chinese"}], "rating": 3.5, "coordinates": {"latitude": 37.86847, "longitude": -122.50155}, "transactions": ["pickup", "delivery"], "price": "$$", "location": {"address1": "2650 Bridgeway", "address2": "", "address3": "", "city": "Sausalito", "zip_code": "94965", "country": "US", "state": "CA", "display_address": ["2650 Bridgeway", "Sausalito, CA 94965"]}, "phone": "+14153315300", "display_phone": "(415) 331-5300", "distance": 957.8062048746875}, {"id": "cOEChlUFM3SZGSz7fKs0lw", "alias": "sausalito-equator-sausalito", "name": "Sausalito Equator", "image_url": "https://s3-media2.fl.yelpcdn.com/bphoto/1QWewdl471m5BMDjVfd_SA/o.jpg", "is_closed": false, "url": "https://www.yelp.com/biz/sausalito-equator-sausalito?adjust_creative=gJ2vrem5KxinHaV7_d8wAA&utm_campaign=yelp_api_v3&utm_medium=api_v3_business_search&utm_source=gJ2vrem5KxinHaV7_d8wAA", "review_count": 23, "categories": [{"alias": "coffee", "title": "Coffee & Tea"}, {"alias": "cafes", "title": "Cafes"}], "rating": 4.0, "coordinates": {"latitude": 37.859072, "longitude": -122.485357}, "transactions": [], "location": {"address1": "1201 Bridgeway", "address2": "", "address3": null, "city": "Sausalito", "zip_code": "94965", "country": "US", "state": "CA", "display_address": ["1201 Bridgeway", "Sausalito, CA 94965"]}, "phone": "+14157299656", "display_phone": "(415) 729-9656", "distance": 924.4570375006452}, {"id": "g1GHdgHOrkxbA7yz3KOQxg", "alias": "drivers-market-sausalito-2", "name": "Driver's Market", "image_url": "https://s3-media2.fl.yelpcdn.com/bphoto/pS8hRWYJTvRwCGR4xhbUmw/o.jpg", "is_closed": false, "url": "https://www.yelp.com/biz/drivers-market-sausalito-2?adjust_creative=gJ2vrem5KxinHaV7_d8wAA&utm_campaign=yelp_api_v3&utm_medium=api_v3_business_search&utm_source=gJ2vrem5KxinHaV7_d8wAA", "review_count": 119, "categories": [{"alias": "grocery", "title": "Grocery"}, {"alias": "delis", "title": "Delis"}], "rating": 4.0, "coordinates": {"latitude": 37.8593482971191, "longitude": -122.48624420166}, "transactions": [], "price": "$$", "location": {"address1": "200 Caledonia St", "address2": "", "address3": "", "city": "Sausalito", "zip_code": "94965", "country": "US", "state": "CA", "display_address": ["200 Caledonia St", "Sausalito, CA 94965"]}, "phone": "+14157299582", "display_phone": "(415) 729-9582", "distance": 840.9048830298943}, {"id": "CXSpBqODPfhkBBybAu7PdQ", "alias": "anchorage-5-sausalito", "name": "Anchorage 5", "image_url": "https://s3-media1.fl.yelpcdn.com/bphoto/2zqyTvDtOUV7M0aVopPa1A/o.jpg", "is_closed": false, "url": "https://www.yelp.com/biz/anchorage-5-sausalito?adjust_creative=gJ2vrem5KxinHaV7_d8wAA&utm_campaign=yelp_api_v3&utm_medium=api_v3_business_search&utm_source=gJ2vrem5KxinHaV7_d8wAA", "review_count": 210, "categories": [{"alias": "breakfast_brunch", "title": "Breakfast & Brunch"}, {"alias": "newamerican", "title": "American (New)"}, {"alias": "mexican", "title": "Mexican"}], "rating": 4.0, "coordinates": {"latitude": 37.86974, "longitude": -122.499686}, "transactions": [], "price": "$$", "location": {"address1": "475 Gate 5 Rd", "address2": "Ste 105", "address3": "", "city": "Sausalito", "zip_code": "94965", "country": "US", "state": "CA", "display_address": ["475 Gate 5 Rd", "Ste 105", "Sausalito, CA 94965"]}, "phone": "+14153318329", "display_phone": "(415) 331-8329", "distance": 1007.9856164450831}, {"id": "68Q4GULa9wI3r_V-G8nGAw", "alias": "salsalito-taco-shop-sausalito", "name": "Salsalito Taco Shop", "image_url": "https://s3-media3.fl.yelpcdn.com/bphoto/1WseZ_9KE9PBFGHV_HKlrA/o.jpg", "is_closed": false, "url": "https://www.yelp.com/biz/salsalito-taco-shop-sausalito?adjust_creative=gJ2vrem5KxinHaV7_d8wAA&utm_campaign=yelp_api_v3&utm_medium=api_v3_business_search&utm_source=gJ2vrem5KxinHaV7_d8wAA", "review_count": 581, "categories": [{"alias": "mexican", "title": "Mexican"}], "rating": 3.0, "coordinates": {"latitude": 37.858868, "longitude": -122.484773}, "transactions": ["delivery"], "price": "$$", "location": {"address1": "1115 Bridgeway", "address2": "", "address3": "", "city": "Sausalito", "zip_code": "94965", "country": "US", "state": "CA", "display_address": ["1115 Bridgeway", "Sausalito, CA 94965"]}, "phone": "+14153315595", "display_phone": "(415) 331-5595", "distance": 979.6399751653565}, {"id": "fJtLp0jRDPF0-KXOu61wxQ", "alias": "sweet-ginger-sausalito", "name": "Sweet Ginger", "image_url": "https://s3-media2.fl.yelpcdn.com/bphoto/kudjbPTu_W1wZsGZ3BbDjQ/o.jpg", "is_closed": false, "url": "https://www.yelp.com/biz/sweet-ginger-sausalito?adjust_creative=gJ2vrem5KxinHaV7_d8wAA&utm_campaign=yelp_api_v3&utm_medium=api_v3_business_search&utm_source=gJ2vrem5KxinHaV7_d8wAA", "review_count": 126, "categories": [{"alias": "japanese", "title": "Japanese"}, {"alias": "sushi", "title": "Sushi Bars"}], "rating": 3.0, "coordinates": {"latitude": 37.8600769490004, "longitude": -122.488013282418}, "transactions": ["pickup", "delivery"], "price": "$$", "location": {"address1": "400 Caledonia St", "address2": null, "address3": "", "city": "Sausalito", "zip_code": "94966", "country": "US", "state": "CA", "display_address": ["400 Caledonia St", "Sausalito, CA 94966"]}, "phone": "+14153321683", "display_phone": "(415) 332-1683", "distance": 676.7017457167636}, {"id": "S44CsS4KI-HQOkcGlgNIcg", "alias": "louies-delicatessen-sausalito", "name": "Louie's Delicatessen", "image_url": "https://s3-media1.fl.yelpcdn.com/bphoto/PcN_5umUvh3kE2UKSWTUNw/o.jpg", "is_closed": false, "url": "https://www.yelp.com/biz/louies-delicatessen-sausalito?adjust_creative=gJ2vrem5KxinHaV7_d8wAA&utm_campaign=yelp_api_v3&utm_medium=api_v3_business_search&utm_source=gJ2vrem5KxinHaV7_d8wAA", "review_count": 82, "categories": [{"alias": "delis", "title": "Delis"}, {"alias": "sandwiches", "title": "Sandwiches"}], "rating": 4.5, "coordinates": {"latitude": 37.8686065673828, "longitude": -122.50178527832}, "transactions": ["delivery", "pickup"], "price": "$", "location": {"address1": "2656 Bridgeway", "address2": "", "address3": "", "city": "Sausalito", "zip_code": "94965", "country": "US", "state": "CA", "display_address": ["2656 Bridgeway", "Sausalito, CA 94965"]}, "phone": "+14153326070", "display_phone": "(415) 332-6070", "distance": 982.0174674558816}, {"id": "nfsOpSNKt4297z8AxKfTuw", "alias": "darios-restaurant-sausalito", "name": "Dario's Restaurant", "image_url": "https://s3-media3.fl.yelpcdn.com/bphoto/HJMcIlEfl0NUx0_oUy_jGw/o.jpg", "is_closed": false, "url": "https://www.yelp.com/biz/darios-restaurant-sausalito?adjust_creative=gJ2vrem5KxinHaV7_d8wAA&utm_campaign=yelp_api_v3&utm_medium=api_v3_business_search&utm_source=gJ2vrem5KxinHaV7_d8wAA", "review_count": 212, "categories": [{"alias": "pizza", "title": "Pizza"}, {"alias": "mediterranean", "title": "Mediterranean"}, {"alias": "greek", "title": "Greek"}], "rating": 3.5, "coordinates": {"latitude": 37.869071, "longitude": -122.503268}, "transactions": ["pickup", "delivery"], "price": "$$", "location": {"address1": "2829 Bridgeway", "address2": "", "address3": "", "city": "Sausalito", "zip_code": "94965", "country": "US", "state": "CA", "display_address": ["2829 Bridgeway", "Sausalito, CA 94965"]}, "phone": "+14153326636", "display_phone": "(415) 332-6636", "distance": 1100.8937977800335}, {"id": "rM6pPB_qmQ3de5yGpfLT1g", "alias": "lomo-libre-san-francisco-2", "name": "Lomo Libre", "image_url": "https://s3-media1.fl.yelpcdn.com/bphoto/vjnO-EUjFHKoLMy2_JQYvg/o.jpg", "is_closed": false, "url": "https://www.yelp.com/biz/lomo-libre-san-francisco-2?adjust_creative=gJ2vrem5KxinHaV7_d8wAA&utm_campaign=yelp_api_v3&utm_medium=api_v3_business_search&utm_source=gJ2vrem5KxinHaV7_d8wAA", "review_count": 8, "categories": [{"alias": "foodtrucks", "title": "Food Trucks"}, {"alias": "peruvian", "title": "Peruvian"}], "rating": 5.0, "coordinates": {"latitude": 37.799634, "longitude": -122.436301}, "transactions": [], "location": {"address1": "2101 Lombard St", "address2": "", "address3": null, "city": "San Francisco", "zip_code": "94123", "country": "US", "state": "CA", "display_address": ["2101 Lombard St", "San Francisco, CA 94123"]}, "phone": "+14156198149", "display_phone": "(415) 619-8149", "distance": 8604.407471596782}, {"id": "PxzM_zNIOy7jdtwT-fbB0w", "alias": "minnie-bells-san-francisco-2", "name": "Minnie Bells", "image_url": "https://s3-media2.fl.yelpcdn.com/bphoto/5YNxEigMmu8anIwGkIsEzg/o.jpg", "is_closed": false, "url": "https://www.yelp.com/biz/minnie-bells-san-francisco-2?adjust_creative=gJ2vrem5KxinHaV7_d8wAA&utm_campaign=yelp_api_v3&utm_medium=api_v3_business_search&utm_source=gJ2vrem5KxinHaV7_d8wAA", "review_count": 15, "categories": [{"alias": "soulfood", "title": "Soul Food"}, {"alias": "foodtrucks", "title": "Food Trucks"}, {"alias": "comfortfood", "title": "Comfort Food"}], "rating": 4.5, "coordinates": {"latitude": 37.7769775466477, "longitude": -122.416963241994}, "transactions": [], "location": {"address1": "", "address2": "", "address3": null, "city": "San Francisco", "zip_code": "94103", "country": "US", "state": "CA", "display_address": ["San Francisco, CA 94103"]}, "phone": "+14152739340", "display_phone": "(415) 273-9340", "distance": 11640.446318085713}, {"id": "XCC2GEmWwwsb6LoeZLaqXA", "alias": "momolicious-san-francisco-2", "name": "MOMOlicious", "image_url": "https://s3-media1.fl.yelpcdn.com/bphoto/3yNgEihH74gOY8BSlXWZtg/o.jpg", "is_closed": false, "url": "https://www.yelp.com/biz/momolicious-san-francisco-2?adjust_creative=gJ2vrem5KxinHaV7_d8wAA&utm_campaign=yelp_api_v3&utm_medium=api_v3_business_search&utm_source=gJ2vrem5KxinHaV7_d8wAA", "review_count": 100, "categories": [{"alias": "foodtrucks", "title": "Food Trucks"}, {"alias": "himalayan", "title": "Himalayan/Nepalese"}, {"alias": "noodles", "title": "Noodles"}], "rating": 4.5, "coordinates": {"latitude": 37.7945413, "longitude": -122.3949711}, "transactions": [], "price": "$$", "location": {"address1": "10 Market St", "address2": null, "address3": "", "city": "San Francisco", "zip_code": "94105", "country": "US", "state": "CA", "display_address": ["10 Market St", "San Francisco, CA 94105"]}, "phone": "+15102876606", "display_phone": "(510) 287-6606", "distance": 11599.701713224946}, {"id": "jCcAuXhCpeJP2n-8ol7mxg", "alias": "kolobok-russian-soul-food-truck-oakland", "name": "Kolobok Russian Soul Food Truck", "image_url": "https://s3-media1.fl.yelpcdn.com/bphoto/k8s1Bfc05Iw7SJXE6VJ74Q/o.jpg", "is_closed": false, "url": "https://www.yelp.com/biz/kolobok-russian-soul-food-truck-oakland?adjust_creative=gJ2vrem5KxinHaV7_d8wAA&utm_campaign=yelp_api_v3&utm_medium=api_v3_business_search&utm_source=gJ2vrem5KxinHaV7_d8wAA", "review_count": 47, "categories": [{"alias": "foodtrucks", "title": "Food Trucks"}, {"alias": "russian", "title": "Russian"}], "rating": 4.5, "coordinates": {"latitude": 37.7883087690458, "longitude": -122.309032460882}, "transactions": [], "price": "$$", "location": {"address1": null, "address2": null, "address3": "", "city": "Oakland", "zip_code": "94577", "country": "US", "state": "CA", "display_address": ["Oakland, CA 94577"]}, "phone": "+15105996542", "display_phone": "(510) 599-6542", "distance": 18278.361196432896}, {"id": "uuouQQIFQ1B9mkmcxaAKFA", "alias": "tacos-el-rey-oakland", "name": "Tacos El Rey", "image_url": "https://s3-media2.fl.yelpcdn.com/bphoto/DblyFrtT9uyPCQAUfPbYbQ/o.jpg", "is_closed": false, "url": "https://www.yelp.com/biz/tacos-el-rey-oakland?adjust_creative=gJ2vrem5KxinHaV7_d8wAA&utm_campaign=yelp_api_v3&utm_medium=api_v3_business_search&utm_source=gJ2vrem5KxinHaV7_d8wAA", "review_count": 9, "categories": [{"alias": "foodtrucks", "title": "Food Trucks"}, {"alias": "mexican", "title": "Mexican"}], "rating": 4.0, "coordinates": {"latitude": 37.8294034, "longitude": -122.2875758}, "transactions": [], "price": "$", "location": {"address1": "40th & Horton", "address2": "", "address3": null, "city": "Oakland", "zip_code": "94608", "country": "US", "state": "CA", "display_address": ["40th & Horton", "Oakland, CA 94608"]}, "phone": "+15108130232", "display_phone": "(510) 813-0232", "distance": 18598.408582299457}, {"id": "XTJJ_PUQoJKIh31ZIzsFzw", "alias": "cochinita-food-truck-san-francisco-6", "name": "Cochinita Food Truck", "image_url": "https://s3-media2.fl.yelpcdn.com/bphoto/w77SOd2jVJjOh1lwuYQ42w/o.jpg", "is_closed": false, "url": "https://www.yelp.com/biz/cochinita-food-truck-san-francisco-6?adjust_creative=gJ2vrem5KxinHaV7_d8wAA&utm_campaign=yelp_api_v3&utm_medium=api_v3_business_search&utm_source=gJ2vrem5KxinHaV7_d8wAA", "review_count": 49, "categories": [{"alias": "foodtrucks", "title": "Food Trucks"}, {"alias": "mexican", "title": "Mexican"}], "rating": 4.5, "coordinates": {"latitude": 37.770753, "longitude": -122.3916722}, "transactions": [], "price": "$", "location": {"address1": "601 Mission Blvd N", "address2": null, "address3": "", "city": "San Francisco", "zip_code": "94103", "country": "US", "state": "CA", "display_address": ["601 Mission Blvd N", "San Francisco, CA 94103"]}, "phone": "+14159883663", "display_phone": "(415) 988-3663", "distance": 13584.930906775033}, {"id": "CUwBAy6lrFi4x6Neu9eRVw", "alias": "mini-street-burger-alameda-3", "name": "Mini Street Burger", "image_url": "https://s3-media2.fl.yelpcdn.com/bphoto/Kh-OQKBIclWY1dCeIuu57w/o.jpg", "is_closed": false, "url": "https://www.yelp.com/biz/mini-street-burger-alameda-3?adjust_creative=gJ2vrem5KxinHaV7_d8wAA&utm_campaign=yelp_api_v3&utm_medium=api_v3_business_search&utm_source=gJ2vrem5KxinHaV7_d8wAA", "review_count": 28, "categories": [{"alias": "foodtrucks", "title": "Food Trucks"}, {"alias": "burgers", "title": "Burgers"}], "rating": 4.0, "coordinates": {"latitude": 37.82628, "longitude": -122.25101}, "transactions": [], "location": {"address1": null, "address2": null, "address3": null, "city": "Alameda", "zip_code": "94611", "country": "US", "state": "CA", "display_address": ["Alameda, CA 94611"]}, "phone": "+15108278982", "display_phone": "(510) 827-8982", "distance": 25867.847917793424}, {"id": "q3ZOtUofqg7e3qAiA9gs9w", "alias": "taqueria-la-estrella-richmond", "name": "Taqueria La Estrella", "image_url": "https://s3-media3.fl.yelpcdn.com/bphoto/uj_8OLGuFKDGF_nOsVRcOw/o.jpg", "is_closed": false, "url": "https://www.yelp.com/biz/taqueria-la-estrella-richmond?adjust_creative=gJ2vrem5KxinHaV7_d8wAA&utm_campaign=yelp_api_v3&utm_medium=api_v3_business_search&utm_source=gJ2vrem5KxinHaV7_d8wAA", "review_count": 117, "categories": [{"alias": "mexican", "title": "Mexican"}, {"alias": "vegetarian", "title": "Vegetarian"}, {"alias": "foodtrucks", "title": "Food Trucks"}], "rating": 4.0, "coordinates": {"latitude": 37.93622, "longitude": -122.34797}, "transactions": [], "price": "$", "location": {"address1": "325 23rd St", "address2": "", "address3": "", "city": "Richmond", "zip_code": "94804", "country": "US", "state": "CA", "display_address": ["325 23rd St", "Richmond, CA 94804"]}, "phone": "+15102326955", "display_phone": "(510) 232-6955", "distance": 15408.08637365634}, {"id": "-arrRYJYGEejjYaBa8gJ5Q", "alias": "la-flamme-oakland-2", "name": "La Flamme", "image_url": "https://s3-media1.fl.yelpcdn.com/bphoto/RnuD-0Cj1J9SYQIuky76mQ/o.jpg", "is_closed": false, "url": "https://www.yelp.com/biz/la-flamme-oakland-2?adjust_creative=gJ2vrem5KxinHaV7_d8wAA&utm_campaign=yelp_api_v3&utm_medium=api_v3_business_search&utm_source=gJ2vrem5KxinHaV7_d8wAA", "review_count": 20, "categories": [{"alias": "pizza", "title": "Pizza"}, {"alias": "foodtrucks", "title": "Food Trucks"}], "rating": 4.0, "coordinates": {"latitude": 37.8089442, "longitude": -122.2652352}, "transactions": ["pickup", "delivery"], "price": "$$", "location": {"address1": "344 Thomas L Berkeley Way -", "address2": "Ste 310", "address3": "", "city": "OAKLAND", "zip_code": "94612", "country": "US", "state": "CA", "display_address": ["344 Thomas L Berkeley Way -", "Ste 310", "OAKLAND, CA 94612"]}, "phone": "+14153168541", "display_phone": "(415) 316-8541", "distance": 21042.890727925627}, {"id": "C8QSWh3j0xkXwiWC8h-7ag", "alias": "three-amigos-market-and-deli-oakland", "name": "Three Amigos Market & Deli", "image_url": "https://s3-media1.fl.yelpcdn.com/bphoto/B4LNxfyWsiyHibJqkrK1gQ/o.jpg", "is_closed": false, "url": "https://www.yelp.com/biz/three-amigos-market-and-deli-oakland?adjust_creative=gJ2vrem5KxinHaV7_d8wAA&utm_campaign=yelp_api_v3&utm_medium=api_v3_business_search&utm_source=gJ2vrem5KxinHaV7_d8wAA", "review_count": 9, "categories": [{"alias": "grocery", "title": "Grocery"}, {"alias": "sandwiches", "title": "Sandwiches"}, {"alias": "delis", "title": "Delis"}], "rating": 4.5, "coordinates": {"latitude": 37.791048, "longitude": -122.245431}, "transactions": [], "price": "$", "location": {"address1": "1554 13th Ave", "address2": "", "address3": "", "city": "Oakland", "zip_code": "94606", "country": "US", "state": "CA", "display_address": ["1554 13th Ave", "Oakland, CA 94606"]}, "phone": "+15102612353", "display_phone": "(510) 261-2353", "distance": 23311.216321259093}, {"id": "ZlLnkOJzKQx_QbZf5p2_lw", "alias": "yummysticks-richmond-2", "name": "YummySticks", "image_url": "https://s3-media1.fl.yelpcdn.com/bphoto/7Nfbaqr5CYkV6XM9IfLO9Q/o.jpg", "is_closed": false, "url": "https://www.yelp.com/biz/yummysticks-richmond-2?adjust_creative=gJ2vrem5KxinHaV7_d8wAA&utm_campaign=yelp_api_v3&utm_medium=api_v3_business_search&utm_source=gJ2vrem5KxinHaV7_d8wAA", "review_count": 3, "categories": [{"alias": "foodtrucks", "title": "Food Trucks"}, {"alias": "newamerican", "title": "American (New)"}, {"alias": "catering", "title": "Caterers"}], "rating": 3.5, "coordinates": {"latitude": 37.921329498291, "longitude": -122.341423034668}, "transactions": [], "location": {"address1": "", "address2": null, "address3": null, "city": "Richmond", "zip_code": "94804", "country": "US", "state": "CA", "display_address": ["Richmond, CA 94804"]}, "phone": "+15109923876", "display_phone": "(510) 992-3876", "distance": 15004.467275400322}, {"id": "jW66693LVPlyDtzAoeb7KQ", "alias": "travelin-joe-espresso-berkeley", "name": "Travelin Joe Espresso", "image_url": "https://s3-media2.fl.yelpcdn.com/bphoto/XiqMQnnnbGe4g2SzU4Wm-A/o.jpg", "is_closed": false, "url": "https://www.yelp.com/biz/travelin-joe-espresso-berkeley?adjust_creative=gJ2vrem5KxinHaV7_d8wAA&utm_campaign=yelp_api_v3&utm_medium=api_v3_business_search&utm_source=gJ2vrem5KxinHaV7_d8wAA", "review_count": 33, "categories": [{"alias": "coffee", "title": "Coffee & Tea"}, {"alias": "foodstands", "title": "Food Stands"}, {"alias": "waffles", "title": "Waffles"}], "rating": 4.5, "coordinates": {"latitude": 37.85571, "longitude": -122.2893}, "transactions": [], "price": "$$", "location": {"address1": "1016 Grayson St", "address2": "", "address3": "", "city": "Berkeley", "zip_code": "94710", "country": "US", "state": "CA", "display_address": ["1016 Grayson St", "Berkeley, CA 94710"]}, "phone": "+15109197279", "display_phone": "(510) 919-7279", "distance": 18110.900026685737}, {"id": "S9MYGapWK7T7oKUEYLz6Iw", "alias": "the-boneyard-san-bruno-3", "name": "The Boneyard", "image_url": "https://s3-media3.fl.yelpcdn.com/bphoto/uG6EEbOomy5tsXTsHGodxg/o.jpg", "is_closed": false, "url": "https://www.yelp.com/biz/the-boneyard-san-bruno-3?adjust_creative=gJ2vrem5KxinHaV7_d8wAA&utm_campaign=yelp_api_v3&utm_medium=api_v3_business_search&utm_source=gJ2vrem5KxinHaV7_d8wAA", "review_count": 87, "categories": [{"alias": "foodtrucks", "title": "Food Trucks"}, {"alias": "bbq", "title": "Barbeque"}, {"alias": "catering", "title": "Caterers"}], "rating": 3.5, "coordinates": {"latitude": 37.7939188282826, "longitude": -122.400518522289}, "transactions": ["delivery", "pickup"], "price": "$$", "location": {"address1": "1225 San Mateo Ave", "address2": null, "address3": "", "city": "San Bruno", "zip_code": "94066", "country": "US", "state": "CA", "display_address": ["1225 San Mateo Ave", "San Bruno, CA 94066"]}, "phone": "+14159350696", "display_phone": "(415) 935-0696", "distance": 11212.636539139847}, {"id": "MS0sZySGZh4i1VggMJ8HWQ", "alias": "9-julio-empanada-kitchen-oakland-2", "name": "9 Julio Empanada Kitchen", "image_url": "https://s3-media3.fl.yelpcdn.com/bphoto/ZkEL30RuJROglV6sCpRLeA/o.jpg", "is_closed": false, "url": "https://www.yelp.com/biz/9-julio-empanada-kitchen-oakland-2?adjust_creative=gJ2vrem5KxinHaV7_d8wAA&utm_campaign=yelp_api_v3&utm_medium=api_v3_business_search&utm_source=gJ2vrem5KxinHaV7_d8wAA", "review_count": 26, "categories": [{"alias": "latin", "title": "Latin American"}, {"alias": "foodstands", "title": "Food Stands"}, {"alias": "salad", "title": "Salad"}], "rating": 5.0, "coordinates": {"latitude": 37.7917976379395, "longitude": -122.173988342285}, "transactions": [], "price": "$", "location": {"address1": "", "address2": null, "address3": "", "city": "Oakland", "zip_code": "94619", "country": "US", "state": "CA", "display_address": ["Oakland, CA 94619"]}, "phone": "+15106989535", "display_phone": "(510) 698-9535", "distance": 31584.613446200972}, {"id": "lgheXsHqe66AEZwoPDIEpw", "alias": "taco-coma-newark", "name": "Taco Coma", "image_url": "https://s3-media3.fl.yelpcdn.com/bphoto/DDz5lZDL5lDiRR_Ph0L4Sg/o.jpg", "is_closed": false, "url": "https://www.yelp.com/biz/taco-coma-newark?adjust_creative=gJ2vrem5KxinHaV7_d8wAA&utm_campaign=yelp_api_v3&utm_medium=api_v3_business_search&utm_source=gJ2vrem5KxinHaV7_d8wAA", "review_count": 3, "categories": [{"alias": "foodstands", "title": "Food Stands"}, {"alias": "tacos", "title": "Tacos"}], "rating": 5.0, "coordinates": {"latitude": 37.53453, "longitude": -122.03284}, "transactions": [], "location": {"address1": "", "address2": null, "address3": "", "city": "Newark", "zip_code": "94560", "country": "US", "state": "CA", "display_address": ["Newark, CA 94560"]}, "phone": "+15106971448", "display_phone": "(510) 697-1448", "distance": 54541.45880220799}, {"id": "DC42MrpWtqEeWRmMsn6Z8w", "alias": "the-everest-momo-fremont-2", "name": "The Everest Momo", "image_url": "https://s3-media2.fl.yelpcdn.com/bphoto/T2f7tUQ1c104otx9oSdqYw/o.jpg", "is_closed": false, "url": "https://www.yelp.com/biz/the-everest-momo-fremont-2?adjust_creative=gJ2vrem5KxinHaV7_d8wAA&utm_campaign=yelp_api_v3&utm_medium=api_v3_business_search&utm_source=gJ2vrem5KxinHaV7_d8wAA", "review_count": 23, "categories": [{"alias": "foodtrucks", "title": "Food Trucks"}, {"alias": "indpak", "title": "Indian"}, {"alias": "himalayan", "title": "Himalayan/Nepalese"}], "rating": 4.5, "coordinates": {"latitude": 37.54643, "longitude": -121.98512}, "transactions": [], "price": "$", "location": {"address1": "39233 Fremont Blvd", "address2": null, "address3": null, "city": "Fremont", "zip_code": "94538", "country": "US", "state": "CA", "display_address": ["39233 Fremont Blvd", "Fremont, CA 94538"]}, "phone": "+14088406369", "display_phone": "(408) 840-6369", "distance": 56937.53275667448}, {"id": "i6ZwMjYIbmFZ8EGYz6x5Bw", "alias": "phat-salads-and-wraps-napa", "name": "Phat Salads and Wraps", "image_url": "https://s3-media2.fl.yelpcdn.com/bphoto/FbrUwtrVIx2cLXiPdBhHkw/o.jpg", "is_closed": false, "url": "https://www.yelp.com/biz/phat-salads-and-wraps-napa?adjust_creative=gJ2vrem5KxinHaV7_d8wAA&utm_campaign=yelp_api_v3&utm_medium=api_v3_business_search&utm_source=gJ2vrem5KxinHaV7_d8wAA", "review_count": 48, "categories": [{"alias": "foodtrucks", "title": "Food Trucks"}, {"alias": "wraps", "title": "Wraps"}], "rating": 4.0, "coordinates": {"latitude": 38.3234491, "longitude": -122.3023962}, "transactions": [], "price": "$", "location": {"address1": "", "address2": "", "address3": "", "city": "Napa", "zip_code": "94558", "country": "US", "state": "CA", "display_address": ["Napa, CA 94558"]}, "phone": "+17073639658", "display_phone": "(707) 363-9658", "distance": 54095.84983885604}, {"id": "8SNGFcMWZkvS4GWDUL8w1Q", "alias": "noon-o-kabob-san-jose-4", "name": "Noon O Kabob", "image_url": "https://s3-media2.fl.yelpcdn.com/bphoto/5GmY5FRw0m0XEWC5XXbVlA/o.jpg", "is_closed": false, "url": "https://www.yelp.com/biz/noon-o-kabob-san-jose-4?adjust_creative=gJ2vrem5KxinHaV7_d8wAA&utm_campaign=yelp_api_v3&utm_medium=api_v3_business_search&utm_source=gJ2vrem5KxinHaV7_d8wAA", "review_count": 29, "categories": [{"alias": "foodtrucks", "title": "Food Trucks"}, {"alias": "kebab", "title": "Kebab"}, {"alias": "persian", "title": "Persian/Iranian"}], "rating": 4.5, "coordinates": {"latitude": 37.3940232, "longitude": -122.0288052}, "transactions": [], "price": "$$", "location": {"address1": null, "address2": null, "address3": null, "city": "San Jose", "zip_code": "95101", "country": "US", "state": "CA", "display_address": ["San Jose, CA 95101"]}, "phone": "+14083346777", "display_phone": "(408) 334-6777", "distance": 66248.45828043936}, {"id": "C9uewBH5505NV0EWYBIJAA", "alias": "lady-and-l-aperitivo-san-jose", "name": "Lady & L'Aperitivo", "image_url": "https://s3-media4.fl.yelpcdn.com/bphoto/3nz0sRE9MlOq_4xVRQRt9w/o.jpg", "is_closed": false, "url": "https://www.yelp.com/biz/lady-and-l-aperitivo-san-jose?adjust_creative=gJ2vrem5KxinHaV7_d8wAA&utm_campaign=yelp_api_v3&utm_medium=api_v3_business_search&utm_source=gJ2vrem5KxinHaV7_d8wAA", "review_count": 1, "categories": [{"alias": "bakeries", "title": "Bakeries"}, {"alias": "desserts", "title": "Desserts"}, {"alias": "cheesesteaks", "title": "Cheesesteaks"}], "rating": 5.0, "coordinates": {"latitude": 37.2208938598633, "longitude": -121.861633300781}, "transactions": [], "location": {"address1": null, "address2": null, "address3": "", "city": "San Jose", "zip_code": "95120", "country": "US", "state": "CA", "display_address": ["San Jose, CA 95120"]}, "phone": "", "display_phone": "", "distance": 95951.86493322339}, {"id": "sR0Wy3LYGdYV9HLszRlMmw", "alias": "tacos-la-palmita-stockton", "name": "Tacos La Palmita", "image_url": "https://s3-media2.fl.yelpcdn.com/bphoto/pzYoRmZjUQqxZ7qOyU7hUQ/o.jpg", "is_closed": false, "url": "https://www.yelp.com/biz/tacos-la-palmita-stockton?adjust_creative=gJ2vrem5KxinHaV7_d8wAA&utm_campaign=yelp_api_v3&utm_medium=api_v3_business_search&utm_source=gJ2vrem5KxinHaV7_d8wAA", "review_count": 90, "categories": [{"alias": "tacos", "title": "Tacos"}, {"alias": "foodtrucks", "title": "Food Trucks"}], "rating": 4.5, "coordinates": {"latitude": 38.008129, "longitude": -121.320219}, "transactions": ["pickup", "delivery"], "price": "$", "location": {"address1": "6393 Pacific Ave", "address2": null, "address3": null, "city": "Stockton", "zip_code": "95207", "country": "US", "state": "CA", "display_address": ["6393 Pacific Ave", "Stockton, CA 95207"]}, "phone": "+12093026825", "display_phone": "(209) 302-6825", "distance": 104357.09888239726}, {"id": "7ETh5878KSnGQnLxLE_yaQ", "alias": "gyrostop-sacramento", "name": "GyroStop", "image_url": "https://s3-media1.fl.yelpcdn.com/bphoto/xQsct4YKnW0qSJOmK_gsxw/o.jpg", "is_closed": false, "url": "https://www.yelp.com/biz/gyrostop-sacramento?adjust_creative=gJ2vrem5KxinHaV7_d8wAA&utm_campaign=yelp_api_v3&utm_medium=api_v3_business_search&utm_source=gJ2vrem5KxinHaV7_d8wAA", "review_count": 74, "categories": [{"alias": "mediterranean", "title": "Mediterranean"}, {"alias": "foodtrucks", "title": "Food Trucks"}], "rating": 4.0, "coordinates": {"latitude": 38.6621589660645, "longitude": -121.336738586426}, "transactions": [], "price": "$$", "location": {"address1": "", "address2": "", "address3": "", "city": "Sacramento", "zip_code": "95841", "country": "US", "state": "CA", "display_address": ["Sacramento, CA 95841"]}, "phone": "+19163044976", "display_phone": "(916) 304-4976", "distance": 133960.60482958585}]}