{"location": "Sebastopol, CA", "term": "restaurant", "radius": 1236, "businesses": [{"id": "a48gZt1d14xH6ZDvgd1xJw", "alias": "ramen-gaijin-sebastopol", "name": "Ramen Gaijin", "image_url": "https://s3-media1.fl.yelpcdn.com/bphoto/gUlgglNClQ8bk__NvZ7mYg/o.jpg", "is_closed": false, "url": "https://www.yelp.com/biz/ramen-gaijin-sebastopol?adjust_creative=gJ2vrem5KxinHaV7_d8wAA&utm_campaign=yelp_api_v3&utm_medium=api_v3_business_search&utm_source=gJ2vrem5KxinHaV7_d8wAA", "review_count": 657, "categories": [{"alias": "ramen", "title": "Ramen"}, {"alias": "noodles", "title": "Noodles"}, {"alias": "izakaya", "title": "Izakaya"}], "rating": 4.0, "coordinates": {"latitude": 38.4024704448162, "longitude": -122.823650548001}, "transactions": [], "price": "$$", "location": {"address1": "6948 Sebastopol Ave", "address2": "", "address3": "", "city": "Sebastopol", "zip_code": "95472", "country": "US", "state": "CA", "display_address": ["6948 Sebastopol Ave", "Sebastopol, CA 95472"]}, "phone": "+17078273609", "display_phone": "(707) 827-3609", "distance": 650.8441194913315}, {"id": "6Zuck-a6wzOi66Iu189ABA", "alias": "gravenstein-grill-sebastopol-2", "name": "Gravenstein Grill", "image_url": "https://s3-media2.fl.yelpcdn.com/bphoto/qvH-tPvaFdgu4bj-ePH95w/o.jpg", "is_closed": false, "url": "https://www.yelp.com/biz/gravenstein-grill-sebastopol-2?adjust_creative=gJ2vrem5KxinHaV7_d8wAA&utm_campaign=yelp_api_v3&utm_medium=api_v3_business_search&utm_source=gJ2vrem5KxinHaV7_d8wAA", "review_count": 283, "categories": [{"alias": "newamerican", "title": "American (New)"}, {"alias": "bars", "title": "Bars"}, {"alias": "seafood", "title": "Seafood"}], "rating": 4.5, "coordinates": {"latitude": 38.39858, "longitude": -122.84049}, "transactions": ["pickup"], "price": "$$$", "location": {"address1": "8050 Bodega Ave", "address2": null, "address3": "", "city": "Sebastopol", "zip_code": "95472", "country": "US", "state": "CA", "display_address": ["8050 Bodega Ave", "Sebastopol, CA 95472"]}, "phone": "+17076346142", "display_phone": "(707) 634-6142", "distance": 871.7338080495912}, {"id": "s2ZWNhZlHD1GnsVno1Cs0w", "alias": "fern-bar-sebastopol", "name": "Fern Bar", "image_url": "https://s3-media2.fl.yelpcdn.com/bphoto/f21J-fHCjGL6LD1qSbobvw/o.jpg", "is_closed": false, "url": "https://www.yelp.com/biz/fern-bar-sebastopol?adjust_creative=gJ2vrem5KxinHaV7_d8wAA&utm_campaign=yelp_api_v3&utm_medium=api_v3_business_search&utm_source=gJ2vrem5KxinHaV7_d8wAA", "review_count": 135, "categories": [{"alias": "bars", "title": "Bars"}, {"alias": "newamerican", "title": "American (New)"}], "rating": 4.0, "coordinates": {"latitude": 38.40344, "longitude": -122.821307}, "transactions": [], "price": "$$", "location": {"address1": "6780 Depot St", "address2": "Ste 120", "address3": null, "city": "Sebastopol", "zip_code": "95472", "country": "US", "state": "CA", "display_address": ["6780 Depot St", "Ste 120", "Sebastopol, CA 95472"]}, "phone": "+17078619603", "display_phone": "(707) 861-9603", "distance": 880.8479539322062}, {"id": "TQxNLP9KvsT7L6nxmRZUXQ", "alias": "sebastopol-sunshine-cafe-sebastopol", "name": "Sebastopol Sunshine Cafe", "image_url": "https://s3-media4.fl.yelpcdn.com/bphoto/F6sPr97BVrpslx5zQOa2tA/o.jpg", "is_closed": false, "url": "https://www.yelp.com/biz/sebastopol-sunshine-cafe-sebastopol?adjust_creative=gJ2vrem5KxinHaV7_d8wAA&utm_campaign=yelp_api_v3&utm_medium=api_v3_business_search&utm_source=gJ2vrem5KxinHaV7_d8wAA", "review_count": 63, "categories": [{"alias": "tradamerican", "title": "American (Traditional)"}], "rating": 4.5, "coordinates": {"latitude": 38.401698, "longitude": -122.824255}, "transactions": [], "price": "$$", "location": {"address1": "124 S Main St", "address2": null, "address3": "", "city": "Sebastopol", "zip_code": "95472", "country": "US", "state": "CA", "display_address": ["124 S Main St", "Sebastopol, CA 95472"]}, "phone": "+17078273935", "display_phone": "(707) 827-3935", "distance": 570.9789859373749}, {"id": "8VOwaKotgq-X2xu8vr5Y-A", "alias": "hopmonk-tavern-sebastopol-8", "name": "HopMonk Tavern", "image_url": "https://s3-media2.fl.yelpcdn.com/bphoto/6r4pnwUteVWcJ_1p9vieBA/o.jpg", "is_closed": false, "url": "https://www.yelp.com/biz/hopmonk-tavern-sebastopol-8?adjust_creative=gJ2vrem5KxinHaV7_d8wAA&utm_campaign=yelp_api_v3&utm_medium=api_v3_business_search&utm_source=gJ2vrem5KxinHaV7_d8wAA", "review_count": 665, "categories": [{"alias": "musicvenues", "title": "Music Venues"}, {"alias": "pubs", "title": "Pubs"}, {"alias": "newamerican", "title": "American (New)"}], "rating": 3.5, "coordinates": {"latitude": 38.40117, "longitude": -122.82279}, "transactions": ["restaurant_reservation", "delivery", "pickup"], "price": "$$", "location": {"address1": "230 Petaluma Ave", "address2": "", "address3": "", "city": "Sebastopol", "zip_code": "95473", "country": "US", "state": "CA", "display_address": ["230 Petaluma Ave", "Sebastopol, CA 95473"]}, "phone": "+17078297300", "display_phone": "(707) 829-7300", "distance": 693.9071740080875}, {"id": "HSggS4r98f4scx6VTyktfw", "alias": "kathmandu-cafe-and-grill-sebastopol", "name": "Kathmandu Cafe & Grill", "image_url": "https://s3-media2.fl.yelpcdn.com/bphoto/ntXBkGn8ZAe30jUt-RkzgA/o.jpg", "is_closed": false, "url": "https://www.yelp.com/biz/kathmandu-cafe-and-grill-sebastopol?adjust_creative=gJ2vrem5KxinHaV7_d8wAA&utm_campaign=yelp_api_v3&utm_medium=api_v3_business_search&utm_source=gJ2vrem5KxinHaV7_d8wAA", "review_count": 76, "categories": [{"alias": "himalayan", "title": "Himalayan/Nepalese"}], "rating": 5.0, "coordinates": {"latitude": 38.4024905, "longitude": -122.8206292}, "transactions": [], "price": "$$", "location": {"address1": "6761 Sebastopol Ave", "address2": "Ste 700", "address3": null, "city": "Sebastopol", "zip_code": "95472", "country": "US", "state": "CA", "display_address": ["6761 Sebastopol Ave", "Ste 700", "Sebastopol, CA 95472"]}, "phone": "+17078619398", "display_phone": "(707) 861-9398", "distance": 958.8774262435013}, {"id": "g_Oj0BPESzbIzwzosrbgfQ", "alias": "k-and-l-bistro-sebastopol", "name": "K & L Bistro", "image_url": "https://s3-media2.fl.yelpcdn.com/bphoto/GLfa6mQIxHSr-JMVQbeWfw/o.jpg", "is_closed": false, "url": "https://www.yelp.com/biz/k-and-l-bistro-sebastopol?adjust_creative=gJ2vrem5KxinHaV7_d8wAA&utm_campaign=yelp_api_v3&utm_medium=api_v3_business_search&utm_source=gJ2vrem5KxinHaV7_d8wAA", "review_count": 304, "categories": [{"alias": "french", "title": "French"}, {"alias": "bars", "title": "Bars"}], "rating": 3.5, "coordinates": {"latitude": 38.4018956, "longitude": -122.8238749}, "transactions": [], "price": "$$", "location": {"address1": "119 S Main St", "address2": "", "address3": "", "city": "Sebastopol", "zip_code": "95472", "country": "US", "state": "CA", "display_address": ["119 S Main St", "Sebastopol, CA 95472"]}, "phone": "+17078236614", "display_phone": "(707) 823-6614", "distance": 611.1079574009965}, {"id": "-a-QuCYbZS4Qpat_oBDzhA", "alias": "the-farmers-wife-nana-maes-organics-sebastopol", "name": "The Farmer's Wife - Nana Mae's Organics", "image_url": "https://s3-media1.fl.yelpcdn.com/bphoto/w7NZhPn8huyAjpVicG0gTA/o.jpg", "is_closed": false, "url": "https://www.yelp.com/biz/the-farmers-wife-nana-maes-organics-sebastopol?adjust_creative=gJ2vrem5KxinHaV7_d8wAA&utm_campaign=yelp_api_v3&utm_medium=api_v3_business_search&utm_source=gJ2vrem5KxinHaV7_d8wAA", "review_count": 83, "categories": [{"alias": "sandwiches", "title": "Sandwiches"}, {"alias": "foodstands", "title": "Food Stands"}], "rating": 4.5, "coordinates": {"latitude": 38.40039, "longitude": -122.8273}, "transactions": [], "price": "$$", "location": {"address1": "", "address2": "", "address3": "", "city": "Sebastopol", "zip_code": "95472", "country": "US", "state": "CA", "display_address": ["Sebastopol, CA 95472"]}, "phone": "+17072921303", "display_phone": "(707) 292-1303", "distance": 618.9735212871374}, {"id": "aDKmaT6hBBXmbSKrKjhHWA", "alias": "hippizzazz-sebastopol", "name": "Hippizzazz", "image_url": "https://s3-media1.fl.yelpcdn.com/bphoto/8kQ5_gz1YLaBOYEPobpCiQ/o.jpg", "is_closed": false, "url": "https://www.yelp.com/biz/hippizzazz-sebastopol?adjust_creative=gJ2vrem5KxinHaV7_d8wAA&utm_campaign=yelp_api_v3&utm_medium=api_v3_business_search&utm_source=gJ2vrem5KxinHaV7_d8wAA", "review_count": 149, "categories": [{"alias": "pizza", "title": "Pizza"}, {"alias": "gluten_free", "title": "Gluten-Free"}, {"alias": "salad", "title": "Salad"}], "rating": 4.5, "coordinates": {"latitude": 38.4004469443302, "longitude": -122.823606580496}, "transactions": [], "price": "$$", "location": {"address1": "280 S Main St", "address2": "", "address3": null, "city": "Sebastopol", "zip_code": "95472", "country": "US", "state": "CA", "display_address": ["280 S Main St", "Sebastopol, CA 95472"]}, "phone": "+17076346530", "display_phone": "(707) 634-6530", "distance": 608.0756656487027}, {"id": "u465iz5W4eUtt_IRXHhS9g", "alias": "ginger-thai-sebastopol", "name": "Ginger Thai", "image_url": "https://s3-media3.fl.yelpcdn.com/bphoto/Zxbh6CNf5PQWLuDqj9hA_w/o.jpg", "is_closed": false, "url": "https://www.yelp.com/biz/ginger-thai-sebastopol?adjust_creative=gJ2vrem5KxinHaV7_d8wAA&utm_campaign=yelp_api_v3&utm_medium=api_v3_business_search&utm_source=gJ2vrem5KxinHaV7_d8wAA", "review_count": 102, "categories": [{"alias": "thai", "title": "Thai"}], "rating": 4.0, "coordinates": {"latitude": 38.4009222465573, "longitude": -122.823801569183}, "transactions": [], "price": "$$", "location": {"address1": "234 S Main St", "address2": "", "address3": "", "city": "Sebastopol", "zip_code": "95472", "country": "US", "state": "CA", "display_address": ["234 S Main St", "Sebastopol, CA 95472"]}, "phone": "+17078242259", "display_phone": "(707) 824-2259", "distance": 595.0025716661372}, {"id": "slsbLx4rtpGi_1SYKlxKKA", "alias": "namaste-kitchen-sebastopol", "name": "Namaste Kitchen", "image_url": "https://s3-media2.fl.yelpcdn.com/bphoto/cLmzPEOauHlUz5Hg-oyRKg/o.jpg", "is_closed": false, "url": "https://www.yelp.com/biz/namaste-kitchen-sebastopol?adjust_creative=gJ2vrem5KxinHaV7_d8wAA&utm_campaign=yelp_api_v3&utm_medium=api_v3_business_search&utm_source=gJ2vrem5KxinHaV7_d8wAA", "review_count": 66, "categories": [{"alias": "indpak", "title": "Indian"}], "rating": 4.5, "coordinates": {"latitude": 38.40496, "longitude": -122.82851}, "transactions": ["delivery", "pickup"], "price": "$$", "location": {"address1": "7225 Healdsburg Ave", "address2": "", "address3": null, "city": "Sebastopol", "zip_code": "95472", "country": "US", "state": "CA", "display_address": ["7225 Healdsburg Ave", "Sebastopol, CA 95472"]}, "phone": "+17073296965", "display_phone": "(707) 329-6965", "distance": 554.1750126896078}, {"id": "HbLcAVGefAVpudwalnIpaA", "alias": "marthas-old-mexico-sebastopol", "name": "Martha's Old Mexico", "image_url": "https://s3-media1.fl.yelpcdn.com/bphoto/PJugTtYm7DI9vUa8SqZgNQ/o.jpg", "is_closed": false, "url": "https://www.yelp.com/biz/marthas-old-mexico-sebastopol?adjust_creative=gJ2vrem5KxinHaV7_d8wAA&utm_campaign=yelp_api_v3&utm_medium=api_v3_business_search&utm_source=gJ2vrem5KxinHaV7_d8wAA", "review_count": 212, "categories": [{"alias": "mexican", "title": "Mexican"}], "rating": 4.0, "coordinates": {"latitude": 38.404038, "longitude": -122.82497}, "transactions": [], "price": "$$", "location": {"address1": "305 N Main St", "address2": "", "address3": "", "city": "Sebastopol", "zip_code": "95472", "country": "US", "state": "CA", "display_address": ["305 N Main St", "Sebastopol, CA 95472"]}, "phone": "+17078234458", "display_phone": "(707) 823-4458", "distance": 642.5248965358636}, {"id": "-BOlEwlGAwQpbUHlggaZ1Q", "alias": "gypsy-cafe-sebastopol", "name": "Gypsy Cafe", "image_url": "https://s3-media3.fl.yelpcdn.com/bphoto/bSedCNJidqEXpLu0O_FS1w/o.jpg", "is_closed": false, "url": "https://www.yelp.com/biz/gypsy-cafe-sebastopol?adjust_creative=gJ2vrem5KxinHaV7_d8wAA&utm_campaign=yelp_api_v3&utm_medium=api_v3_business_search&utm_source=gJ2vrem5KxinHaV7_d8wAA", "review_count": 296, "categories": [{"alias": "comfortfood", "title": "Comfort Food"}, {"alias": "bars", "title": "Bars"}, {"alias": "breakfast_brunch", "title": "Breakfast & Brunch"}], "rating": 4.0, "coordinates": {"latitude": 38.40278, "longitude": -122.82513}, "transactions": [], "price": "$$", "location": {"address1": "162 N Main St", "address2": "", "address3": "", "city": "Sebastopol", "zip_code": "95472", "country": "US", "state": "CA", "display_address": ["162 N Main St", "Sebastopol, CA 95472"]}, "phone": "+17078613825", "display_phone": "(707) 861-3825", "distance": 559.1136797756911}, {"id": "1eg9_gR34rGShlV6t1t3zw", "alias": "ds-diner-sebastopol", "name": "D's Diner", "image_url": "https://s3-media1.fl.yelpcdn.com/bphoto/S8YJz2_99jEqAb19OrP0Mg/o.jpg", "is_closed": false, "url": "https://www.yelp.com/biz/ds-diner-sebastopol?adjust_creative=gJ2vrem5KxinHaV7_d8wAA&utm_campaign=yelp_api_v3&utm_medium=api_v3_business_search&utm_source=gJ2vrem5KxinHaV7_d8wAA", "review_count": 201, "categories": [{"alias": "diners", "title": "Diners"}], "rating": 4.0, "coordinates": {"latitude": 38.405391, "longitude": -122.828898}, "transactions": [], "price": "$", "location": {"address1": "7260 Healdsburg Ave", "address2": "", "address3": "", "city": "Sebastopol", "zip_code": "95472", "country": "US", "state": "CA", "display_address": ["7260 Healdsburg Ave", "Sebastopol, CA 95472"]}, "phone": "+17078298080", "display_phone": "(707) 829-8080", "distance": 585.9059301126368}, {"id": "sZUsNs0b6541T-fpYti0HQ", "alias": "fandees-restaurant-sebastopol-3", "name": "Fandee's Restaurant", "image_url": "https://s3-media1.fl.yelpcdn.com/bphoto/PrMwWryD_z7sL2PPtqUEQA/o.jpg", "is_closed": false, "url": "https://www.yelp.com/biz/fandees-restaurant-sebastopol-3?adjust_creative=gJ2vrem5KxinHaV7_d8wAA&utm_campaign=yelp_api_v3&utm_medium=api_v3_business_search&utm_source=gJ2vrem5KxinHaV7_d8wAA", "review_count": 214, "categories": [{"alias": "tradamerican", "title": "American (Traditional)"}, {"alias": "mediterranean", "title": "Mediterranean"}, {"alias": "breakfast_brunch", "title": "Breakfast & Brunch"}], "rating": 4.0, "coordinates": {"latitude": 38.40556667, "longitude": -122.83716}, "transactions": [], "price": "$$", "location": {"address1": "7824 Covert Ln", "address2": "", "address3": "", "city": "Sebastopol", "zip_code": "95472", "country": "US", "state": "CA", "display_address": ["7824 Covert Ln", "Sebastopol, CA 95472"]}, "phone": "+17078292642", "display_phone": "(707) 829-2642", "distance": 800.4147820713952}, {"id": "ba2tTcf7yiVu8S7LT_fJOA", "alias": "sushi-kosh\u014d-sebastopol", "name": "Sushi Kosh\u014d", "image_url": "https://s3-media1.fl.yelpcdn.com/bphoto/lYdAA_M-DqY96xcGZQtXDA/o.jpg", "is_closed": false, "url": "https://www.yelp.com/biz/sushi-kosh%C5%8D-sebastopol?adjust_creative=gJ2vrem5KxinHaV7_d8wAA&utm_campaign=yelp_api_v3&utm_medium=api_v3_business_search&utm_source=gJ2vrem5KxinHaV7_d8wAA", "review_count": 84, "categories": [{"alias": "sushi", "title": "Sushi Bars"}, {"alias": "japanese", "title": "Japanese"}], "rating": 4.0, "coordinates": {"latitude": 38.40413, "longitude": -122.82022}, "transactions": [], "location": {"address1": "6750 McKinley Ave", "address2": null, "address3": "", "city": "Sebastopol", "zip_code": "95472", "country": "US", "state": "CA", "display_address": ["6750 McKinley Ave", "Sebastopol, CA 95472"]}, "phone": "+17078276373", "display_phone": "(707) 827-6373", "distance": 998.8228606916532}, {"id": "XSvCE5f9wxTEjXcgQtHKfg", "alias": "sushi-tozai-sebastopol", "name": "Sushi Tozai", "image_url": "https://s3-media3.fl.yelpcdn.com/bphoto/dyO3rs9MmakYcuWN6IUbGw/o.jpg", "is_closed": false, "url": "https://www.yelp.com/biz/sushi-tozai-sebastopol?adjust_creative=gJ2vrem5KxinHaV7_d8wAA&utm_campaign=yelp_api_v3&utm_medium=api_v3_business_search&utm_source=gJ2vrem5KxinHaV7_d8wAA", "review_count": 176, "categories": [{"alias": "japanese", "title": "Japanese"}, {"alias": "sushi", "title": "Sushi Bars"}, {"alias": "asianfusion", "title": "Asian Fusion"}], "rating": 4.0, "coordinates": {"latitude": 38.4050598144531, "longitude": -122.831451416016}, "transactions": [], "price": "$$", "location": {"address1": "7531 Healdsburg Ave", "address2": "", "address3": "", "city": "Sebastopol", "zip_code": "95472", "country": "US", "state": "CA", "display_address": ["7531 Healdsburg Ave", "Sebastopol, CA 95472"]}, "phone": "+17078249886", "display_phone": "(707) 824-9886", "distance": 543.4341869248167}, {"id": "TT_nWeW5isSU-zXVawEvfg", "alias": "sukho-thai-bbq-plus-sebastopol", "name": "Sukho Thai BBQ Plus", "image_url": "https://s3-media4.fl.yelpcdn.com/bphoto/nwaGRnpEcWsP9qZbi4wTmQ/o.jpg", "is_closed": false, "url": "https://www.yelp.com/biz/sukho-thai-bbq-plus-sebastopol?adjust_creative=gJ2vrem5KxinHaV7_d8wAA&utm_campaign=yelp_api_v3&utm_medium=api_v3_business_search&utm_source=gJ2vrem5KxinHaV7_d8wAA", "review_count": 80, "categories": [{"alias": "thai", "title": "Thai"}, {"alias": "salad", "title": "Salad"}, {"alias": "bbq", "title": "Barbeque"}], "rating": 4.0, "coordinates": {"latitude": 38.4051251, "longitude": -122.8284974}, "transactions": ["delivery", "pickup"], "price": "$$", "location": {"address1": "7233 Healdsburg Ave", "address2": "", "address3": null, "city": "Sebastopol", "zip_code": "95472", "country": "US", "state": "CA", "display_address": ["7233 Healdsburg Ave", "Sebastopol, CA 95472"]}, "phone": "+17078276350", "display_phone": "(707) 827-6350", "distance": 535.4641524478591}, {"id": "RZRUERIhlAuD649mnX_5mg", "alias": "slice-of-life-sebastopol", "name": "Slice Of Life", "image_url": "https://s3-media4.fl.yelpcdn.com/bphoto/_QWfg3orMLxz164WtRHttQ/o.jpg", "is_closed": false, "url": "https://www.yelp.com/biz/slice-of-life-sebastopol?adjust_creative=gJ2vrem5KxinHaV7_d8wAA&utm_campaign=yelp_api_v3&utm_medium=api_v3_business_search&utm_source=gJ2vrem5KxinHaV7_d8wAA", "review_count": 322, "categories": [{"alias": "vegetarian", "title": "Vegetarian"}, {"alias": "pizza", "title": "Pizza"}, {"alias": "vegan", "title": "Vegan"}], "rating": 4.0, "coordinates": {"latitude": 38.4035947, "longitude": -122.8240089}, "transactions": [], "price": "$$", "location": {"address1": "6970 McKinley Ave", "address2": "", "address3": "", "city": "Sebastopol", "zip_code": "95472", "country": "US", "state": "CA", "display_address": ["6970 McKinley Ave", "Sebastopol, CA 95472"]}, "phone": "+17078296627", "display_phone": "(707) 829-6627", "distance": 653.2062705516603}, {"id": "7hexPVSvEoe5Q39kie5fhA", "alias": "barrio-fresca-cocina-mexicana-sebastopol", "name": "Barrio Fresca Cocina Mexicana", "image_url": "https://s3-media1.fl.yelpcdn.com/bphoto/5h0ggbvnIn7aTlBK7O5pBQ/o.jpg", "is_closed": false, "url": "https://www.yelp.com/biz/barrio-fresca-cocina-mexicana-sebastopol?adjust_creative=gJ2vrem5KxinHaV7_d8wAA&utm_campaign=yelp_api_v3&utm_medium=api_v3_business_search&utm_source=gJ2vrem5KxinHaV7_d8wAA", "review_count": 94, "categories": [{"alias": "mexican", "title": "Mexican"}], "rating": 4.0, "coordinates": {"latitude": 38.404229, "longitude": -122.820351}, "transactions": [], "price": "$$", "location": {"address1": "6760 McKinley St", "address2": "Ste 140", "address3": "", "city": "Sebastopol", "zip_code": "95472", "country": "US", "state": "CA", "display_address": ["6760 McKinley St", "Ste 140", "Sebastopol, CA 95472"]}, "phone": "+17073296538", "display_phone": "(707) 329-6538", "distance": 993.2988088020984}, {"id": "JFe7AelSbPeGzAGHy6_Jcw", "alias": "king-falafel-sebastopol", "name": "King Falafel", "image_url": "https://s3-media4.fl.yelpcdn.com/bphoto/ZPTOK3S6r7CaShWup_yo7Q/o.jpg", "is_closed": false, "url": "https://www.yelp.com/biz/king-falafel-sebastopol?adjust_creative=gJ2vrem5KxinHaV7_d8wAA&utm_campaign=yelp_api_v3&utm_medium=api_v3_business_search&utm_source=gJ2vrem5KxinHaV7_d8wAA", "review_count": 217, "categories": [{"alias": "mediterranean", "title": "Mediterranean"}, {"alias": "greek", "title": "Greek"}, {"alias": "burgers", "title": "Burgers"}], "rating": 4.0, "coordinates": {"latitude": 38.40254, "longitude": -122.82243}, "transactions": ["pickup"], "price": "$", "location": {"address1": "100 Brown St", "address2": "Ste 150", "address3": "", "city": "Sebastopol", "zip_code": "95472", "country": "US", "state": "CA", "display_address": ["100 Brown St", "Ste 150", "Sebastopol, CA 95472"]}, "phone": "+17078244800", "display_phone": "(707) 824-4800", "distance": 745.8252912505329}, {"id": "icmeu6c_Y33orPS0sJpghw", "alias": "eight-cuisine-and-wine-sebastopol", "name": "Eight Cuisine & Wine", "image_url": "https://s3-media2.fl.yelpcdn.com/bphoto/osty1HNmNxvDfIHIb7OFNA/o.jpg", "is_closed": false, "url": "https://www.yelp.com/biz/eight-cuisine-and-wine-sebastopol?adjust_creative=gJ2vrem5KxinHaV7_d8wAA&utm_campaign=yelp_api_v3&utm_medium=api_v3_business_search&utm_source=gJ2vrem5KxinHaV7_d8wAA", "review_count": 151, "categories": [{"alias": "asianfusion", "title": "Asian Fusion"}, {"alias": "chinese", "title": "Chinese"}, {"alias": "bars", "title": "Bars"}], "rating": 3.5, "coordinates": {"latitude": 38.4051330891635, "longitude": -122.831009871164}, "transactions": [], "price": "$$", "location": {"address1": "7501 Healdsburg Ave", "address2": "", "address3": "", "city": "Sebastopol", "zip_code": "95472", "country": "US", "state": "CA", "display_address": ["7501 Healdsburg Ave", "Sebastopol, CA 95472"]}, "phone": "+17078238189", "display_phone": "(707) 823-8189", "distance": 539.8525145584084}, {"id": "rsgNVw7ZJMHJu3QsxHljiA", "alias": "taqueria-el-favorito-sebastopol", "name": "Taqueria El Favorito", "image_url": "https://s3-media4.fl.yelpcdn.com/bphoto/uUN0RPbCItfgO6P-gdKnVA/o.jpg", "is_closed": false, "url": "https://www.yelp.com/biz/taqueria-el-favorito-sebastopol?adjust_creative=gJ2vrem5KxinHaV7_d8wAA&utm_campaign=yelp_api_v3&utm_medium=api_v3_business_search&utm_source=gJ2vrem5KxinHaV7_d8wAA", "review_count": 129, "categories": [{"alias": "mexican", "title": "Mexican"}], "rating": 4.0, "coordinates": {"latitude": 38.4006118774414, "longitude": -122.824005126953}, "transactions": ["delivery"], "price": "$", "location": {"address1": "250 S Main St", "address2": "", "address3": "", "city": "Sebastopol", "zip_code": "95472", "country": "US", "state": "CA", "display_address": ["250 S Main St", "Sebastopol, CA 95472"]}, "phone": "+17078241599", "display_phone": "(707) 824-1599", "distance": 571.7125655106336}, {"id": "Ote3Ib30-KkMLadhORmIkg", "alias": "bbq-smokehouse-bistro-and-catering-sebastopol", "name": "BBQ Smokehouse Bistro & Catering", "image_url": "https://s3-media2.fl.yelpcdn.com/bphoto/BflkvMGyv9T_ZeVyEbe6kw/o.jpg", "is_closed": false, "url": "https://www.yelp.com/biz/bbq-smokehouse-bistro-and-catering-sebastopol?adjust_creative=gJ2vrem5KxinHaV7_d8wAA&utm_campaign=yelp_api_v3&utm_medium=api_v3_business_search&utm_source=gJ2vrem5KxinHaV7_d8wAA", "review_count": 240, "categories": [{"alias": "bbq", "title": "Barbeque"}], "rating": 3.0, "coordinates": {"latitude": 38.4049298, "longitude": -122.8212188}, "transactions": [], "price": "$$", "location": {"address1": "6811 Laguna Pkwy", "address2": "", "address3": "", "city": "Sebastopol", "zip_code": "95472", "country": "US", "state": "CA", "display_address": ["6811 Laguna Pkwy", "Sebastopol, CA 95472"]}, "phone": "+17075753277", "display_phone": "(707) 575-3277", "distance": 857.806233160479}, {"id": "m0aswxq8qvDv-bWJhKmQxQ", "alias": "muirs-tea-room-sebastopol", "name": "Muir's Tea Room", "image_url": "https://s3-media2.fl.yelpcdn.com/bphoto/AtxNa5WhWUkaXiOM-2BePg/o.jpg", "is_closed": false, "url": "https://www.yelp.com/biz/muirs-tea-room-sebastopol?adjust_creative=gJ2vrem5KxinHaV7_d8wAA&utm_campaign=yelp_api_v3&utm_medium=api_v3_business_search&utm_source=gJ2vrem5KxinHaV7_d8wAA", "review_count": 127, "categories": [{"alias": "tea", "title": "Tea Rooms"}, {"alias": "breakfast_brunch", "title": "Breakfast & Brunch"}], "rating": 4.5, "coordinates": {"latitude": 38.39967, "longitude": -122.82337}, "transactions": [], "price": "$$", "location": {"address1": "330 S Main St", "address2": null, "address3": "", "city": "Sebastopol", "zip_code": "95472", "country": "US", "state": "CA", "display_address": ["330 S Main St", "Sebastopol, CA 95472"]}, "phone": "+17076346143", "display_phone": "(707) 634-6143", "distance": 638.1343899593655}, {"id": "iPYoLmIP14iD07GasWIFCQ", "alias": "khom-loi-sebastopol", "name": "Khom Loi", "image_url": "https://s3-media1.fl.yelpcdn.com/bphoto/Ad_vYbBD6_cYlP07cXGlTg/o.jpg", "is_closed": false, "url": "https://www.yelp.com/biz/khom-loi-sebastopol?adjust_creative=gJ2vrem5KxinHaV7_d8wAA&utm_campaign=yelp_api_v3&utm_medium=api_v3_business_search&utm_source=gJ2vrem5KxinHaV7_d8wAA", "review_count": 2, "categories": [{"alias": "thai", "title": "Thai"}, {"alias": "popuprestaurants", "title": "Pop-Up Restaurants"}], "rating": 4.5, "coordinates": {"latitude": 38.4025899, "longitude": -122.82377}, "transactions": [], "location": {"address1": "6948 Sebastopol Ave", "address2": null, "address3": "", "city": "Sebastopol", "zip_code": "95472", "country": "US", "state": "CA", "display_address": ["6948 Sebastopol Ave", "Sebastopol, CA 95472"]}, "phone": "+17078273609", "display_phone": "(707) 827-3609", "distance": 646.661774558199}, {"id": "YxHcCI-bQo-vT__MDUzP3g", "alias": "mombos-pizza-sebastopol", "name": "Mombo's Pizza", "image_url": "https://s3-media1.fl.yelpcdn.com/bphoto/hI6HrVKozGEcoJ5yMRK2dA/o.jpg", "is_closed": false, "url": "https://www.yelp.com/biz/mombos-pizza-sebastopol?adjust_creative=gJ2vrem5KxinHaV7_d8wAA&utm_campaign=yelp_api_v3&utm_medium=api_v3_business_search&utm_source=gJ2vrem5KxinHaV7_d8wAA", "review_count": 166, "categories": [{"alias": "pizza", "title": "Pizza"}], "rating": 4.0, "coordinates": {"latitude": 38.4059392134618, "longitude": -122.838089466359}, "transactions": [], "price": "$", "location": {"address1": "560 Gravenstein Hwy N", "address2": "", "address3": "", "city": "Sebastopol", "zip_code": "95472", "country": "US", "state": "CA", "display_address": ["560 Gravenstein Hwy N", "Sebastopol, CA 95472"]}, "phone": "+17078237492", "display_phone": "(707) 823-7492", "distance": 906.9943591310667}, {"id": "fpsDvkqasw4MlRSg6XizrA", "alias": "sushi-hana-sebastopol", "name": "Sushi Hana", "image_url": "https://s3-media3.fl.yelpcdn.com/bphoto/P8y2kN6W2seGvnmOfLdtYg/o.jpg", "is_closed": false, "url": "https://www.yelp.com/biz/sushi-hana-sebastopol?adjust_creative=gJ2vrem5KxinHaV7_d8wAA&utm_campaign=yelp_api_v3&utm_medium=api_v3_business_search&utm_source=gJ2vrem5KxinHaV7_d8wAA", "review_count": 231, "categories": [{"alias": "japanese", "title": "Japanese"}, {"alias": "sushi", "title": "Sushi Bars"}], "rating": 3.0, "coordinates": {"latitude": 38.40186, "longitude": -122.82331}, "transactions": [], "price": "$$", "location": {"address1": "6930 Burnett St", "address2": "", "address3": "", "city": "Sebastopol", "zip_code": "95472", "country": "US", "state": "CA", "display_address": ["6930 Burnett St", "Sebastopol, CA 95472"]}, "phone": "+17078233778", "display_phone": "(707) 823-3778", "distance": 658.6636793032634}, {"id": "Gly7_0MObNnMsVhWbG7fIw", "alias": "el-tarasco-restaurant-sebastopol", "name": "El Tarasco Restaurant", "image_url": "https://s3-media4.fl.yelpcdn.com/bphoto/ybF0BAC9748cLZXsOLCtzQ/o.jpg", "is_closed": false, "url": "https://www.yelp.com/biz/el-tarasco-restaurant-sebastopol?adjust_creative=gJ2vrem5KxinHaV7_d8wAA&utm_campaign=yelp_api_v3&utm_medium=api_v3_business_search&utm_source=gJ2vrem5KxinHaV7_d8wAA", "review_count": 54, "categories": [{"alias": "mexican", "title": "Mexican"}, {"alias": "beerbar", "title": "Beer Bar"}], "rating": 4.0, "coordinates": {"latitude": 38.4051251, "longitude": -122.8285102}, "transactions": [], "price": "$", "location": {"address1": "7235 Healdsburg Ave", "address2": "", "address3": "", "city": "Sebastopol", "zip_code": "95472", "country": "US", "state": "CA", "display_address": ["7235 Healdsburg Ave", "Sebastopol, CA 95472"]}, "phone": "+17078299510", "display_phone": "(707) 829-9510", "distance": 535.8463407965392}, {"id": "9YyZxd3Aw9Jl2RUzXFEBIQ", "alias": "thai-pot-sebastopol", "name": "Thai Pot", "image_url": "https://s3-media2.fl.yelpcdn.com/bphoto/VKLMiiKY9S3hivj8SLiZxw/o.jpg", "is_closed": false, "url": "https://www.yelp.com/biz/thai-pot-sebastopol?adjust_creative=gJ2vrem5KxinHaV7_d8wAA&utm_campaign=yelp_api_v3&utm_medium=api_v3_business_search&utm_source=gJ2vrem5KxinHaV7_d8wAA", "review_count": 91, "categories": [{"alias": "thai", "title": "Thai"}], "rating": 3.5, "coordinates": {"latitude": 38.40204, "longitude": -122.82371}, "transactions": ["delivery", "pickup"], "price": "$$", "location": {"address1": "6961 Sebastopol Ave", "address2": "", "address3": "", "city": "Sebastopol", "zip_code": "95472", "country": "US", "state": "CA", "display_address": ["6961 Sebastopol Ave", "Sebastopol, CA 95472"]}, "phone": "+17078298889", "display_phone": "(707) 829-8889", "distance": 632.4686420798699}, {"id": "mHLG-8rLd-re0BBW9OI7KQ", "alias": "buddies-pizza-sebastopol", "name": "Buddies Pizza", "image_url": "https://s3-media1.fl.yelpcdn.com/bphoto/R8dSDqulSHQ6M8a1BJewCQ/o.jpg", "is_closed": false, "url": "https://www.yelp.com/biz/buddies-pizza-sebastopol?adjust_creative=gJ2vrem5KxinHaV7_d8wAA&utm_campaign=yelp_api_v3&utm_medium=api_v3_business_search&utm_source=gJ2vrem5KxinHaV7_d8wAA", "review_count": 79, "categories": [{"alias": "pizza", "title": "Pizza"}, {"alias": "salad", "title": "Salad"}, {"alias": "chicken_wings", "title": "Chicken Wings"}], "rating": 4.0, "coordinates": {"latitude": 38.3989930211522, "longitude": -122.839633435909}, "transactions": [], "price": "$", "location": {"address1": "177 Pleasant Hill Ave N", "address2": "", "address3": "", "city": "Sebastopol", "zip_code": "95472", "country": "US", "state": "CA", "display_address": ["177 Pleasant Hill Ave N", "Sebastopol, CA 95472"]}, "phone": "+17078231183", "display_phone": "(707) 823-1183", "distance": 744.2996553891945}, {"id": "m5UL2D3j8AboxmQGtGGOyw", "alias": "bamboo-chinese-classics-sebastopol", "name": "Bamboo Chinese Classics", "image_url": "https://s3-media4.fl.yelpcdn.com/bphoto/KwQr0HWFz1QMxM3KOSueyg/o.jpg", "is_closed": false, "url": "https://www.yelp.com/biz/bamboo-chinese-classics-sebastopol?adjust_creative=gJ2vrem5KxinHaV7_d8wAA&utm_campaign=yelp_api_v3&utm_medium=api_v3_business_search&utm_source=gJ2vrem5KxinHaV7_d8wAA", "review_count": 35, "categories": [{"alias": "chinese", "title": "Chinese"}], "rating": 3.5, "coordinates": {"latitude": 38.4051582, "longitude": -122.8309469}, "transactions": [], "price": "$$", "location": {"address1": "7501 Healdsburg Ave", "address2": "", "address3": "Eight Cuisine Wine", "city": "Sebastopol", "zip_code": "95472", "country": "US", "state": "CA", "display_address": ["7501 Healdsburg Ave", "Eight Cuisine Wine", "Sebastopol, CA 95472"]}, "phone": "+17078238189", "display_phone": "(707) 823-8189", "distance": 542.2883740877219}, {"id": "eYfLUeRSVORtFYDWTa89Tw", "alias": "giovannis-italian-delicatessen-and-cafe-sebastopol-2", "name": "Giovanni's Italian Delicatessen & Cafe", "image_url": "https://s3-media2.fl.yelpcdn.com/bphoto/fdYkJ7GhwNlq3vFFvrh7dg/o.jpg", "is_closed": false, "url": "https://www.yelp.com/biz/giovannis-italian-delicatessen-and-cafe-sebastopol-2?adjust_creative=gJ2vrem5KxinHaV7_d8wAA&utm_campaign=yelp_api_v3&utm_medium=api_v3_business_search&utm_source=gJ2vrem5KxinHaV7_d8wAA", "review_count": 69, "categories": [{"alias": "delis", "title": "Delis"}, {"alias": "italian", "title": "Italian"}, {"alias": "breakfast_brunch", "title": "Breakfast & Brunch"}], "rating": 3.5, "coordinates": {"latitude": 38.399192, "longitude": -122.838996}, "transactions": ["pickup"], "price": "$$", "location": {"address1": "173 Pleasant Hill Ave N", "address2": "", "address3": "", "city": "Sebastopol", "zip_code": "95472", "country": "US", "state": "CA", "display_address": ["173 Pleasant Hill Ave N", "Sebastopol, CA 95472"]}, "phone": "+17078231331", "display_phone": "(707) 823-1331", "distance": 743.3393626890245}, {"id": "xzYVyDYDGmXHCOwUDDWjng", "alias": "westside-cafe-sebastopol", "name": "Westside Cafe", "image_url": "https://s3-media1.fl.yelpcdn.com/bphoto/YwCpcm0eVVgiFcWXPSZ44g/o.jpg", "is_closed": false, "url": "https://www.yelp.com/biz/westside-cafe-sebastopol?adjust_creative=gJ2vrem5KxinHaV7_d8wAA&utm_campaign=yelp_api_v3&utm_medium=api_v3_business_search&utm_source=gJ2vrem5KxinHaV7_d8wAA", "review_count": 32, "categories": [{"alias": "coffee", "title": "Coffee & Tea"}, {"alias": "cafes", "title": "Cafes"}], "rating": 4.5, "coordinates": {"latitude": 38.3989369512418, "longitude": -122.83963303258}, "transactions": [], "price": "$", "location": {"address1": "171 Pleasant Hill Ave N", "address2": "", "address3": "", "city": "Sebastopol", "zip_code": "95472", "country": "US", "state": "CA", "display_address": ["171 Pleasant Hill Ave N", "Sebastopol, CA 95472"]}, "phone": "+17078231800", "display_phone": "(707) 823-1800", "distance": 752.2347794657685}, {"id": "GBk7pclBKYYxv5zGNcPkZA", "alias": "the-nectary-sebastopol", "name": "The Nectary", "image_url": "https://s3-media1.fl.yelpcdn.com/bphoto/hFOT_lXm66wWzO82fISNrg/o.jpg", "is_closed": false, "url": "https://www.yelp.com/biz/the-nectary-sebastopol?adjust_creative=gJ2vrem5KxinHaV7_d8wAA&utm_campaign=yelp_api_v3&utm_medium=api_v3_business_search&utm_source=gJ2vrem5KxinHaV7_d8wAA", "review_count": 78, "categories": [{"alias": "juicebars", "title": "Juice Bars & Smoothies"}, {"alias": "raw_food", "title": "Live/Raw Food"}], "rating": 4.0, "coordinates": {"latitude": 38.404201, "longitude": -122.820334}, "transactions": ["pickup"], "price": "$", "location": {"address1": "6760 McKinley St", "address2": "Ste 130", "address3": "", "city": "Sebastopol", "zip_code": "95472", "country": "US", "state": "CA", "display_address": ["6760 McKinley St", "Ste 130", "Sebastopol, CA 95472"]}, "phone": "+17078292697", "display_phone": "(707) 829-2697", "distance": 993.2615137030934}, {"id": "vfpB-FW3Z8ZHPBtsw4ETQg", "alias": "east-west-cafe-sebastopol", "name": "East West Cafe", "image_url": "https://s3-media1.fl.yelpcdn.com/bphoto/0cBxIVR-DnDoljsEG5AHcA/o.jpg", "is_closed": false, "url": "https://www.yelp.com/biz/east-west-cafe-sebastopol?adjust_creative=gJ2vrem5KxinHaV7_d8wAA&utm_campaign=yelp_api_v3&utm_medium=api_v3_business_search&utm_source=gJ2vrem5KxinHaV7_d8wAA", "review_count": 222, "categories": [{"alias": "mediterranean", "title": "Mediterranean"}, {"alias": "breakfast_brunch", "title": "Breakfast & Brunch"}, {"alias": "vegetarian", "title": "Vegetarian"}], "rating": 3.5, "coordinates": {"latitude": 38.402423, "longitude": -122.8245861}, "transactions": [], "price": "$$", "location": {"address1": "128 N Main St", "address2": "", "address3": "", "city": "Sebastopol", "zip_code": "95472", "country": "US", "state": "CA", "display_address": ["128 N Main St", "Sebastopol, CA 95472"]}, "phone": "+17078292822", "display_phone": "(707) 829-2822", "distance": 571.7242404869725}, {"id": "JZO17_32x7EG45cxnPGxDg", "alias": "sebastopol-liquor-and-delicatessen-sebastopol", "name": "Sebastopol Liquor & Delicatessen", "image_url": "https://s3-media2.fl.yelpcdn.com/bphoto/48zxL_pfjg0IEqVk7mx8ow/o.jpg", "is_closed": false, "url": "https://www.yelp.com/biz/sebastopol-liquor-and-delicatessen-sebastopol?adjust_creative=gJ2vrem5KxinHaV7_d8wAA&utm_campaign=yelp_api_v3&utm_medium=api_v3_business_search&utm_source=gJ2vrem5KxinHaV7_d8wAA", "review_count": 13, "categories": [{"alias": "delis", "title": "Delis"}, {"alias": "beer_and_wine", "title": "Beer, Wine & Spirits"}], "rating": 4.5, "coordinates": {"latitude": 38.4028221776535, "longitude": -122.82112398004}, "transactions": [], "price": "$", "location": {"address1": "6800 Sebastopol Ave", "address2": "", "address3": "", "city": "Sebastopol", "zip_code": "95472", "country": "US", "state": "CA", "display_address": ["6800 Sebastopol Ave", "Sebastopol, CA 95472"]}, "phone": "+17078233188", "display_phone": "(707) 823-3188", "distance": 870.9314943443756}, {"id": "EnnLXsvAcJGNSSLyW5Iikw", "alias": "marys-pizza-shack-sebastopol", "name": "Mary's Pizza Shack", "image_url": "https://s3-media1.fl.yelpcdn.com/bphoto/YWVj9Z6Jgnl-3_1_N0N3rQ/o.jpg", "is_closed": false, "url": "https://www.yelp.com/biz/marys-pizza-shack-sebastopol?adjust_creative=gJ2vrem5KxinHaV7_d8wAA&utm_campaign=yelp_api_v3&utm_medium=api_v3_business_search&utm_source=gJ2vrem5KxinHaV7_d8wAA", "review_count": 93, "categories": [{"alias": "pizza", "title": "Pizza"}, {"alias": "italian", "title": "Italian"}], "rating": 3.0, "coordinates": {"latitude": 38.40828, "longitude": -122.84039}, "transactions": [], "price": "$$", "location": {"address1": "790 Gravenstein Hwy N", "address2": "", "address3": "", "city": "Sebastopol", "zip_code": "95472", "country": "US", "state": "CA", "display_address": ["790 Gravenstein Hwy N", "Sebastopol, CA 95472"]}, "phone": "+17078295800", "display_phone": "(707) 829-5800", "distance": 1209.814385685879}, {"id": "EmRXglmqfZaJRz1m0oc3Dg", "alias": "grateful-bagel-sebastopol", "name": "Grateful Bagel", "image_url": "https://s3-media1.fl.yelpcdn.com/bphoto/WuLn4faV2wJT16PYcgIPUQ/o.jpg", "is_closed": false, "url": "https://www.yelp.com/biz/grateful-bagel-sebastopol?adjust_creative=gJ2vrem5KxinHaV7_d8wAA&utm_campaign=yelp_api_v3&utm_medium=api_v3_business_search&utm_source=gJ2vrem5KxinHaV7_d8wAA", "review_count": 130, "categories": [{"alias": "bagels", "title": "Bagels"}, {"alias": "sandwiches", "title": "Sandwiches"}, {"alias": "breakfast_brunch", "title": "Breakfast & Brunch"}], "rating": 3.5, "coordinates": {"latitude": 38.4000101, "longitude": -122.8232535}, "transactions": [], "price": "$", "location": {"address1": "300 S Main St", "address2": "", "address3": "", "city": "Sebastopol", "zip_code": "95472", "country": "US", "state": "CA", "display_address": ["300 S Main St", "Sebastopol, CA 95472"]}, "phone": "+17078295220", "display_phone": "(707) 829-5220", "distance": 633.0198081680672}, {"id": "hQ4f4JkEq3coHsWLHx9lGQ", "alias": "coffee-catz-sebastopol", "name": "Coffee Catz", "image_url": "https://s3-media3.fl.yelpcdn.com/bphoto/EvHihydfxp2TcNCdFnCn2w/o.jpg", "is_closed": false, "url": "https://www.yelp.com/biz/coffee-catz-sebastopol?adjust_creative=gJ2vrem5KxinHaV7_d8wAA&utm_campaign=yelp_api_v3&utm_medium=api_v3_business_search&utm_source=gJ2vrem5KxinHaV7_d8wAA", "review_count": 93, "categories": [{"alias": "coffee", "title": "Coffee & Tea"}, {"alias": "sandwiches", "title": "Sandwiches"}], "rating": 4.0, "coordinates": {"latitude": 38.402523, "longitude": -122.8203964}, "transactions": [], "price": "$", "location": {"address1": "6761 Sebastopol Ave", "address2": "", "address3": "", "city": "Sebastopol", "zip_code": "95472", "country": "US", "state": "CA", "display_address": ["6761 Sebastopol Ave", "Sebastopol, CA 95472"]}, "phone": "+17078296600", "display_phone": "(707) 829-6600", "distance": 958.8774262435013}, {"id": "5I2zm1XYrc6R5R3v1RvzlQ", "alias": "diaz-catering-truck-sebastopol", "name": "Diaz Catering Truck", "image_url": "https://s3-media2.fl.yelpcdn.com/bphoto/VRLAsmls8GlDq7Cneeay6w/o.jpg", "is_closed": false, "url": "https://www.yelp.com/biz/diaz-catering-truck-sebastopol?adjust_creative=gJ2vrem5KxinHaV7_d8wAA&utm_campaign=yelp_api_v3&utm_medium=api_v3_business_search&utm_source=gJ2vrem5KxinHaV7_d8wAA", "review_count": 18, "categories": [{"alias": "foodtrucks", "title": "Food Trucks"}, {"alias": "mexican", "title": "Mexican"}], "rating": 4.0, "coordinates": {"latitude": 38.411169, "longitude": -122.841085}, "transactions": [], "price": "$", "location": {"address1": "1005 Graveinstein Hwy N", "address2": null, "address3": "", "city": "Sebastopol", "zip_code": "95472", "country": "US", "state": "CA", "display_address": ["1005 Graveinstein Hwy N", "Sebastopol, CA 95472"]}, "phone": "+17075705827", "display_phone": "(707) 570-5827", "distance": 1516.9214061535886}, {"id": "hOAVQIOzVFUrA4q3u02fZw", "alias": "papa-murphys-sebastopol-2", "name": "Papa Murphy's", "image_url": "", "is_closed": false, "url": "https://www.yelp.com/biz/papa-murphys-sebastopol-2?adjust_creative=gJ2vrem5KxinHaV7_d8wAA&utm_campaign=yelp_api_v3&utm_medium=api_v3_business_search&utm_source=gJ2vrem5KxinHaV7_d8wAA", "review_count": 13, "categories": [{"alias": "pizza", "title": "Pizza"}], "rating": 3.0, "coordinates": {"latitude": 38.40495, "longitude": -122.82901}, "transactions": [], "location": {"address1": "7231 Healdsburg Avenue", "address2": "Suite A", "address3": "", "city": "Sebastopol", "zip_code": "95472", "country": "US", "state": "CA", "display_address": ["7231 Healdsburg Avenue", "Suite A", "Sebastopol, CA 95472"]}, "phone": "+17078297272", "display_phone": "(707) 829-7272", "distance": 559.0096209953325}, {"id": "eIjx5rq02WKr5C_OWgMoCg", "alias": "taco-bell-sebastopol", "name": "Taco Bell", "image_url": "https://s3-media1.fl.yelpcdn.com/bphoto/rQn1NUULFRqjgW9PFbggWg/o.jpg", "is_closed": false, "url": "https://www.yelp.com/biz/taco-bell-sebastopol?adjust_creative=gJ2vrem5KxinHaV7_d8wAA&utm_campaign=yelp_api_v3&utm_medium=api_v3_business_search&utm_source=gJ2vrem5KxinHaV7_d8wAA", "review_count": 17, "categories": [{"alias": "hotdogs", "title": "Fast Food"}, {"alias": "tacos", "title": "Tacos"}], "rating": 3.0, "coordinates": {"latitude": 38.40903, "longitude": -122.84057}, "transactions": ["delivery"], "price": "$", "location": {"address1": "860 Gravenstein Hwy North", "address2": "", "address3": "", "city": "Sebastopol", "zip_code": "95472", "country": "US", "state": "CA", "display_address": ["860 Gravenstein Hwy North", "Sebastopol, CA 95472"]}, "phone": "+17078241500", "display_phone": "(707) 824-1500", "distance": 1299.3213446917273}, {"id": "we3ALIHCLwifQ8Ow1NWi2w", "alias": "burger-king-sebastopol", "name": "Burger King", "image_url": "https://s3-media1.fl.yelpcdn.com/bphoto/4fD2Gi3zpj4tDtyv1L2gRw/o.jpg", "is_closed": false, "url": "https://www.yelp.com/biz/burger-king-sebastopol?adjust_creative=gJ2vrem5KxinHaV7_d8wAA&utm_campaign=yelp_api_v3&utm_medium=api_v3_business_search&utm_source=gJ2vrem5KxinHaV7_d8wAA", "review_count": 21, "categories": [{"alias": "burgers", "title": "Burgers"}, {"alias": "hotdogs", "title": "Fast Food"}], "rating": 1.5, "coordinates": {"latitude": 38.4072494506836, "longitude": -122.83869934082}, "transactions": [], "price": "$", "location": {"address1": "700 Gravenstein Hwy N", "address2": "", "address3": "", "city": "Sebastopol", "zip_code": "95472", "country": "US", "state": "CA", "display_address": ["700 Gravenstein Hwy N", "Sebastopol, CA 95472"]}, "phone": "+17078233255", "display_phone": "(707) 823-3255", "distance": 1053.8321581364316}, {"id": "NBjm4RSxKX1wPxUbJ78pBg", "alias": "lucca-liquor-deli-grocery-sebastopol", "name": "Lucca Liquor-Deli-Grocery", "image_url": "https://s3-media2.fl.yelpcdn.com/bphoto/k4Y_zpNIl02ke_oN3f24EQ/o.jpg", "is_closed": false, "url": "https://www.yelp.com/biz/lucca-liquor-deli-grocery-sebastopol?adjust_creative=gJ2vrem5KxinHaV7_d8wAA&utm_campaign=yelp_api_v3&utm_medium=api_v3_business_search&utm_source=gJ2vrem5KxinHaV7_d8wAA", "review_count": 6, "categories": [{"alias": "delis", "title": "Delis"}, {"alias": "sandwiches", "title": "Sandwiches"}], "rating": 2.5, "coordinates": {"latitude": 38.3982799, "longitude": -122.8219373}, "transactions": [], "price": "$$$$", "location": {"address1": "495 S Main St", "address2": null, "address3": null, "city": "Sebastopol", "zip_code": "95472", "country": "US", "state": "CA", "display_address": ["495 S Main St", "Sebastopol, CA 95472"]}, "phone": "+17078232069", "display_phone": "(707) 823-2069", "distance": 792.8866935389177}, {"id": "Veu64APMamfE4egIbwh7zQ", "alias": "main-street-liquor-and-deli-sebastopol", "name": "Main Street Liquor & Deli", "image_url": "", "is_closed": false, "url": "https://www.yelp.com/biz/main-street-liquor-and-deli-sebastopol?adjust_creative=gJ2vrem5KxinHaV7_d8wAA&utm_campaign=yelp_api_v3&utm_medium=api_v3_business_search&utm_source=gJ2vrem5KxinHaV7_d8wAA", "review_count": 2, "categories": [{"alias": "delis", "title": "Delis"}], "rating": 4.5, "coordinates": {"latitude": 38.3982799, "longitude": -122.8219373}, "transactions": [], "price": "$", "location": {"address1": "495 S Main St", "address2": "", "address3": "", "city": "Sebastopol", "zip_code": "95472", "country": "US", "state": "CA", "display_address": ["495 S Main St", "Sebastopol, CA 95472"]}, "phone": "+17078232069", "display_phone": "(707) 823-2069", "distance": 792.8866935389177}, {"id": "zv86iBCHn-kmarnkdtDzrg", "alias": "subway-restaurants-sebastopol", "name": "Subway Restaurants", "image_url": "https://s3-media3.fl.yelpcdn.com/bphoto/HucbyJ4ovNQhwArQuZ1crQ/o.jpg", "is_closed": false, "url": "https://www.yelp.com/biz/subway-restaurants-sebastopol?adjust_creative=gJ2vrem5KxinHaV7_d8wAA&utm_campaign=yelp_api_v3&utm_medium=api_v3_business_search&utm_source=gJ2vrem5KxinHaV7_d8wAA", "review_count": 6, "categories": [{"alias": "sandwiches", "title": "Sandwiches"}], "rating": 3.0, "coordinates": {"latitude": 38.407671, "longitude": -122.840029}, "transactions": ["delivery", "pickup"], "price": "$", "location": {"address1": "780 Gravenstein Highway North", "address2": "", "address3": "", "city": "Sebastopol", "zip_code": "95472", "country": "US", "state": "CA", "display_address": ["780 Gravenstein Highway North", "Sebastopol, CA 95472"]}, "phone": "+17078238148", "display_phone": "(707) 823-8148", "distance": 1162.4737563200194}, {"id": "i6ZwMjYIbmFZ8EGYz6x5Bw", "alias": "phat-salads-and-wraps-napa", "name": "Phat Salads and Wraps", "image_url": "https://s3-media2.fl.yelpcdn.com/bphoto/FbrUwtrVIx2cLXiPdBhHkw/o.jpg", "is_closed": false, "url": "https://www.yelp.com/biz/phat-salads-and-wraps-napa?adjust_creative=gJ2vrem5KxinHaV7_d8wAA&utm_campaign=yelp_api_v3&utm_medium=api_v3_business_search&utm_source=gJ2vrem5KxinHaV7_d8wAA", "review_count": 48, "categories": [{"alias": "foodtrucks", "title": "Food Trucks"}, {"alias": "wraps", "title": "Wraps"}], "rating": 4.0, "coordinates": {"latitude": 38.3234491, "longitude": -122.3023962}, "transactions": [], "price": "$", "location": {"address1": "", "address2": "", "address3": "", "city": "Napa", "zip_code": "94558", "country": "US", "state": "CA", "display_address": ["Napa, CA 94558"]}, "phone": "+17073639658", "display_phone": "(707) 363-9658", "distance": 46837.60260640245}, {"id": "noqlnoOOQg5CCXJGP3of-Q", "alias": "mendocino-bbq-catering-ukiah", "name": "Mendocino BBQ Catering", "image_url": "https://s3-media4.fl.yelpcdn.com/bphoto/OZUrirzQcPOLuDRcjkJh0Q/o.jpg", "is_closed": false, "url": "https://www.yelp.com/biz/mendocino-bbq-catering-ukiah?adjust_creative=gJ2vrem5KxinHaV7_d8wAA&utm_campaign=yelp_api_v3&utm_medium=api_v3_business_search&utm_source=gJ2vrem5KxinHaV7_d8wAA", "review_count": 7, "categories": [{"alias": "catering", "title": "Caterers"}, {"alias": "bbq", "title": "Barbeque"}, {"alias": "foodtrucks", "title": "Food Trucks"}], "rating": 5.0, "coordinates": {"latitude": 39.1549905, "longitude": -123.2078366}, "transactions": [], "location": {"address1": "585 N State St", "address2": null, "address3": "", "city": "Ukiah", "zip_code": "95482", "country": "US", "state": "CA", "display_address": ["585 N State St", "Ukiah, CA 95482"]}, "phone": "+17073917647", "display_phone": "(707) 391-7647", "distance": 90065.39616117928}]}