{"location": "Sonoma, CA", "term": "restaurant", "radius": 1503, "businesses": [{"id": "vksopFaoRRJxnYciVHfomw", "alias": "the-girl-and-the-fig-sonoma", "name": "The Girl & The Fig", "image_url": "https://s3-media2.fl.yelpcdn.com/bphoto/E1lvkF-swY_793wbxW81QQ/o.jpg", "is_closed": false, "url": "https://www.yelp.com/biz/the-girl-and-the-fig-sonoma?adjust_creative=gJ2vrem5KxinHaV7_d8wAA&utm_campaign=yelp_api_v3&utm_medium=api_v3_business_search&utm_source=gJ2vrem5KxinHaV7_d8wAA", "review_count": 3468, "categories": [{"alias": "french", "title": "French"}, {"alias": "cocktailbars", "title": "Cocktail Bars"}, {"alias": "breakfast_brunch", "title": "Breakfast & Brunch"}], "rating": 4.0, "coordinates": {"latitude": 38.293911528871, "longitude": -122.45879428569}, "transactions": [], "price": "$$", "location": {"address1": "110 W Spain St", "address2": "", "address3": "", "city": "Sonoma", "zip_code": "95476", "country": "US", "state": "CA", "display_address": ["110 W Spain St", "Sonoma, CA 95476"]}, "phone": "+17079383634", "display_phone": "(707) 938-3634", "distance": 586.9303025296969}, {"id": "C41VLoi85E0H91Arfqhpug", "alias": "hopmonk-tavern-sonoma", "name": "HopMonk Tavern", "image_url": "https://s3-media2.fl.yelpcdn.com/bphoto/tl5MINzknIkD7rn9SOlUGw/o.jpg", "is_closed": false, "url": "https://www.yelp.com/biz/hopmonk-tavern-sonoma?adjust_creative=gJ2vrem5KxinHaV7_d8wAA&utm_campaign=yelp_api_v3&utm_medium=api_v3_business_search&utm_source=gJ2vrem5KxinHaV7_d8wAA", "review_count": 686, "categories": [{"alias": "tradamerican", "title": "American (Traditional)"}, {"alias": "pubs", "title": "Pubs"}, {"alias": "musicvenues", "title": "Music Venues"}], "rating": 4.0, "coordinates": {"latitude": 38.28858, "longitude": -122.45895}, "transactions": ["restaurant_reservation"], "price": "$$", "location": {"address1": "691 Broadway", "address2": "", "address3": "", "city": "Sonoma", "zip_code": "95476", "country": "US", "state": "CA", "display_address": ["691 Broadway", "Sonoma, CA 95476"]}, "phone": "+17079359100", "display_phone": "(707) 935-9100", "distance": 458.83328729601385}, {"id": "M6HjBovGie3eg_kreRkFrw", "alias": "oso-sonoma-sonoma", "name": "OSO Sonoma", "image_url": "https://s3-media4.fl.yelpcdn.com/bphoto/SN5REby6kgLdM0PIpo6OQA/o.jpg", "is_closed": false, "url": "https://www.yelp.com/biz/oso-sonoma-sonoma?adjust_creative=gJ2vrem5KxinHaV7_d8wAA&utm_campaign=yelp_api_v3&utm_medium=api_v3_business_search&utm_source=gJ2vrem5KxinHaV7_d8wAA", "review_count": 456, "categories": [{"alias": "newamerican", "title": "American (New)"}, {"alias": "seafood", "title": "Seafood"}, {"alias": "tapas", "title": "Tapas Bars"}], "rating": 4.0, "coordinates": {"latitude": 38.2916297912598, "longitude": -122.457557678223}, "transactions": [], "price": "$$", "location": {"address1": "9 E Napa St", "address2": "", "address3": "", "city": "Sonoma", "zip_code": "95476", "country": "US", "state": "CA", "display_address": ["9 E Napa St", "Sonoma, CA 95476"]}, "phone": "+17079316926", "display_phone": "(707) 931-6926", "distance": 551.8934954898948}, {"id": "dbU7CpCLNKsOPoi4KudC0w", "alias": "della-santinas-trattoria-sonoma", "name": "Della Santina's Trattoria", "image_url": "https://s3-media3.fl.yelpcdn.com/bphoto/abZeWHWMLMerr7RLvRUC6g/o.jpg", "is_closed": false, "url": "https://www.yelp.com/biz/della-santinas-trattoria-sonoma?adjust_creative=gJ2vrem5KxinHaV7_d8wAA&utm_campaign=yelp_api_v3&utm_medium=api_v3_business_search&utm_source=gJ2vrem5KxinHaV7_d8wAA", "review_count": 810, "categories": [{"alias": "italian", "title": "Italian"}], "rating": 4.0, "coordinates": {"latitude": 38.291654, "longitude": -122.456007}, "transactions": ["restaurant_reservation"], "price": "$$", "location": {"address1": "133 E Napa St", "address2": "", "address3": "", "city": "Sonoma", "zip_code": "95476", "country": "US", "state": "CA", "display_address": ["133 E Napa St", "Sonoma, CA 95476"]}, "phone": "+17079350576", "display_phone": "(707) 935-0576", "distance": 679.6727960002278}, {"id": "tgctDAp0LUVO9r9cjKPh6g", "alias": "lasalette-restaurant-sonoma", "name": "LaSalette Restaurant", "image_url": "https://s3-media4.fl.yelpcdn.com/bphoto/lqvCUzrak4Awza1LDfp4BQ/o.jpg", "is_closed": false, "url": "https://www.yelp.com/biz/lasalette-restaurant-sonoma?adjust_creative=gJ2vrem5KxinHaV7_d8wAA&utm_campaign=yelp_api_v3&utm_medium=api_v3_business_search&utm_source=gJ2vrem5KxinHaV7_d8wAA", "review_count": 737, "categories": [{"alias": "portuguese", "title": "Portuguese"}, {"alias": "wine_bars", "title": "Wine Bars"}, {"alias": "mediterranean", "title": "Mediterranean"}], "rating": 4.0, "coordinates": {"latitude": 38.29264, "longitude": -122.45636}, "transactions": [], "price": "$$", "location": {"address1": "452 1st St E", "address2": "Ste H", "address3": "", "city": "Sonoma", "zip_code": "95476", "country": "US", "state": "CA", "display_address": ["452 1st St E", "Ste H", "Sonoma, CA 95476"]}, "phone": "+17079381927", "display_phone": "(707) 938-1927", "distance": 690.9179476222588}, {"id": "M4eU0FifBTZ_49p0HoIgkg", "alias": "mamma-taninos-ristorante-sonoma", "name": "Mamma Tanino's Ristorante", "image_url": "https://s3-media2.fl.yelpcdn.com/bphoto/gjwLZdkPKOMxVnHImqJf9A/o.jpg", "is_closed": false, "url": "https://www.yelp.com/biz/mamma-taninos-ristorante-sonoma?adjust_creative=gJ2vrem5KxinHaV7_d8wAA&utm_campaign=yelp_api_v3&utm_medium=api_v3_business_search&utm_source=gJ2vrem5KxinHaV7_d8wAA", "review_count": 266, "categories": [{"alias": "italian", "title": "Italian"}], "rating": 4.5, "coordinates": {"latitude": 38.2928333314542, "longitude": -122.468419075012}, "transactions": [], "price": "$$", "location": {"address1": "500 W Napa St", "address2": "Ste 512", "address3": "", "city": "Sonoma", "zip_code": "95476", "country": "US", "state": "CA", "display_address": ["500 W Napa St", "Ste 512", "Sonoma, CA 95476"]}, "phone": "+17079338826", "display_phone": "(707) 933-8826", "distance": 514.9735457537292}, {"id": "4iqSzhA0rvJw8hhW--nHgg", "alias": "sonoma-grille-sonoma", "name": "Sonoma Grille", "image_url": "https://s3-media2.fl.yelpcdn.com/bphoto/ARSbO0tnW_RlZrHFJkfhWQ/o.jpg", "is_closed": false, "url": "https://www.yelp.com/biz/sonoma-grille-sonoma?adjust_creative=gJ2vrem5KxinHaV7_d8wAA&utm_campaign=yelp_api_v3&utm_medium=api_v3_business_search&utm_source=gJ2vrem5KxinHaV7_d8wAA", "review_count": 291, "categories": [{"alias": "seafood", "title": "Seafood"}, {"alias": "steak", "title": "Steakhouses"}, {"alias": "beer_and_wine", "title": "Beer, Wine & Spirits"}], "rating": 4.0, "coordinates": {"latitude": 38.2918663024902, "longitude": -122.460525512695}, "transactions": [], "price": "$$$", "location": {"address1": "165 W Napa St", "address2": "", "address3": "", "city": "Sonoma", "zip_code": "95476", "country": "US", "state": "CA", "display_address": ["165 W Napa St", "Sonoma, CA 95476"]}, "phone": "+17079387542", "display_phone": "(707) 938-7542", "distance": 334.0186675748294}, {"id": "uOnjfuF3jEsBI2zXCkA_Pw", "alias": "tasca-tasca-sonoma", "name": "Tasca Tasca", "image_url": "https://s3-media2.fl.yelpcdn.com/bphoto/SU5zZioX5NPpM_NtnLBr-w/o.jpg", "is_closed": false, "url": "https://www.yelp.com/biz/tasca-tasca-sonoma?adjust_creative=gJ2vrem5KxinHaV7_d8wAA&utm_campaign=yelp_api_v3&utm_medium=api_v3_business_search&utm_source=gJ2vrem5KxinHaV7_d8wAA", "review_count": 198, "categories": [{"alias": "wine_bars", "title": "Wine Bars"}, {"alias": "portuguese", "title": "Portuguese"}, {"alias": "tapas", "title": "Tapas Bars"}], "rating": 4.5, "coordinates": {"latitude": 38.2921791720321, "longitude": -122.459487957103}, "transactions": [], "price": "$$", "location": {"address1": "122 W Napa St", "address2": "", "address3": "", "city": "Sonoma", "zip_code": "95476", "country": "US", "state": "CA", "display_address": ["122 W Napa St", "Sonoma, CA 95476"]}, "phone": "+17079968272", "display_phone": "(707) 996-8272", "distance": 419.0249295768981}, {"id": "6h2DdwBX-5lTMvgKcHN62Q", "alias": "el-dorado-kitchen-sonoma", "name": "El Dorado Kitchen", "image_url": "https://s3-media3.fl.yelpcdn.com/bphoto/9Gm4MIpTTgI04DGr2wMGUw/o.jpg", "is_closed": false, "url": "https://www.yelp.com/biz/el-dorado-kitchen-sonoma?adjust_creative=gJ2vrem5KxinHaV7_d8wAA&utm_campaign=yelp_api_v3&utm_medium=api_v3_business_search&utm_source=gJ2vrem5KxinHaV7_d8wAA", "review_count": 1090, "categories": [{"alias": "newamerican", "title": "American (New)"}, {"alias": "seafood", "title": "Seafood"}, {"alias": "breakfast_brunch", "title": "Breakfast & Brunch"}], "rating": 4.0, "coordinates": {"latitude": 38.293699, "longitude": -122.458968}, "transactions": [], "price": "$$$", "location": {"address1": "405 1st St W", "address2": "", "address3": "", "city": "Sonoma", "zip_code": "95476", "country": "US", "state": "CA", "display_address": ["405 1st St W", "Sonoma, CA 95476"]}, "phone": "+17079963030", "display_phone": "(707) 996-3030", "distance": 559.5588569082448}, {"id": "KN5NHENe_HTTWoEERMo1dw", "alias": "pho-ha-vietnamese-restaurant-sonoma", "name": "Pho Ha VietNamese Restaurant", "image_url": "https://s3-media2.fl.yelpcdn.com/bphoto/euonacqze2DwM70Fkk8VIw/o.jpg", "is_closed": false, "url": "https://www.yelp.com/biz/pho-ha-vietnamese-restaurant-sonoma?adjust_creative=gJ2vrem5KxinHaV7_d8wAA&utm_campaign=yelp_api_v3&utm_medium=api_v3_business_search&utm_source=gJ2vrem5KxinHaV7_d8wAA", "review_count": 25, "categories": [{"alias": "vietnamese", "title": "Vietnamese"}, {"alias": "noodles", "title": "Noodles"}, {"alias": "soup", "title": "Soup"}], "rating": 3.0, "coordinates": {"latitude": 38.291759, "longitude": -122.4689889}, "transactions": [], "location": {"address1": "565 5th St W", "address2": null, "address3": "", "city": "Sonoma", "zip_code": "95476", "country": "US", "state": "CA", "display_address": ["565 5th St W", "Sonoma, CA 95476"]}, "phone": "+17079387659", "display_phone": "(707) 938-7659", "distance": 503.9271916692236}, {"id": "ShhqpI7rDsDb89Us7EA9mw", "alias": "the-red-grape-sonoma-2", "name": "The Red Grape", "image_url": "https://s3-media2.fl.yelpcdn.com/bphoto/5ABC92s5MPDeVFYg3UX8RA/o.jpg", "is_closed": false, "url": "https://www.yelp.com/biz/the-red-grape-sonoma-2?adjust_creative=gJ2vrem5KxinHaV7_d8wAA&utm_campaign=yelp_api_v3&utm_medium=api_v3_business_search&utm_source=gJ2vrem5KxinHaV7_d8wAA", "review_count": 677, "categories": [{"alias": "pizza", "title": "Pizza"}, {"alias": "italian", "title": "Italian"}], "rating": 4.0, "coordinates": {"latitude": 38.2914800941944, "longitude": -122.459111809731}, "transactions": [], "price": "$$", "location": {"address1": "529 1st St W", "address2": "", "address3": "", "city": "Sonoma", "zip_code": "95476", "country": "US", "state": "CA", "display_address": ["529 1st St W", "Sonoma, CA 95476"]}, "phone": "+17079964103", "display_phone": "(707) 996-4103", "distance": 420.61331632521296}, {"id": "jmyzDQzSkXbD3RbdcZVdxQ", "alias": "layla-sonoma", "name": "Layla", "image_url": "https://s3-media2.fl.yelpcdn.com/bphoto/KATI4kH-5gveRzKS6aYWUw/o.jpg", "is_closed": false, "url": "https://www.yelp.com/biz/layla-sonoma?adjust_creative=gJ2vrem5KxinHaV7_d8wAA&utm_campaign=yelp_api_v3&utm_medium=api_v3_business_search&utm_source=gJ2vrem5KxinHaV7_d8wAA", "review_count": 70, "categories": [{"alias": "mediterranean", "title": "Mediterranean"}, {"alias": "newamerican", "title": "American (New)"}, {"alias": "seafood", "title": "Seafood"}], "rating": 4.0, "coordinates": {"latitude": 38.283957, "longitude": -122.456822}, "transactions": [], "location": {"address1": "29 E MacArthur St", "address2": null, "address3": "MacArthur Place", "city": "Sonoma", "zip_code": "95476", "country": "US", "state": "CA", "display_address": ["29 E MacArthur St", "MacArthur Place", "Sonoma, CA 95476"]}, "phone": "+18007221866", "display_phone": "(800) 722-1866", "distance": 910.1865127622731}, {"id": "mPXN-h4nduk24rdJfUQUoQ", "alias": "b-and-v-whiskey-bar-and-grille-sonoma-2", "name": "B&V Whiskey Bar & Grille", "image_url": "https://s3-media2.fl.yelpcdn.com/bphoto/3JHDd_sfCsg93DkaNtHOUg/o.jpg", "is_closed": false, "url": "https://www.yelp.com/biz/b-and-v-whiskey-bar-and-grille-sonoma-2?adjust_creative=gJ2vrem5KxinHaV7_d8wAA&utm_campaign=yelp_api_v3&utm_medium=api_v3_business_search&utm_source=gJ2vrem5KxinHaV7_d8wAA", "review_count": 417, "categories": [{"alias": "tradamerican", "title": "American (Traditional)"}, {"alias": "seafood", "title": "Seafood"}, {"alias": "steak", "title": "Steakhouses"}], "rating": 3.5, "coordinates": {"latitude": 38.2934303, "longitude": -122.4561291}, "transactions": ["restaurant_reservation"], "price": "$$", "location": {"address1": "400 1st St E", "address2": "", "address3": "", "city": "Sonoma", "zip_code": "95476", "country": "US", "state": "CA", "display_address": ["400 1st St E", "Sonoma, CA 95476"]}, "phone": "+17079387110", "display_phone": "(707) 938-7110", "distance": 742.3607496753723}, {"id": "p8Y8ILLIlOuI-lNjzriWlw", "alias": "jacobs-restaurant-sonoma-2", "name": "Jacob's Restaurant", "image_url": "https://s3-media4.fl.yelpcdn.com/bphoto/67-g-o4HZN5fK7AK9pQFYw/o.jpg", "is_closed": false, "url": "https://www.yelp.com/biz/jacobs-restaurant-sonoma-2?adjust_creative=gJ2vrem5KxinHaV7_d8wAA&utm_campaign=yelp_api_v3&utm_medium=api_v3_business_search&utm_source=gJ2vrem5KxinHaV7_d8wAA", "review_count": 94, "categories": [{"alias": "pizza", "title": "Pizza"}, {"alias": "italian", "title": "Italian"}], "rating": 4.5, "coordinates": {"latitude": 38.2782475, "longitude": -122.4597564}, "transactions": [], "location": {"address1": "1266 Broadway", "address2": "", "address3": null, "city": "Sonoma", "zip_code": "95476", "country": "US", "state": "CA", "display_address": ["1266 Broadway", "Sonoma, CA 95476"]}, "phone": "+17079964024", "display_phone": "(707) 996-4024", "distance": 1384.6351866676098}, {"id": "uQzaTmUTwZQ79LT4ZopGXA", "alias": "sunflower-caffe-sonoma", "name": "Sunflower Caffe", "image_url": "https://s3-media1.fl.yelpcdn.com/bphoto/-ePMpeNJTnxKqs0AJpilqQ/o.jpg", "is_closed": false, "url": "https://www.yelp.com/biz/sunflower-caffe-sonoma?adjust_creative=gJ2vrem5KxinHaV7_d8wAA&utm_campaign=yelp_api_v3&utm_medium=api_v3_business_search&utm_source=gJ2vrem5KxinHaV7_d8wAA", "review_count": 1206, "categories": [{"alias": "coffee", "title": "Coffee & Tea"}, {"alias": "tradamerican", "title": "American (Traditional)"}, {"alias": "breakfast_brunch", "title": "Breakfast & Brunch"}], "rating": 4.0, "coordinates": {"latitude": 38.29344, "longitude": -122.458831}, "transactions": [], "price": "$$", "location": {"address1": "421 1st St W", "address2": null, "address3": "", "city": "Sonoma", "zip_code": "95476", "country": "US", "state": "CA", "display_address": ["421 1st St W", "Sonoma, CA 95476"]}, "phone": "+17079966645", "display_phone": "(707) 996-6645", "distance": 548.8525383131641}, {"id": "n8zObJOJV__ZGh71hOF8xg", "alias": "taste-of-the-himalayas-sonoma", "name": "Taste of the Himalayas", "image_url": "https://s3-media4.fl.yelpcdn.com/bphoto/ufM6LpplCJu72HK_j6_hww/o.jpg", "is_closed": false, "url": "https://www.yelp.com/biz/taste-of-the-himalayas-sonoma?adjust_creative=gJ2vrem5KxinHaV7_d8wAA&utm_campaign=yelp_api_v3&utm_medium=api_v3_business_search&utm_source=gJ2vrem5KxinHaV7_d8wAA", "review_count": 341, "categories": [{"alias": "himalayan", "title": "Himalayan/Nepalese"}, {"alias": "indpak", "title": "Indian"}], "rating": 4.5, "coordinates": {"latitude": 38.2923255, "longitude": -122.4564735}, "transactions": [], "price": "$$", "location": {"address1": "464 1st St E", "address2": null, "address3": "", "city": "Sonoma", "zip_code": "95476", "country": "US", "state": "CA", "display_address": ["464 1st St E", "Sonoma, CA 95476"]}, "phone": "+17079961161", "display_phone": "(707) 996-1161", "distance": 728.2589572299919}, {"id": "I1PC5Ge79zGdx1s7AvVwRQ", "alias": "picazo-kitchen-and-bar-sonoma", "name": "Picazo Kitchen & Bar", "image_url": "https://s3-media2.fl.yelpcdn.com/bphoto/eAY-2YTOgJkt4Toa8WkBWQ/o.jpg", "is_closed": false, "url": "https://www.yelp.com/biz/picazo-kitchen-and-bar-sonoma?adjust_creative=gJ2vrem5KxinHaV7_d8wAA&utm_campaign=yelp_api_v3&utm_medium=api_v3_business_search&utm_source=gJ2vrem5KxinHaV7_d8wAA", "review_count": 67, "categories": [{"alias": "diners", "title": "Diners"}, {"alias": "wine_bars", "title": "Wine Bars"}, {"alias": "cocktailbars", "title": "Cocktail Bars"}], "rating": 4.0, "coordinates": {"latitude": 38.30034167, "longitude": -122.47519083}, "transactions": [], "location": {"address1": "19101 CA 12", "address2": null, "address3": "", "city": "Sonoma", "zip_code": "95476", "country": "US", "state": "CA", "display_address": ["19101 CA 12", "Sonoma, CA 95476"]}, "phone": "+17079353287", "display_phone": "(707) 935-3287", "distance": 1526.5929578172324}, {"id": "7ZqF6jZYLryPMN45HkPrtg", "alias": "cafe-la-haye-sonoma", "name": "Cafe La Haye", "image_url": "https://s3-media3.fl.yelpcdn.com/bphoto/lwq4oeXy57dHgTI7QNdhDg/o.jpg", "is_closed": false, "url": "https://www.yelp.com/biz/cafe-la-haye-sonoma?adjust_creative=gJ2vrem5KxinHaV7_d8wAA&utm_campaign=yelp_api_v3&utm_medium=api_v3_business_search&utm_source=gJ2vrem5KxinHaV7_d8wAA", "review_count": 272, "categories": [{"alias": "newamerican", "title": "American (New)"}], "rating": 4.5, "coordinates": {"latitude": 38.2918930053711, "longitude": -122.455749511719}, "transactions": [], "price": "$$$", "location": {"address1": "140 E Napa St", "address2": "", "address3": "", "city": "Sonoma", "zip_code": "95476", "country": "US", "state": "CA", "display_address": ["140 E Napa St", "Sonoma, CA 95476"]}, "phone": "+17079355994", "display_phone": "(707) 935-5994", "distance": 696.3689178953724}, {"id": "CRQjZvgyXP5lIBFkffXg0w", "alias": "enoteca-della-santina-sonoma", "name": "Enoteca Della Santina", "image_url": "https://s3-media2.fl.yelpcdn.com/bphoto/xQi-_RfLayX0_3oAQZT9UA/o.jpg", "is_closed": false, "url": "https://www.yelp.com/biz/enoteca-della-santina-sonoma?adjust_creative=gJ2vrem5KxinHaV7_d8wAA&utm_campaign=yelp_api_v3&utm_medium=api_v3_business_search&utm_source=gJ2vrem5KxinHaV7_d8wAA", "review_count": 41, "categories": [{"alias": "wine_bars", "title": "Wine Bars"}, {"alias": "italian", "title": "Italian"}], "rating": 4.5, "coordinates": {"latitude": 38.2916835, "longitude": -122.4560294}, "transactions": [], "price": "$$", "location": {"address1": "127 E Napa St", "address2": "", "address3": "", "city": "Sonoma", "zip_code": "95476", "country": "US", "state": "CA", "display_address": ["127 E Napa St", "Sonoma, CA 95476"]}, "phone": "+17079384200", "display_phone": "(707) 938-4200", "distance": 678.5671536207066}, {"id": "AcHXWNp1B-v-91AWN7d2xQ", "alias": "la-casa-restaurant-and-bar-sonoma", "name": "La Casa Restaurant & Bar", "image_url": "https://s3-media3.fl.yelpcdn.com/bphoto/4rslKPOI-iLU0bMJTkB6sw/o.jpg", "is_closed": false, "url": "https://www.yelp.com/biz/la-casa-restaurant-and-bar-sonoma?adjust_creative=gJ2vrem5KxinHaV7_d8wAA&utm_campaign=yelp_api_v3&utm_medium=api_v3_business_search&utm_source=gJ2vrem5KxinHaV7_d8wAA", "review_count": 257, "categories": [{"alias": "mexican", "title": "Mexican"}, {"alias": "bars", "title": "Bars"}], "rating": 3.5, "coordinates": {"latitude": 38.2933853, "longitude": -122.4557385}, "transactions": ["restaurant_reservation"], "price": "$$", "location": {"address1": "121 E Spain St", "address2": "", "address3": "", "city": "Sonoma", "zip_code": "95476", "country": "US", "state": "CA", "display_address": ["121 E Spain St", "Sonoma, CA 95476"]}, "phone": "+17079963406", "display_phone": "(707) 996-3406", "distance": 761.6028757356466}, {"id": "KEmqhbX0dfiVxoGDNzPTgw", "alias": "bangkok-9-sonoma", "name": "Bangkok 9", "image_url": "https://s3-media4.fl.yelpcdn.com/bphoto/MDeU4QrF5Xp0OYZodujHkQ/o.jpg", "is_closed": false, "url": "https://www.yelp.com/biz/bangkok-9-sonoma?adjust_creative=gJ2vrem5KxinHaV7_d8wAA&utm_campaign=yelp_api_v3&utm_medium=api_v3_business_search&utm_source=gJ2vrem5KxinHaV7_d8wAA", "review_count": 94, "categories": [{"alias": "thai", "title": "Thai"}], "rating": 4.0, "coordinates": {"latitude": 38.2918513, "longitude": -122.4617136}, "transactions": [], "price": "$$", "location": {"address1": "201 W Napa St", "address2": "Ste 9", "address3": "", "city": "Sonoma", "zip_code": "95476", "country": "US", "state": "CA", "display_address": ["201 W Napa St", "Ste 9", "Sonoma, CA 95476"]}, "phone": "+17079388477", "display_phone": "(707) 938-8477", "distance": 245.28725818723427}, {"id": "welrw67O0TVmb4n8dPtNxg", "alias": "shige-sushi-japanese-kitchen-sonoma", "name": "Shige Sushi Japanese Kitchen", "image_url": "https://s3-media3.fl.yelpcdn.com/bphoto/WWbca8qmzcm30tc8_vtpwg/o.jpg", "is_closed": false, "url": "https://www.yelp.com/biz/shige-sushi-japanese-kitchen-sonoma?adjust_creative=gJ2vrem5KxinHaV7_d8wAA&utm_campaign=yelp_api_v3&utm_medium=api_v3_business_search&utm_source=gJ2vrem5KxinHaV7_d8wAA", "review_count": 51, "categories": [{"alias": "sushi", "title": "Sushi Bars"}, {"alias": "japanese", "title": "Japanese"}], "rating": 4.0, "coordinates": {"latitude": 38.30039, "longitude": -122.47641}, "transactions": [], "price": "$$", "location": {"address1": "19161 Sonoma Hwy", "address2": "", "address3": null, "city": "Sonoma", "zip_code": "95476", "country": "US", "state": "CA", "display_address": ["19161 Sonoma Hwy", "Sonoma, CA 95476"]}, "phone": "+17079339331", "display_phone": "(707) 933-9331", "distance": 1461.4067182881934}, {"id": "Ni5wPd2kFcEWIPhQPf1-WQ", "alias": "delhi-belly-indian-bistro-sonoma", "name": "Delhi Belly Indian Bistro", "image_url": "https://s3-media4.fl.yelpcdn.com/bphoto/udDqy3xTBkpsNRn4lE1oTg/o.jpg", "is_closed": false, "url": "https://www.yelp.com/biz/delhi-belly-indian-bistro-sonoma?adjust_creative=gJ2vrem5KxinHaV7_d8wAA&utm_campaign=yelp_api_v3&utm_medium=api_v3_business_search&utm_source=gJ2vrem5KxinHaV7_d8wAA", "review_count": 237, "categories": [{"alias": "indpak", "title": "Indian"}], "rating": 4.5, "coordinates": {"latitude": 38.2914, "longitude": -122.45757}, "transactions": ["pickup"], "price": "$$", "location": {"address1": "522 Broadway", "address2": null, "address3": "", "city": "Sonoma", "zip_code": "95476", "country": "US", "state": "CA", "display_address": ["522 Broadway", "Sonoma, CA 95476"]}, "phone": "+17073431003", "display_phone": "(707) 343-1003", "distance": 537.0379274850462}, {"id": "0JE5MlRwuDQCuUkrToqnQA", "alias": "el-coyote-sonoma", "name": "El Coyote", "image_url": "https://s3-media2.fl.yelpcdn.com/bphoto/QJA2weMa-AD18qL4IE5Dpw/o.jpg", "is_closed": false, "url": "https://www.yelp.com/biz/el-coyote-sonoma?adjust_creative=gJ2vrem5KxinHaV7_d8wAA&utm_campaign=yelp_api_v3&utm_medium=api_v3_business_search&utm_source=gJ2vrem5KxinHaV7_d8wAA", "review_count": 68, "categories": [{"alias": "foodtrucks", "title": "Food Trucks"}, {"alias": "mexican", "title": "Mexican"}], "rating": 4.5, "coordinates": {"latitude": 38.2828293, "longitude": -122.4596329}, "transactions": [], "price": "$", "location": {"address1": "1001 Broadway", "address2": "", "address3": "", "city": "Sonoma", "zip_code": "95476", "country": "US", "state": "CA", "display_address": ["1001 Broadway", "Sonoma, CA 95476"]}, "phone": "+17075085516", "display_phone": "(707) 508-5516", "distance": 891.195756774706}, {"id": "5MQD_FWUHUyG82G2h6PRbw", "alias": "ovello-sonoma", "name": "Ovello", "image_url": "https://s3-media2.fl.yelpcdn.com/bphoto/wpbG6NtcvWGNxC5TTwzZ0Q/o.jpg", "is_closed": false, "url": "https://www.yelp.com/biz/ovello-sonoma?adjust_creative=gJ2vrem5KxinHaV7_d8wAA&utm_campaign=yelp_api_v3&utm_medium=api_v3_business_search&utm_source=gJ2vrem5KxinHaV7_d8wAA", "review_count": 9, "categories": [{"alias": "cheese", "title": "Cheese Shops"}, {"alias": "italian", "title": "Italian"}], "rating": 4.5, "coordinates": {"latitude": 38.292631, "longitude": -122.462167}, "transactions": [], "location": {"address1": "248 W Napa St", "address2": "", "address3": null, "city": "Sonoma", "zip_code": "95476", "country": "US", "state": "CA", "display_address": ["248 W Napa St", "Sonoma, CA 95476"]}, "phone": "+17077211478", "display_phone": "(707) 721-1478", "distance": 294.7939305547171}, {"id": "e7jTOCgYRdqXtRkR2a9G2A", "alias": "frenchie-sonoma", "name": "Frenchie", "image_url": "https://s3-media2.fl.yelpcdn.com/bphoto/FbaIAQKzrPiRyRfVQu0m1g/o.jpg", "is_closed": false, "url": "https://www.yelp.com/biz/frenchie-sonoma?adjust_creative=gJ2vrem5KxinHaV7_d8wAA&utm_campaign=yelp_api_v3&utm_medium=api_v3_business_search&utm_source=gJ2vrem5KxinHaV7_d8wAA", "review_count": 10, "categories": [{"alias": "french", "title": "French"}], "rating": 4.5, "coordinates": {"latitude": 38.29149, "longitude": -122.45825}, "transactions": [], "location": {"address1": "521B Broadway", "address2": null, "address3": "", "city": "Sonoma", "zip_code": "95476", "country": "US", "state": "CA", "display_address": ["521B Broadway", "Sonoma, CA 95476"]}, "phone": "+17073437559", "display_phone": "(707) 343-7559", "distance": 492.0324561117716}, {"id": "bSWENN3WZpEYp_Oo9RViQA", "alias": "depot-hotel-restaurant-sonoma-8", "name": "Depot Hotel Restaurant", "image_url": "https://s3-media2.fl.yelpcdn.com/bphoto/y5VPz_DmvcZSAaLZHr9Eug/o.jpg", "is_closed": false, "url": "https://www.yelp.com/biz/depot-hotel-restaurant-sonoma-8?adjust_creative=gJ2vrem5KxinHaV7_d8wAA&utm_campaign=yelp_api_v3&utm_medium=api_v3_business_search&utm_source=gJ2vrem5KxinHaV7_d8wAA", "review_count": 208, "categories": [{"alias": "italian", "title": "Italian"}, {"alias": "venues", "title": "Venues & Event Spaces"}, {"alias": "pizza", "title": "Pizza"}], "rating": 4.0, "coordinates": {"latitude": 38.296645798786, "longitude": -122.458161}, "transactions": [], "price": "$$", "location": {"address1": "241 1st St W", "address2": "", "address3": "", "city": "Sonoma", "zip_code": "95476", "country": "US", "state": "CA", "display_address": ["241 1st St W", "Sonoma, CA 95476"]}, "phone": "+17079382980", "display_phone": "(707) 938-2980", "distance": 858.6868759021263}, {"id": "DnZreLdeYUsJncYZ5hti0A", "alias": "kashayas-portable-wood-fired-pizza-sonoma", "name": "Kashaya's Portable Wood fired Pizza", "image_url": "https://s3-media1.fl.yelpcdn.com/bphoto/NuigYcF3fK-tRcH2CCTFww/o.jpg", "is_closed": false, "url": "https://www.yelp.com/biz/kashayas-portable-wood-fired-pizza-sonoma?adjust_creative=gJ2vrem5KxinHaV7_d8wAA&utm_campaign=yelp_api_v3&utm_medium=api_v3_business_search&utm_source=gJ2vrem5KxinHaV7_d8wAA", "review_count": 20, "categories": [{"alias": "pizza", "title": "Pizza"}], "rating": 4.5, "coordinates": {"latitude": 38.29203, "longitude": -122.45897}, "transactions": [], "price": "$$", "location": {"address1": "1st St W & W Napa St", "address2": "", "address3": "Sonoma Square", "city": "Sonoma", "zip_code": "95476", "country": "US", "state": "CA", "display_address": ["1st St W & W Napa St", "Sonoma Square", "Sonoma, CA 95476"]}, "phone": "+17073036064", "display_phone": "(707) 303-6064", "distance": 451.01584019385257}, {"id": "4BYuAMDtMrwwLd4y64Rcwg", "alias": "swiss-bar-and-restaurant-sonoma", "name": "Swiss Bar & Restaurant", "image_url": "https://s3-media1.fl.yelpcdn.com/bphoto/xBMHNlBkXv4EgQd5tVpR8Q/o.jpg", "is_closed": false, "url": "https://www.yelp.com/biz/swiss-bar-and-restaurant-sonoma?adjust_creative=gJ2vrem5KxinHaV7_d8wAA&utm_campaign=yelp_api_v3&utm_medium=api_v3_business_search&utm_source=gJ2vrem5KxinHaV7_d8wAA", "review_count": 247, "categories": [{"alias": "italian", "title": "Italian"}], "rating": 3.5, "coordinates": {"latitude": 38.293876560653, "longitude": -122.45798503985}, "transactions": [], "price": "$$", "location": {"address1": "18 W Spain St", "address2": "", "address3": "", "city": "Sonoma", "zip_code": "95476", "country": "US", "state": "CA", "display_address": ["18 W Spain St", "Sonoma, CA 95476"]}, "phone": "+17079382884", "display_phone": "(707) 938-2884", "distance": 636.5087858606548}, {"id": "l2xc6MlwNqYHO0TDFvJDcw", "alias": "tortilleria-jalisco-sonoma", "name": "Tortilleria Jalisco", "image_url": "https://s3-media2.fl.yelpcdn.com/bphoto/2Kota7HhVC-tyrA5CpmO3w/o.jpg", "is_closed": false, "url": "https://www.yelp.com/biz/tortilleria-jalisco-sonoma?adjust_creative=gJ2vrem5KxinHaV7_d8wAA&utm_campaign=yelp_api_v3&utm_medium=api_v3_business_search&utm_source=gJ2vrem5KxinHaV7_d8wAA", "review_count": 173, "categories": [{"alias": "mexican", "title": "Mexican"}], "rating": 4.0, "coordinates": {"latitude": 38.2930068969727, "longitude": -122.475143432617}, "transactions": [], "price": "$", "location": {"address1": "897 W Napa St", "address2": "", "address3": "", "city": "Sonoma", "zip_code": "95476", "country": "US", "state": "CA", "display_address": ["897 W Napa St", "Sonoma, CA 95476"]}, "phone": "+17079357356", "display_phone": "(707) 935-7356", "distance": 1052.5042898479112}, {"id": "jj33gZbnZLzqQBcmKxyjKQ", "alias": "sonoma-market-sonoma", "name": "Sonoma Market", "image_url": "https://s3-media4.fl.yelpcdn.com/bphoto/47rnOs2cBM61nHz8Zzs8qA/o.jpg", "is_closed": false, "url": "https://www.yelp.com/biz/sonoma-market-sonoma?adjust_creative=gJ2vrem5KxinHaV7_d8wAA&utm_campaign=yelp_api_v3&utm_medium=api_v3_business_search&utm_source=gJ2vrem5KxinHaV7_d8wAA", "review_count": 269, "categories": [{"alias": "grocery", "title": "Grocery"}, {"alias": "markets", "title": "Fruits & Veggies"}, {"alias": "sandwiches", "title": "Sandwiches"}], "rating": 4.0, "coordinates": {"latitude": 38.293457, "longitude": -122.46882}, "transactions": [], "price": "$$", "location": {"address1": "500 W Napa St", "address2": "Ste 550", "address3": "", "city": "Sonoma", "zip_code": "95476", "country": "US", "state": "CA", "display_address": ["500 W Napa St", "Ste 550", "Sonoma, CA 95476"]}, "phone": "+17079963411", "display_phone": "(707) 996-3411", "distance": 584.4136151823313}, {"id": "M6d1p-bA7JUc4iwa3K103A", "alias": "maya-sonoma-2", "name": "Maya", "image_url": "https://s3-media2.fl.yelpcdn.com/bphoto/wPehlr_nMWuUXOw4-kxzqQ/o.jpg", "is_closed": false, "url": "https://www.yelp.com/biz/maya-sonoma-2?adjust_creative=gJ2vrem5KxinHaV7_d8wAA&utm_campaign=yelp_api_v3&utm_medium=api_v3_business_search&utm_source=gJ2vrem5KxinHaV7_d8wAA", "review_count": 448, "categories": [{"alias": "mexican", "title": "Mexican"}], "rating": 3.5, "coordinates": {"latitude": 38.2916313, "longitude": -122.4565036}, "transactions": [], "price": "$$", "location": {"address1": "101 E Napa St", "address2": "", "address3": "", "city": "Sonoma", "zip_code": "95476", "country": "US", "state": "CA", "display_address": ["101 E Napa St", "Sonoma, CA 95476"]}, "phone": "+17079353500", "display_phone": "(707) 935-3500", "distance": 621.8015436252867}, {"id": "hWfk9L4o-p3mMz97pmFRCQ", "alias": "la-hacienda-mexican-grill-sonoma", "name": "La Hacienda Mexican Grill", "image_url": "https://s3-media4.fl.yelpcdn.com/bphoto/to0mzjdTMGw6-NOcx9qgzw/o.jpg", "is_closed": false, "url": "https://www.yelp.com/biz/la-hacienda-mexican-grill-sonoma?adjust_creative=gJ2vrem5KxinHaV7_d8wAA&utm_campaign=yelp_api_v3&utm_medium=api_v3_business_search&utm_source=gJ2vrem5KxinHaV7_d8wAA", "review_count": 17, "categories": [{"alias": "mexican", "title": "Mexican"}], "rating": 4.0, "coordinates": {"latitude": 38.291847591937, "longitude": -122.469053417444}, "transactions": [], "location": {"address1": "561 5th St W", "address2": "", "address3": null, "city": "Sonoma", "zip_code": "95476", "country": "US", "state": "CA", "display_address": ["561 5th St W", "Sonoma, CA 95476"]}, "phone": "+17079961783", "display_phone": "(707) 996-1783", "distance": 512.6636445099842}, {"id": "6_QTJzTUAUXgc4hUFaEvxg", "alias": "homegrown-baking-co-sonoma", "name": "Homegrown Baking Co", "image_url": "https://s3-media2.fl.yelpcdn.com/bphoto/4mQbTO7Y-SsYREv83I8A9Q/o.jpg", "is_closed": false, "url": "https://www.yelp.com/biz/homegrown-baking-co-sonoma?adjust_creative=gJ2vrem5KxinHaV7_d8wAA&utm_campaign=yelp_api_v3&utm_medium=api_v3_business_search&utm_source=gJ2vrem5KxinHaV7_d8wAA", "review_count": 96, "categories": [{"alias": "bagels", "title": "Bagels"}, {"alias": "sandwiches", "title": "Sandwiches"}], "rating": 4.0, "coordinates": {"latitude": 38.290080162538, "longitude": -122.463111831458}, "transactions": [], "price": "$", "location": {"address1": "201 W Napa St", "address2": "Ste 21", "address3": "", "city": "Sonoma", "zip_code": "95476", "country": "US", "state": "CA", "display_address": ["201 W Napa St", "Ste 21", "Sonoma, CA 95476"]}, "phone": "+17079960166", "display_phone": "(707) 996-0166", "distance": 41.93976658570545}, {"id": "3I6Hj0kTuWuAZJ286q4IDA", "alias": "carneros-bistro-sonoma", "name": "Carneros Bistro", "image_url": "https://s3-media4.fl.yelpcdn.com/bphoto/o4-CQUatWsHUuWKk2YkSDA/o.jpg", "is_closed": false, "url": "https://www.yelp.com/biz/carneros-bistro-sonoma?adjust_creative=gJ2vrem5KxinHaV7_d8wAA&utm_campaign=yelp_api_v3&utm_medium=api_v3_business_search&utm_source=gJ2vrem5KxinHaV7_d8wAA", "review_count": 220, "categories": [{"alias": "newamerican", "title": "American (New)"}, {"alias": "wine_bars", "title": "Wine Bars"}], "rating": 3.5, "coordinates": {"latitude": 38.277338, "longitude": -122.460444}, "transactions": [], "price": "$$$", "location": {"address1": "1326 Broadway", "address2": "", "address3": "", "city": "Sonoma", "zip_code": "95477", "country": "US", "state": "CA", "display_address": ["1326 Broadway", "Sonoma, CA 95477"]}, "phone": "+17079313405", "display_phone": "(707) 931-3405", "distance": 1455.4084342399021}, {"id": "wGcqrpDl2Bcv9gHrNVA7Zw", "alias": "basque-boulangerie-cafe-sonoma", "name": "Basque Boulangerie Cafe", "image_url": "https://s3-media3.fl.yelpcdn.com/bphoto/qLhvc7NLgdisueGnIvnGww/o.jpg", "is_closed": false, "url": "https://www.yelp.com/biz/basque-boulangerie-cafe-sonoma?adjust_creative=gJ2vrem5KxinHaV7_d8wAA&utm_campaign=yelp_api_v3&utm_medium=api_v3_business_search&utm_source=gJ2vrem5KxinHaV7_d8wAA", "review_count": 543, "categories": [{"alias": "bakeries", "title": "Bakeries"}, {"alias": "desserts", "title": "Desserts"}, {"alias": "cafes", "title": "Cafes"}], "rating": 3.5, "coordinates": {"latitude": 38.292531, "longitude": -122.456434}, "transactions": [], "price": "$", "location": {"address1": "460 1st St E", "address2": "", "address3": "", "city": "Sonoma", "zip_code": "95476", "country": "US", "state": "CA", "display_address": ["460 1st St E", "Sonoma, CA 95476"]}, "phone": "+17079357687", "display_phone": "(707) 935-7687", "distance": 674.7603755353252}, {"id": "penCjCH7TP7H3u2zh_JjXg", "alias": "marys-pizza-shack-sonoma-9", "name": "Mary's Pizza Shack", "image_url": "https://s3-media1.fl.yelpcdn.com/bphoto/IWL_GgLqfZF0oFivhkUBJg/o.jpg", "is_closed": false, "url": "https://www.yelp.com/biz/marys-pizza-shack-sonoma-9?adjust_creative=gJ2vrem5KxinHaV7_d8wAA&utm_campaign=yelp_api_v3&utm_medium=api_v3_business_search&utm_source=gJ2vrem5KxinHaV7_d8wAA", "review_count": 314, "categories": [{"alias": "pizza", "title": "Pizza"}, {"alias": "italian", "title": "Italian"}], "rating": 3.5, "coordinates": {"latitude": 38.293938, "longitude": -122.457759}, "transactions": [], "price": "$$", "location": {"address1": "8 W Spain St", "address2": null, "address3": "", "city": "Sonoma", "zip_code": "95476", "country": "US", "state": "CA", "display_address": ["8 W Spain St", "Sonoma, CA 95476"]}, "phone": "+17079388300", "display_phone": "(707) 938-8300", "distance": 655.2639010708934}, {"id": "nxZTGrzObXoX_MjRNF57rA", "alias": "slice-shack-by-mary-s-sonoma", "name": "Slice Shack By Mary\u2019s", "image_url": "https://s3-media2.fl.yelpcdn.com/bphoto/zKUVUYhiPmOAUZaoYejb_A/o.jpg", "is_closed": false, "url": "https://www.yelp.com/biz/slice-shack-by-mary-s-sonoma?adjust_creative=gJ2vrem5KxinHaV7_d8wAA&utm_campaign=yelp_api_v3&utm_medium=api_v3_business_search&utm_source=gJ2vrem5KxinHaV7_d8wAA", "review_count": 46, "categories": [{"alias": "pizza", "title": "Pizza"}], "rating": 4.0, "coordinates": {"latitude": 38.293797790278, "longitude": -122.458011486682}, "transactions": [], "price": "$", "location": {"address1": "14 West Spain St", "address2": "", "address3": null, "city": "Sonoma", "zip_code": "95476", "country": "US", "state": "CA", "display_address": ["14 West Spain St", "Sonoma, CA 95476"]}, "phone": "+17079389290", "display_phone": "(707) 938-9290", "distance": 629.1297883086786}, {"id": "9vhiXwOKzoh3ZK4SpIvy4Q", "alias": "the-plaza-bistro-sonoma", "name": "The Plaza Bistro", "image_url": "https://s3-media3.fl.yelpcdn.com/bphoto/70y-_VmIxC2gP1dAToomXA/o.jpg", "is_closed": false, "url": "https://www.yelp.com/biz/the-plaza-bistro-sonoma?adjust_creative=gJ2vrem5KxinHaV7_d8wAA&utm_campaign=yelp_api_v3&utm_medium=api_v3_business_search&utm_source=gJ2vrem5KxinHaV7_d8wAA", "review_count": 187, "categories": [{"alias": "italian", "title": "Italian"}, {"alias": "newamerican", "title": "American (New)"}, {"alias": "mediterranean", "title": "Mediterranean"}], "rating": 3.0, "coordinates": {"latitude": 38.2931861877441, "longitude": -122.45588684082}, "transactions": [], "price": "$$", "location": {"address1": "420 1st St E", "address2": "", "address3": "", "city": "Sonoma", "zip_code": "95476", "country": "US", "state": "CA", "display_address": ["420 1st St E", "Sonoma, CA 95476"]}, "phone": "+17079964466", "display_phone": "(707) 996-4466", "distance": 717.0700416077472}, {"id": "8H06DZVLhitHh47DG0Gu_w", "alias": "scandia-bakery-sonoma", "name": "Scandia Bakery", "image_url": "https://s3-media4.fl.yelpcdn.com/bphoto/gCP3vt-29rsGRU_Fr1UYlQ/o.jpg", "is_closed": false, "url": "https://www.yelp.com/biz/scandia-bakery-sonoma?adjust_creative=gJ2vrem5KxinHaV7_d8wAA&utm_campaign=yelp_api_v3&utm_medium=api_v3_business_search&utm_source=gJ2vrem5KxinHaV7_d8wAA", "review_count": 99, "categories": [{"alias": "bakeries", "title": "Bakeries"}, {"alias": "coffee", "title": "Coffee & Tea"}, {"alias": "sandwiches", "title": "Sandwiches"}], "rating": 4.5, "coordinates": {"latitude": 38.29399, "longitude": -122.46861}, "transactions": [], "price": "$$", "location": {"address1": "500 W Napa St", "address2": "", "address3": "", "city": "Sonoma", "zip_code": "95476", "country": "US", "state": "CA", "display_address": ["500 W Napa St", "Sonoma, CA 95476"]}, "phone": "+17079385820", "display_phone": "(707) 938-5820", "distance": 619.1955366169974}, {"id": "KpsgJVRPuz6yDZR1BZjOQg", "alias": "happy-garden-chinese-sonoma", "name": "Happy Garden Chinese", "image_url": "https://s3-media3.fl.yelpcdn.com/bphoto/PWZtPgsVXFqwlstt9Ji4zg/o.jpg", "is_closed": false, "url": "https://www.yelp.com/biz/happy-garden-chinese-sonoma?adjust_creative=gJ2vrem5KxinHaV7_d8wAA&utm_campaign=yelp_api_v3&utm_medium=api_v3_business_search&utm_source=gJ2vrem5KxinHaV7_d8wAA", "review_count": 43, "categories": [{"alias": "chinese", "title": "Chinese"}], "rating": 3.0, "coordinates": {"latitude": 38.289936, "longitude": -122.462559}, "transactions": [], "price": "$", "location": {"address1": "201 W Napa St", "address2": "Ste 26", "address3": "", "city": "Sonoma", "zip_code": "95476", "country": "US", "state": "CA", "display_address": ["201 W Napa St", "Ste 26", "Sonoma, CA 95476"]}, "phone": "+17079966037", "display_phone": "(707) 996-6037", "distance": 92.77978787037127}, {"id": "OVSDnOCRKhyX9SDDo2piEA", "alias": "el-huerto-of-sonoma-sonoma", "name": "El Huerto Of Sonoma", "image_url": "https://s3-media4.fl.yelpcdn.com/bphoto/zG6hzSrRBNQp3J8NEiMUdA/o.jpg", "is_closed": false, "url": "https://www.yelp.com/biz/el-huerto-of-sonoma-sonoma?adjust_creative=gJ2vrem5KxinHaV7_d8wAA&utm_campaign=yelp_api_v3&utm_medium=api_v3_business_search&utm_source=gJ2vrem5KxinHaV7_d8wAA", "review_count": 50, "categories": [{"alias": "juicebars", "title": "Juice Bars & Smoothies"}, {"alias": "sandwiches", "title": "Sandwiches"}, {"alias": "breakfast_brunch", "title": "Breakfast & Brunch"}], "rating": 4.5, "coordinates": {"latitude": 38.2989709, "longitude": -122.475354}, "transactions": [], "price": "$", "location": {"address1": "19213 Sonoma Hwy", "address2": "", "address3": null, "city": "Sonoma", "zip_code": "95476", "country": "US", "state": "CA", "display_address": ["19213 Sonoma Hwy", "Sonoma, CA 95476"]}, "phone": "+17079348791", "display_phone": "(707) 934-8791", "distance": 1479.0640561984276}, {"id": "kxCYX1zk7Ry3Fo_KMJu9dg", "alias": "amys-peking-palace-sonoma", "name": "Amy's Peking Palace", "image_url": "https://s3-media4.fl.yelpcdn.com/bphoto/wnGjlYfYZsUY6xFKkyCptw/o.jpg", "is_closed": false, "url": "https://www.yelp.com/biz/amys-peking-palace-sonoma?adjust_creative=gJ2vrem5KxinHaV7_d8wAA&utm_campaign=yelp_api_v3&utm_medium=api_v3_business_search&utm_source=gJ2vrem5KxinHaV7_d8wAA", "review_count": 47, "categories": [{"alias": "chinese", "title": "Chinese"}], "rating": 3.0, "coordinates": {"latitude": 38.294133, "longitude": -122.468591}, "transactions": [], "price": "$", "location": {"address1": "500 W Napa St", "address2": "", "address3": "", "city": "Sonoma", "zip_code": "95476", "country": "US", "state": "CA", "display_address": ["500 W Napa St", "Sonoma, CA 95476"]}, "phone": "+17079388886", "display_phone": "(707) 938-8886", "distance": 619.5193738395217}, {"id": "8wYnlBMyblsrQ2PrhxhXjA", "alias": "golden-spring-mandarin-cuisine-sonoma", "name": "Golden Spring Mandarin Cuisine", "image_url": "https://s3-media3.fl.yelpcdn.com/bphoto/Dqn-lJPS2W0UoLo0RugbUQ/o.jpg", "is_closed": false, "url": "https://www.yelp.com/biz/golden-spring-mandarin-cuisine-sonoma?adjust_creative=gJ2vrem5KxinHaV7_d8wAA&utm_campaign=yelp_api_v3&utm_medium=api_v3_business_search&utm_source=gJ2vrem5KxinHaV7_d8wAA", "review_count": 45, "categories": [{"alias": "chinese", "title": "Chinese"}], "rating": 3.5, "coordinates": {"latitude": 38.3035546956514, "longitude": -122.475777865272}, "transactions": [], "price": "$$", "location": {"address1": "18995 Sonoma Hwy", "address2": "Ste 105", "address3": "", "city": "Sonoma", "zip_code": "95476", "country": "US", "state": "CA", "display_address": ["18995 Sonoma Hwy", "Ste 105", "Sonoma, CA 95476"]}, "phone": "+17079381275", "display_phone": "(707) 938-1275", "distance": 1828.0802585572903}, {"id": "WZlFi5k6aghH6olJVpJo3A", "alias": "black-bear-diner-sonoma", "name": "Black Bear Diner", "image_url": "https://s3-media4.fl.yelpcdn.com/bphoto/HA-b61tI8cy5IhYLuH-F_w/o.jpg", "is_closed": false, "url": "https://www.yelp.com/biz/black-bear-diner-sonoma?adjust_creative=gJ2vrem5KxinHaV7_d8wAA&utm_campaign=yelp_api_v3&utm_medium=api_v3_business_search&utm_source=gJ2vrem5KxinHaV7_d8wAA", "review_count": 199, "categories": [{"alias": "diners", "title": "Diners"}, {"alias": "breakfast_brunch", "title": "Breakfast & Brunch"}, {"alias": "burgers", "title": "Burgers"}], "rating": 3.0, "coordinates": {"latitude": 38.2920133633682, "longitude": -122.461604784979}, "transactions": [], "price": "$$", "location": {"address1": "201 W Napa St", "address2": "Ste 34", "address3": "", "city": "Sonoma", "zip_code": "95476", "country": "US", "state": "CA", "display_address": ["201 W Napa St", "Ste 34", "Sonoma, CA 95476"]}, "phone": "+17079356800", "display_phone": "(707) 935-6800", "distance": 265.13367989239515}, {"id": "faPV-OKiW9a4OGD1JdyLsw", "alias": "el-gallo-pinto-sonoma", "name": "El Gallo Pinto", "image_url": "https://s3-media2.fl.yelpcdn.com/bphoto/-LuAU_YGeB2gAioKVArviw/o.jpg", "is_closed": false, "url": "https://www.yelp.com/biz/el-gallo-pinto-sonoma?adjust_creative=gJ2vrem5KxinHaV7_d8wAA&utm_campaign=yelp_api_v3&utm_medium=api_v3_business_search&utm_source=gJ2vrem5KxinHaV7_d8wAA", "review_count": 43, "categories": [{"alias": "mexican", "title": "Mexican"}], "rating": 3.5, "coordinates": {"latitude": 38.29822, "longitude": -122.475865}, "transactions": [], "price": "$$", "location": {"address1": "19315 Sonoma Hwy", "address2": null, "address3": "", "city": "Sonoma", "zip_code": "95476", "country": "US", "state": "CA", "display_address": ["19315 Sonoma Hwy", "Sonoma, CA 95476"]}, "phone": "+17079339496", "display_phone": "(707) 933-9496", "distance": 1396.0474478961264}, {"id": "tvRH9pwYJdPW7XM3Xh20rA", "alias": "round-table-pizza-sonoma", "name": "Round Table Pizza", "image_url": "https://s3-media3.fl.yelpcdn.com/bphoto/fX5B89-h-vXIjB8-MLJIbw/o.jpg", "is_closed": false, "url": "https://www.yelp.com/biz/round-table-pizza-sonoma?adjust_creative=gJ2vrem5KxinHaV7_d8wAA&utm_campaign=yelp_api_v3&utm_medium=api_v3_business_search&utm_source=gJ2vrem5KxinHaV7_d8wAA", "review_count": 37, "categories": [{"alias": "pizza", "title": "Pizza"}], "rating": 2.5, "coordinates": {"latitude": 38.289934, "longitude": -122.461894}, "transactions": [], "price": "$$", "location": {"address1": "201 W. Napa Street", "address2": "", "address3": "", "city": "Sonoma", "zip_code": "95476", "country": "US", "state": "CA", "display_address": ["201 W. Napa Street", "Sonoma, CA 95476"]}, "phone": "+17079385564", "display_phone": "(707) 938-5564", "distance": 149.08938852330922}, {"id": "1H22CB_-xyLsdJ1J6zcHbA", "alias": "aunt-bettys-corn-dog-sonoma", "name": "Aunt Betty's Corn Dog", "image_url": "https://s3-media1.fl.yelpcdn.com/bphoto/-pkFKRkSJZPAZ7STTXpBlg/o.jpg", "is_closed": false, "url": "https://www.yelp.com/biz/aunt-bettys-corn-dog-sonoma?adjust_creative=gJ2vrem5KxinHaV7_d8wAA&utm_campaign=yelp_api_v3&utm_medium=api_v3_business_search&utm_source=gJ2vrem5KxinHaV7_d8wAA", "review_count": 23, "categories": [{"alias": "newamerican", "title": "American (New)"}], "rating": 3.5, "coordinates": {"latitude": 38.28691, "longitude": -122.46547}, "transactions": [], "price": "$$", "location": {"address1": "", "address2": "", "address3": "", "city": "Sonoma", "zip_code": "95476", "country": "US", "state": "CA", "display_address": ["Sonoma, CA 95476"]}, "phone": "", "display_phone": "", "distance": 517.2137351796034}, {"id": "ktd3mbmo_PhJOuJf4s74sQ", "alias": "palms-grill-sonoma", "name": "Palms Grill", "image_url": "https://s3-media2.fl.yelpcdn.com/bphoto/MwxoT_j3Oj90BR5XvKW8Vw/o.jpg", "is_closed": false, "url": "https://www.yelp.com/biz/palms-grill-sonoma?adjust_creative=gJ2vrem5KxinHaV7_d8wAA&utm_campaign=yelp_api_v3&utm_medium=api_v3_business_search&utm_source=gJ2vrem5KxinHaV7_d8wAA", "review_count": 122, "categories": [{"alias": "tradamerican", "title": "American (Traditional)"}, {"alias": "breakfast_brunch", "title": "Breakfast & Brunch"}], "rating": 3.5, "coordinates": {"latitude": 38.3030271564252, "longitude": -122.47601590167}, "transactions": [], "price": "$$", "location": {"address1": "18999 Sonoma Hwy", "address2": "", "address3": "", "city": "Sonoma", "zip_code": "95476", "country": "US", "state": "CA", "display_address": ["18999 Sonoma Hwy", "Sonoma, CA 95476"]}, "phone": "+17079398100", "display_phone": "(707) 939-8100", "distance": 1793.247384569396}, {"id": "6NadpKkaLYlQtPXLtW1rDg", "alias": "la-casa-foods-co-sonoma", "name": "La Casa Foods Co", "image_url": "https://s3-media2.fl.yelpcdn.com/bphoto/wWYozFG0TeC92JbpghBr_A/o.jpg", "is_closed": false, "url": "https://www.yelp.com/biz/la-casa-foods-co-sonoma?adjust_creative=gJ2vrem5KxinHaV7_d8wAA&utm_campaign=yelp_api_v3&utm_medium=api_v3_business_search&utm_source=gJ2vrem5KxinHaV7_d8wAA", "review_count": 4, "categories": [{"alias": "mexican", "title": "Mexican"}], "rating": 5.0, "coordinates": {"latitude": 38.29188, "longitude": -122.45726}, "transactions": [], "location": {"address1": "PO Box 479", "address2": "", "address3": "", "city": "Sonoma", "zip_code": "95476", "country": "US", "state": "CA", "display_address": ["PO Box 479", "Sonoma, CA 95476"]}, "phone": "+17079967524", "display_phone": "(707) 996-7524", "distance": 517.2137351796034}, {"id": "xg0QxzSY8P1H3GV2EWiK_g", "alias": "napa-valley-crust-st-helena", "name": "Napa Valley Crust", "image_url": "https://s3-media4.fl.yelpcdn.com/bphoto/_Oa2t_ccNnwdVXH9BuZv9Q/o.jpg", "is_closed": false, "url": "https://www.yelp.com/biz/napa-valley-crust-st-helena?adjust_creative=gJ2vrem5KxinHaV7_d8wAA&utm_campaign=yelp_api_v3&utm_medium=api_v3_business_search&utm_source=gJ2vrem5KxinHaV7_d8wAA", "review_count": 12, "categories": [{"alias": "foodtrucks", "title": "Food Trucks"}, {"alias": "pizza", "title": "Pizza"}], "rating": 4.5, "coordinates": {"latitude": 38.506296, "longitude": -122.469455}, "transactions": [], "location": {"address1": "1010 Adams St", "address2": null, "address3": "", "city": "St. Helena", "zip_code": "94574", "country": "US", "state": "CA", "display_address": ["1010 Adams St", "St. Helena, CA 94574"]}, "phone": "+17073961579", "display_phone": "(707) 396-1579", "distance": 24034.80201493142}, {"id": "VdFZX4_6Z5ffR2adY-JAUw", "alias": "gourmet-taco-shop-sonoma-2", "name": "Gourmet Taco Shop", "image_url": "https://s3-media3.fl.yelpcdn.com/bphoto/akDVcTOz_YIr_ekHpXvzuw/o.jpg", "is_closed": false, "url": "https://www.yelp.com/biz/gourmet-taco-shop-sonoma-2?adjust_creative=gJ2vrem5KxinHaV7_d8wAA&utm_campaign=yelp_api_v3&utm_medium=api_v3_business_search&utm_source=gJ2vrem5KxinHaV7_d8wAA", "review_count": 91, "categories": [{"alias": "mexican", "title": "Mexican"}], "rating": 3.0, "coordinates": {"latitude": 38.299205, "longitude": -122.475866}, "transactions": [], "price": "$", "location": {"address1": "19235 Hwy 12", "address2": "", "address3": "", "city": "Sonoma", "zip_code": "95476", "country": "US", "state": "CA", "display_address": ["19235 Hwy 12", "Sonoma, CA 95476"]}, "phone": "+17079351945", "display_phone": "(707) 935-1945", "distance": 1468.097931417236}, {"id": "7L-Z-W6gpPh05Klul88few", "alias": "deep-smoke-napa-napa-2", "name": "Deep Smoke Napa", "image_url": "https://s3-media2.fl.yelpcdn.com/bphoto/r0Y93GK6EZrXzwbIAYehtw/o.jpg", "is_closed": false, "url": "https://www.yelp.com/biz/deep-smoke-napa-napa-2?adjust_creative=gJ2vrem5KxinHaV7_d8wAA&utm_campaign=yelp_api_v3&utm_medium=api_v3_business_search&utm_source=gJ2vrem5KxinHaV7_d8wAA", "review_count": 8, "categories": [{"alias": "foodtrucks", "title": "Food Trucks"}, {"alias": "catering", "title": "Caterers"}, {"alias": "bbq", "title": "Barbeque"}], "rating": 5.0, "coordinates": {"latitude": 38.2971305847168, "longitude": -122.286437988281}, "transactions": [], "location": {"address1": "", "address2": null, "address3": "", "city": "Napa", "zip_code": "94581", "country": "US", "state": "CA", "display_address": ["Napa, CA 94581"]}, "phone": "+17073660227", "display_phone": "(707) 366-0227", "distance": 16056.985832317892}, {"id": "-tvHn1OhhvxOBnBJcFA_uw", "alias": "taco-bell-sonoma-2", "name": "Taco Bell", "image_url": "https://s3-media3.fl.yelpcdn.com/bphoto/FIV7T6DPZcNQpBhQwIwo3w/o.jpg", "is_closed": false, "url": "https://www.yelp.com/biz/taco-bell-sonoma-2?adjust_creative=gJ2vrem5KxinHaV7_d8wAA&utm_campaign=yelp_api_v3&utm_medium=api_v3_business_search&utm_source=gJ2vrem5KxinHaV7_d8wAA", "review_count": 24, "categories": [{"alias": "hotdogs", "title": "Fast Food"}, {"alias": "tacos", "title": "Tacos"}], "rating": 2.0, "coordinates": {"latitude": 38.30025, "longitude": -122.47503}, "transactions": [], "price": "$", "location": {"address1": "19025 Sonoma Hwy.", "address2": "", "address3": "", "city": "Sonoma", "zip_code": "95476", "country": "US", "state": "CA", "display_address": ["19025 Sonoma Hwy.", "Sonoma, CA 95476"]}, "phone": "+17079391706", "display_phone": "(707) 939-1706", "distance": 1500.1257325083395}, {"id": "axcrfKaCvDR1V5X5OheG9Q", "alias": "al-fresco-kitchen-sonoma", "name": "Al Fresco Kitchen", "image_url": "", "is_closed": false, "url": "https://www.yelp.com/biz/al-fresco-kitchen-sonoma?adjust_creative=gJ2vrem5KxinHaV7_d8wAA&utm_campaign=yelp_api_v3&utm_medium=api_v3_business_search&utm_source=gJ2vrem5KxinHaV7_d8wAA", "review_count": 1, "categories": [{"alias": "sandwiches", "title": "Sandwiches"}], "rating": 5.0, "coordinates": {"latitude": 38.293415, "longitude": -122.470589}, "transactions": [], "location": {"address1": "", "address2": "", "address3": "", "city": "Sonoma", "zip_code": "95476", "country": "US", "state": "CA", "display_address": ["Sonoma, CA 95476"]}, "phone": "", "display_phone": "", "distance": 517.2137351796034}, {"id": "i6ZwMjYIbmFZ8EGYz6x5Bw", "alias": "phat-salads-and-wraps-napa", "name": "Phat Salads and Wraps", "image_url": "https://s3-media2.fl.yelpcdn.com/bphoto/FbrUwtrVIx2cLXiPdBhHkw/o.jpg", "is_closed": false, "url": "https://www.yelp.com/biz/phat-salads-and-wraps-napa?adjust_creative=gJ2vrem5KxinHaV7_d8wAA&utm_campaign=yelp_api_v3&utm_medium=api_v3_business_search&utm_source=gJ2vrem5KxinHaV7_d8wAA", "review_count": 48, "categories": [{"alias": "foodtrucks", "title": "Food Trucks"}, {"alias": "wraps", "title": "Wraps"}], "rating": 4.0, "coordinates": {"latitude": 38.3234491, "longitude": -122.3023962}, "transactions": [], "price": "$", "location": {"address1": "", "address2": "", "address3": "", "city": "Napa", "zip_code": "94558", "country": "US", "state": "CA", "display_address": ["Napa, CA 94558"]}, "phone": "+17073639658", "display_phone": "(707) 363-9658", "distance": 14541.166900540367}, {"id": "gTFAOlDgMeU0KtRLWiPNGg", "alias": "subway-restaurants-sonoma-2", "name": "Subway Restaurants", "image_url": "https://s3-media3.fl.yelpcdn.com/bphoto/JZXfOv4zazze9K4fWyC3_A/o.jpg", "is_closed": false, "url": "https://www.yelp.com/biz/subway-restaurants-sonoma-2?adjust_creative=gJ2vrem5KxinHaV7_d8wAA&utm_campaign=yelp_api_v3&utm_medium=api_v3_business_search&utm_source=gJ2vrem5KxinHaV7_d8wAA", "review_count": 15, "categories": [{"alias": "sandwiches", "title": "Sandwiches"}], "rating": 2.0, "coordinates": {"latitude": 38.2839732, "longitude": -122.4592393}, "transactions": [], "price": "$", "location": {"address1": "927 Broadway", "address2": null, "address3": null, "city": "Sonoma", "zip_code": "95476", "country": "US", "state": "CA", "display_address": ["927 Broadway", "Sonoma, CA 95476"]}, "phone": "+17079397857", "display_phone": "(707) 939-7857", "distance": 753.1059573429899}, {"id": "oQ5qjnPUyX85VfbKcm4JaA", "alias": "papa-murphys-sonoma", "name": "Papa Murphy's", "image_url": "https://s3-media3.fl.yelpcdn.com/bphoto/Iax4EYmi-lbm_4YoVrri2g/o.jpg", "is_closed": false, "url": "https://www.yelp.com/biz/papa-murphys-sonoma?adjust_creative=gJ2vrem5KxinHaV7_d8wAA&utm_campaign=yelp_api_v3&utm_medium=api_v3_business_search&utm_source=gJ2vrem5KxinHaV7_d8wAA", "review_count": 31, "categories": [{"alias": "pizza", "title": "Pizza"}], "rating": 2.5, "coordinates": {"latitude": 38.29354, "longitude": -122.47139}, "transactions": [], "price": "$", "location": {"address1": "678 West Napa Street", "address2": "", "address3": "", "city": "Sonoma", "zip_code": "95476", "country": "US", "state": "CA", "display_address": ["678 West Napa Street", "Sonoma, CA 95476"]}, "phone": "+17079965000", "display_phone": "(707) 996-5000", "distance": 763.3995170196998}, {"id": "_FOOlBQPjOK5VXfrkZvhfw", "alias": "jack-in-the-box-sonoma", "name": "Jack in the Box", "image_url": "https://s3-media2.fl.yelpcdn.com/bphoto/Hibu6Oy1p-ak9cMtSDDx3Q/o.jpg", "is_closed": false, "url": "https://www.yelp.com/biz/jack-in-the-box-sonoma?adjust_creative=gJ2vrem5KxinHaV7_d8wAA&utm_campaign=yelp_api_v3&utm_medium=api_v3_business_search&utm_source=gJ2vrem5KxinHaV7_d8wAA", "review_count": 16, "categories": [{"alias": "hotdogs", "title": "Fast Food"}, {"alias": "burgers", "title": "Burgers"}, {"alias": "tacos", "title": "Tacos"}], "rating": 2.5, "coordinates": {"latitude": 38.2933511945808, "longitude": -122.470425367355}, "transactions": [], "price": "$", "location": {"address1": "602 W Napa St", "address2": "", "address3": "", "city": "Sonoma", "zip_code": "95476", "country": "US", "state": "CA", "display_address": ["602 W Napa St", "Sonoma, CA 95476"]}, "phone": "+17079350258", "display_phone": "(707) 935-0258", "distance": 693.6631461151779}, {"id": "hqrmwcUs0VR6BVGQXnXdKw", "alias": "mcdonalds-sonoma", "name": "McDonald's", "image_url": "https://s3-media3.fl.yelpcdn.com/bphoto/WQKn-v1H3a8VXY4qgN6QAQ/o.jpg", "is_closed": false, "url": "https://www.yelp.com/biz/mcdonalds-sonoma?adjust_creative=gJ2vrem5KxinHaV7_d8wAA&utm_campaign=yelp_api_v3&utm_medium=api_v3_business_search&utm_source=gJ2vrem5KxinHaV7_d8wAA", "review_count": 40, "categories": [{"alias": "hotdogs", "title": "Fast Food"}, {"alias": "burgers", "title": "Burgers"}, {"alias": "coffee", "title": "Coffee & Tea"}], "rating": 2.0, "coordinates": {"latitude": 38.303093, "longitude": -122.477002}, "transactions": [], "price": "$", "location": {"address1": "18988 Sonoma Hwy", "address2": "", "address3": "", "city": "Sonoma", "zip_code": "95476", "country": "US", "state": "CA", "display_address": ["18988 Sonoma Hwy", "Sonoma, CA 95476"]}, "phone": "+17079388094", "display_phone": "(707) 938-8094", "distance": 1852.3019777585605}, {"id": "urq749fxC6c1Z2QYrr051Q", "alias": "little-caesars-pizza-sonoma", "name": "Little Caesars Pizza", "image_url": "https://s3-media1.fl.yelpcdn.com/bphoto/HG7-JaCqnrC6X5RiZ3T3kQ/o.jpg", "is_closed": false, "url": "https://www.yelp.com/biz/little-caesars-pizza-sonoma?adjust_creative=gJ2vrem5KxinHaV7_d8wAA&utm_campaign=yelp_api_v3&utm_medium=api_v3_business_search&utm_source=gJ2vrem5KxinHaV7_d8wAA", "review_count": 10, "categories": [{"alias": "pizza", "title": "Pizza"}], "rating": 1.5, "coordinates": {"latitude": 38.299148483156, "longitude": -122.476428151131}, "transactions": [], "price": "$", "location": {"address1": "19209 Sonoma Hwy", "address2": "", "address3": "", "city": "Sonoma", "zip_code": "95476", "country": "US", "state": "CA", "display_address": ["19209 Sonoma Hwy", "Sonoma, CA 95476"]}, "phone": "+17079331600", "display_phone": "(707) 933-1600", "distance": 1500.1518268562531}, {"id": "UgpER14Qy4CiwlxC5ZwsqA", "alias": "la-cuchara-de-do\u00f1a-rosa-vallejo", "name": "La cuchara de Do\u00f1a Rosa", "image_url": "https://s3-media3.fl.yelpcdn.com/bphoto/IlLx-PG3Jt6VZBcxToYRng/o.jpg", "is_closed": false, "url": "https://www.yelp.com/biz/la-cuchara-de-do%C3%B1a-rosa-vallejo?adjust_creative=gJ2vrem5KxinHaV7_d8wAA&utm_campaign=yelp_api_v3&utm_medium=api_v3_business_search&utm_source=gJ2vrem5KxinHaV7_d8wAA", "review_count": 14, "categories": [{"alias": "foodtrucks", "title": "Food Trucks"}, {"alias": "tacos", "title": "Tacos"}], "rating": 4.0, "coordinates": {"latitude": 38.115436, "longitude": -122.2541558}, "transactions": ["pickup", "delivery"], "price": "$$", "location": {"address1": "105 Couch St", "address2": "", "address3": null, "city": "Vallejo", "zip_code": "94590", "country": "US", "state": "CA", "display_address": ["105 Couch St", "Vallejo, CA 94590"]}, "phone": "+15103138892", "display_phone": "(510) 313-8892", "distance": 26691.740756334453}, {"id": "rM6pPB_qmQ3de5yGpfLT1g", "alias": "lomo-libre-san-francisco-2", "name": "Lomo Libre", "image_url": "https://s3-media1.fl.yelpcdn.com/bphoto/vjnO-EUjFHKoLMy2_JQYvg/o.jpg", "is_closed": false, "url": "https://www.yelp.com/biz/lomo-libre-san-francisco-2?adjust_creative=gJ2vrem5KxinHaV7_d8wAA&utm_campaign=yelp_api_v3&utm_medium=api_v3_business_search&utm_source=gJ2vrem5KxinHaV7_d8wAA", "review_count": 8, "categories": [{"alias": "foodtrucks", "title": "Food Trucks"}, {"alias": "peruvian", "title": "Peruvian"}], "rating": 5.0, "coordinates": {"latitude": 37.799634, "longitude": -122.436301}, "transactions": [], "location": {"address1": "2101 Lombard St", "address2": "", "address3": null, "city": "San Francisco", "zip_code": "94123", "country": "US", "state": "CA", "display_address": ["2101 Lombard St", "San Francisco, CA 94123"]}, "phone": "+14156198149", "display_phone": "(415) 619-8149", "distance": 54599.63247136154}, {"id": "3zRfkzhTk7jzXNC0cKdWRg", "alias": "tortas-gigantes-metro-balderas-2-santa-rosa", "name": "Tortas Gigantes Metro Balderas 2", "image_url": "https://s3-media3.fl.yelpcdn.com/bphoto/1zH8mMORZDEuR8Eg1A4ilQ/o.jpg", "is_closed": false, "url": "https://www.yelp.com/biz/tortas-gigantes-metro-balderas-2-santa-rosa?adjust_creative=gJ2vrem5KxinHaV7_d8wAA&utm_campaign=yelp_api_v3&utm_medium=api_v3_business_search&utm_source=gJ2vrem5KxinHaV7_d8wAA", "review_count": 4, "categories": [{"alias": "foodtrucks", "title": "Food Trucks"}, {"alias": "mexican", "title": "Mexican"}], "rating": 4.0, "coordinates": {"latitude": 38.42913, "longitude": -122.73433}, "transactions": [], "price": "$", "location": {"address1": "1289 Sebastopol Rd", "address2": "", "address3": null, "city": "Santa Rosa", "zip_code": "95407", "country": "US", "state": "CA", "display_address": ["1289 Sebastopol Rd", "Santa Rosa, CA 95407"]}, "phone": "+17072604343", "display_phone": "(707) 260-4343", "distance": 28245.885622703696}, {"id": "CUwBAy6lrFi4x6Neu9eRVw", "alias": "mini-street-burger-alameda-3", "name": "Mini Street Burger", "image_url": "https://s3-media2.fl.yelpcdn.com/bphoto/Kh-OQKBIclWY1dCeIuu57w/o.jpg", "is_closed": false, "url": "https://www.yelp.com/biz/mini-street-burger-alameda-3?adjust_creative=gJ2vrem5KxinHaV7_d8wAA&utm_campaign=yelp_api_v3&utm_medium=api_v3_business_search&utm_source=gJ2vrem5KxinHaV7_d8wAA", "review_count": 28, "categories": [{"alias": "foodtrucks", "title": "Food Trucks"}, {"alias": "burgers", "title": "Burgers"}], "rating": 4.0, "coordinates": {"latitude": 37.82628, "longitude": -122.25101}, "transactions": [], "location": {"address1": null, "address2": null, "address3": null, "city": "Alameda", "zip_code": "94611", "country": "US", "state": "CA", "display_address": ["Alameda, CA 94611"]}, "phone": "+15108278982", "display_phone": "(510) 827-8982", "distance": 55658.28319138935}, {"id": "uuouQQIFQ1B9mkmcxaAKFA", "alias": "tacos-el-rey-oakland", "name": "Tacos El Rey", "image_url": "https://s3-media2.fl.yelpcdn.com/bphoto/DblyFrtT9uyPCQAUfPbYbQ/o.jpg", "is_closed": false, "url": "https://www.yelp.com/biz/tacos-el-rey-oakland?adjust_creative=gJ2vrem5KxinHaV7_d8wAA&utm_campaign=yelp_api_v3&utm_medium=api_v3_business_search&utm_source=gJ2vrem5KxinHaV7_d8wAA", "review_count": 9, "categories": [{"alias": "foodtrucks", "title": "Food Trucks"}, {"alias": "mexican", "title": "Mexican"}], "rating": 4.0, "coordinates": {"latitude": 37.8294034, "longitude": -122.2875758}, "transactions": [], "price": "$", "location": {"address1": "40th & Horton", "address2": "", "address3": null, "city": "Oakland", "zip_code": "94608", "country": "US", "state": "CA", "display_address": ["40th & Horton", "Oakland, CA 94608"]}, "phone": "+15108130232", "display_phone": "(510) 813-0232", "distance": 53504.29917257485}, {"id": "jCcAuXhCpeJP2n-8ol7mxg", "alias": "kolobok-russian-soul-food-truck-oakland", "name": "Kolobok Russian Soul Food Truck", "image_url": "https://s3-media1.fl.yelpcdn.com/bphoto/k8s1Bfc05Iw7SJXE6VJ74Q/o.jpg", "is_closed": false, "url": "https://www.yelp.com/biz/kolobok-russian-soul-food-truck-oakland?adjust_creative=gJ2vrem5KxinHaV7_d8wAA&utm_campaign=yelp_api_v3&utm_medium=api_v3_business_search&utm_source=gJ2vrem5KxinHaV7_d8wAA", "review_count": 47, "categories": [{"alias": "foodtrucks", "title": "Food Trucks"}, {"alias": "russian", "title": "Russian"}], "rating": 4.5, "coordinates": {"latitude": 37.7883087690458, "longitude": -122.309032460882}, "transactions": [], "price": "$$", "location": {"address1": null, "address2": null, "address3": "", "city": "Oakland", "zip_code": "94577", "country": "US", "state": "CA", "display_address": ["Oakland, CA 94577"]}, "phone": "+15105996542", "display_phone": "(510) 599-6542", "distance": 57424.669473041096}, {"id": "XTJJ_PUQoJKIh31ZIzsFzw", "alias": "cochinita-food-truck-san-francisco-6", "name": "Cochinita Food Truck", "image_url": "https://s3-media2.fl.yelpcdn.com/bphoto/w77SOd2jVJjOh1lwuYQ42w/o.jpg", "is_closed": false, "url": "https://www.yelp.com/biz/cochinita-food-truck-san-francisco-6?adjust_creative=gJ2vrem5KxinHaV7_d8wAA&utm_campaign=yelp_api_v3&utm_medium=api_v3_business_search&utm_source=gJ2vrem5KxinHaV7_d8wAA", "review_count": 49, "categories": [{"alias": "foodtrucks", "title": "Food Trucks"}, {"alias": "mexican", "title": "Mexican"}], "rating": 4.5, "coordinates": {"latitude": 37.770753, "longitude": -122.3916722}, "transactions": [], "price": "$", "location": {"address1": "601 Mission Blvd N", "address2": null, "address3": "", "city": "San Francisco", "zip_code": "94103", "country": "US", "state": "CA", "display_address": ["601 Mission Blvd N", "San Francisco, CA 94103"]}, "phone": "+14159883663", "display_phone": "(415) 988-3663", "distance": 58101.48852493499}, {"id": "DC42MrpWtqEeWRmMsn6Z8w", "alias": "the-everest-momo-fremont-2", "name": "The Everest Momo", "image_url": "https://s3-media2.fl.yelpcdn.com/bphoto/T2f7tUQ1c104otx9oSdqYw/o.jpg", "is_closed": false, "url": "https://www.yelp.com/biz/the-everest-momo-fremont-2?adjust_creative=gJ2vrem5KxinHaV7_d8wAA&utm_campaign=yelp_api_v3&utm_medium=api_v3_business_search&utm_source=gJ2vrem5KxinHaV7_d8wAA", "review_count": 23, "categories": [{"alias": "foodtrucks", "title": "Food Trucks"}, {"alias": "indpak", "title": "Indian"}, {"alias": "himalayan", "title": "Himalayan/Nepalese"}], "rating": 4.5, "coordinates": {"latitude": 37.54643, "longitude": -121.98512}, "transactions": [], "price": "$", "location": {"address1": "39233 Fremont Blvd", "address2": null, "address3": null, "city": "Fremont", "zip_code": "94538", "country": "US", "state": "CA", "display_address": ["39233 Fremont Blvd", "Fremont, CA 94538"]}, "phone": "+14088406369", "display_phone": "(408) 840-6369", "distance": 92737.02629620848}, {"id": "lgheXsHqe66AEZwoPDIEpw", "alias": "taco-coma-newark", "name": "Taco Coma", "image_url": "https://s3-media3.fl.yelpcdn.com/bphoto/DDz5lZDL5lDiRR_Ph0L4Sg/o.jpg", "is_closed": false, "url": "https://www.yelp.com/biz/taco-coma-newark?adjust_creative=gJ2vrem5KxinHaV7_d8wAA&utm_campaign=yelp_api_v3&utm_medium=api_v3_business_search&utm_source=gJ2vrem5KxinHaV7_d8wAA", "review_count": 3, "categories": [{"alias": "foodstands", "title": "Food Stands"}, {"alias": "tacos", "title": "Tacos"}], "rating": 5.0, "coordinates": {"latitude": 37.53453, "longitude": -122.03284}, "transactions": [], "location": {"address1": "", "address2": null, "address3": "", "city": "Newark", "zip_code": "94560", "country": "US", "state": "CA", "display_address": ["Newark, CA 94560"]}, "phone": "+15106971448", "display_phone": "(510) 697-1448", "distance": 92395.75593261745}, {"id": "8SNGFcMWZkvS4GWDUL8w1Q", "alias": "noon-o-kabob-san-jose-4", "name": "Noon O Kabob", "image_url": "https://s3-media2.fl.yelpcdn.com/bphoto/5GmY5FRw0m0XEWC5XXbVlA/o.jpg", "is_closed": false, "url": "https://www.yelp.com/biz/noon-o-kabob-san-jose-4?adjust_creative=gJ2vrem5KxinHaV7_d8wAA&utm_campaign=yelp_api_v3&utm_medium=api_v3_business_search&utm_source=gJ2vrem5KxinHaV7_d8wAA", "review_count": 29, "categories": [{"alias": "foodtrucks", "title": "Food Trucks"}, {"alias": "kebab", "title": "Kebab"}, {"alias": "persian", "title": "Persian/Iranian"}], "rating": 4.5, "coordinates": {"latitude": 37.3940232, "longitude": -122.0288052}, "transactions": [], "price": "$$", "location": {"address1": null, "address2": null, "address3": null, "city": "San Jose", "zip_code": "95101", "country": "US", "state": "CA", "display_address": ["San Jose, CA 95101"]}, "phone": "+14083346777", "display_phone": "(408) 334-6777", "distance": 106712.01176853012}, {"id": "C9uewBH5505NV0EWYBIJAA", "alias": "lady-and-l-aperitivo-san-jose", "name": "Lady & L'Aperitivo", "image_url": "https://s3-media4.fl.yelpcdn.com/bphoto/3nz0sRE9MlOq_4xVRQRt9w/o.jpg", "is_closed": false, "url": "https://www.yelp.com/biz/lady-and-l-aperitivo-san-jose?adjust_creative=gJ2vrem5KxinHaV7_d8wAA&utm_campaign=yelp_api_v3&utm_medium=api_v3_business_search&utm_source=gJ2vrem5KxinHaV7_d8wAA", "review_count": 1, "categories": [{"alias": "bakeries", "title": "Bakeries"}, {"alias": "desserts", "title": "Desserts"}, {"alias": "cheesesteaks", "title": "Cheesesteaks"}], "rating": 5.0, "coordinates": {"latitude": 37.2208938598633, "longitude": -121.861633300781}, "transactions": [], "location": {"address1": null, "address2": null, "address3": "", "city": "San Jose", "zip_code": "95120", "country": "US", "state": "CA", "display_address": ["San Jose, CA 95120"]}, "phone": "", "display_phone": "", "distance": 135954.86506825758}]}