{"location": "St. Helena, CA", "term": "restaurant", "radius": 2026, "businesses": [{"id": "tSUeNUAX0GOBbkG2IlNscw", "alias": "farmstead-at-long-meadow-ranch-saint-helena-2", "name": "Farmstead at Long Meadow Ranch", "image_url": "https://s3-media2.fl.yelpcdn.com/bphoto/WE68IY4ocA3cyE1Se5oBkQ/o.jpg", "is_closed": false, "url": "https://www.yelp.com/biz/farmstead-at-long-meadow-ranch-saint-helena-2?adjust_creative=gJ2vrem5KxinHaV7_d8wAA&utm_campaign=yelp_api_v3&utm_medium=api_v3_business_search&utm_source=gJ2vrem5KxinHaV7_d8wAA", "review_count": 3248, "categories": [{"alias": "tradamerican", "title": "American (Traditional)"}, {"alias": "wineries", "title": "Wineries"}, {"alias": "cafes", "title": "Cafes"}], "rating": 4.5, "coordinates": {"latitude": 38.5009596596377, "longitude": -122.462667345427}, "transactions": [], "price": "$$", "location": {"address1": "738 Main St", "address2": "", "address3": null, "city": "Saint Helena", "zip_code": "94574", "country": "US", "state": "CA", "display_address": ["738 Main St", "Saint Helena, CA 94574"]}, "phone": "+17079634555", "display_phone": "(707) 963-4555", "distance": 483.913169840517}, {"id": "L9gwezwKA_IDvjz0Y-AGuQ", "alias": "goose-and-gander-saint-helena-2", "name": "Goose & Gander", "image_url": "https://s3-media2.fl.yelpcdn.com/bphoto/slPR5vtVN3cfHwO3njpFRQ/o.jpg", "is_closed": false, "url": "https://www.yelp.com/biz/goose-and-gander-saint-helena-2?adjust_creative=gJ2vrem5KxinHaV7_d8wAA&utm_campaign=yelp_api_v3&utm_medium=api_v3_business_search&utm_source=gJ2vrem5KxinHaV7_d8wAA", "review_count": 942, "categories": [{"alias": "newamerican", "title": "American (New)"}, {"alias": "bars", "title": "Bars"}], "rating": 4.0, "coordinates": {"latitude": 38.50311, "longitude": -122.46833}, "transactions": [], "price": "$$", "location": {"address1": "1245 Spring St", "address2": "", "address3": "", "city": "Saint Helena", "zip_code": "94574", "country": "US", "state": "CA", "display_address": ["1245 Spring St", "Saint Helena, CA 94574"]}, "phone": "+17079678779", "display_phone": "(707) 967-8779", "distance": 293.31695741573424}, {"id": "vafctmm0Qs0NeF2lSMlfDw", "alias": "archetype-saint-helena-2", "name": "Archetype", "image_url": "https://s3-media1.fl.yelpcdn.com/bphoto/YETNkwduaU41xu6Af9jDow/o.jpg", "is_closed": false, "url": "https://www.yelp.com/biz/archetype-saint-helena-2?adjust_creative=gJ2vrem5KxinHaV7_d8wAA&utm_campaign=yelp_api_v3&utm_medium=api_v3_business_search&utm_source=gJ2vrem5KxinHaV7_d8wAA", "review_count": 619, "categories": [{"alias": "newamerican", "title": "American (New)"}, {"alias": "cocktailbars", "title": "Cocktail Bars"}, {"alias": "wine_bars", "title": "Wine Bars"}], "rating": 4.0, "coordinates": {"latitude": 38.5055371373892, "longitude": -122.47083440423}, "transactions": [], "price": "$$", "location": {"address1": "1429 Main St", "address2": null, "address3": "", "city": "Saint Helena", "zip_code": "94574", "country": "US", "state": "CA", "display_address": ["1429 Main St", "Saint Helena, CA 94574"]}, "phone": "+17079689200", "display_phone": "(707) 968-9200", "distance": 463.69180580837195}, {"id": "ALrrRiW7_187OhPVUMCuKA", "alias": "market-saint-helena-3", "name": "Market", "image_url": "https://s3-media1.fl.yelpcdn.com/bphoto/Qy1AUPuXUxned4gtXUi_3Q/o.jpg", "is_closed": false, "url": "https://www.yelp.com/biz/market-saint-helena-3?adjust_creative=gJ2vrem5KxinHaV7_d8wAA&utm_campaign=yelp_api_v3&utm_medium=api_v3_business_search&utm_source=gJ2vrem5KxinHaV7_d8wAA", "review_count": 701, "categories": [{"alias": "tradamerican", "title": "American (Traditional)"}], "rating": 4.0, "coordinates": {"latitude": 38.5046624, "longitude": -122.4698561}, "transactions": [], "price": "$$", "location": {"address1": "1347 Main St", "address2": "", "address3": "", "city": "Saint Helena", "zip_code": "94574", "country": "US", "state": "CA", "display_address": ["1347 Main St", "Saint Helena, CA 94574"]}, "phone": "+17079633799", "display_phone": "(707) 963-3799", "distance": 367.7829669390807}, {"id": "F1jI26INbSK5GGhkJcPJQQ", "alias": "pizzeria-tra-vigne-saint-helena", "name": "Pizzeria Tra Vigne", "image_url": "https://s3-media4.fl.yelpcdn.com/bphoto/9YUthRXWPIaUypxjTc1mdA/o.jpg", "is_closed": false, "url": "https://www.yelp.com/biz/pizzeria-tra-vigne-saint-helena?adjust_creative=gJ2vrem5KxinHaV7_d8wAA&utm_campaign=yelp_api_v3&utm_medium=api_v3_business_search&utm_source=gJ2vrem5KxinHaV7_d8wAA", "review_count": 505, "categories": [{"alias": "pizza", "title": "Pizza"}, {"alias": "bars", "title": "Bars"}, {"alias": "italian", "title": "Italian"}], "rating": 4.0, "coordinates": {"latitude": 38.5022984, "longitude": -122.4652563}, "transactions": ["restaurant_reservation"], "price": "$$", "location": {"address1": "1016 Main St", "address2": "", "address3": "", "city": "Saint Helena", "zip_code": "94574", "country": "US", "state": "CA", "display_address": ["1016 Main St", "Saint Helena, CA 94574"]}, "phone": "+17079679999", "display_phone": "(707) 967-9999", "distance": 245.5428336267789}, {"id": "2FG7sGHWBIpU0rKKV421aQ", "alias": "st-helena-sherpa-kitchen-st-helena", "name": "St. Helena Sherpa Kitchen", "image_url": "https://s3-media2.fl.yelpcdn.com/bphoto/-Fqv5r6iqRnzvogd5flcIQ/o.jpg", "is_closed": false, "url": "https://www.yelp.com/biz/st-helena-sherpa-kitchen-st-helena?adjust_creative=gJ2vrem5KxinHaV7_d8wAA&utm_campaign=yelp_api_v3&utm_medium=api_v3_business_search&utm_source=gJ2vrem5KxinHaV7_d8wAA", "review_count": 311, "categories": [{"alias": "himalayan", "title": "Himalayan/Nepalese"}, {"alias": "indpak", "title": "Indian"}], "rating": 4.5, "coordinates": {"latitude": 38.50388, "longitude": -122.46763}, "transactions": ["restaurant_reservation"], "price": "$$", "location": {"address1": "1148 Main St", "address2": "", "address3": "", "city": "St. Helena", "zip_code": "94574", "country": "US", "state": "CA", "display_address": ["1148 Main St", "St. Helena, CA 94574"]}, "phone": "+17079634439", "display_phone": "(707) 963-4439", "distance": 194.32555971954758}, {"id": "uurUG7qtI9nIwgusLbj34w", "alias": "gotts-roadside-saint-helena-2", "name": "Gott's Roadside", "image_url": "https://s3-media1.fl.yelpcdn.com/bphoto/sxfmvFN3RZQlX2dFoH-dpA/o.jpg", "is_closed": false, "url": "https://www.yelp.com/biz/gotts-roadside-saint-helena-2?adjust_creative=gJ2vrem5KxinHaV7_d8wAA&utm_campaign=yelp_api_v3&utm_medium=api_v3_business_search&utm_source=gJ2vrem5KxinHaV7_d8wAA", "review_count": 1984, "categories": [{"alias": "burgers", "title": "Burgers"}, {"alias": "seafood", "title": "Seafood"}, {"alias": "sandwiches", "title": "Sandwiches"}], "rating": 4.0, "coordinates": {"latitude": 38.502026222503, "longitude": -122.46536387551}, "transactions": [], "price": "$$", "location": {"address1": "933 Main St", "address2": "", "address3": "", "city": "Saint Helena", "zip_code": "94574", "country": "US", "state": "CA", "display_address": ["933 Main St", "Saint Helena, CA 94574"]}, "phone": "+17079633486", "display_phone": "(707) 963-3486", "distance": 291.8658262425653}, {"id": "TS7MUUlDNZXBOAwJAbAWnA", "alias": "cook-st-helena-saint-helena-2", "name": "Cook St. Helena", "image_url": "https://s3-media3.fl.yelpcdn.com/bphoto/xlcyBr0yxFUNXGtMtAM_0w/o.jpg", "is_closed": false, "url": "https://www.yelp.com/biz/cook-st-helena-saint-helena-2?adjust_creative=gJ2vrem5KxinHaV7_d8wAA&utm_campaign=yelp_api_v3&utm_medium=api_v3_business_search&utm_source=gJ2vrem5KxinHaV7_d8wAA", "review_count": 408, "categories": [{"alias": "italian", "title": "Italian"}], "rating": 4.0, "coordinates": {"latitude": 38.50473, "longitude": -122.46864}, "transactions": [], "price": "$$", "location": {"address1": "1310 Main St", "address2": null, "address3": "", "city": "Saint Helena", "zip_code": "94574", "country": "US", "state": "CA", "display_address": ["1310 Main St", "Saint Helena, CA 94574"]}, "phone": "+17079637088", "display_phone": "(707) 963-7088", "distance": 277.07105007259344}, {"id": "y_BAbUvrdx9fuKeblgJiVQ", "alias": "the-charter-oak-restaurant-st-helena-2", "name": "The Charter Oak Restaurant", "image_url": "https://s3-media1.fl.yelpcdn.com/bphoto/LnCE4UhPlw8nPxm3xHehSw/o.jpg", "is_closed": false, "url": "https://www.yelp.com/biz/the-charter-oak-restaurant-st-helena-2?adjust_creative=gJ2vrem5KxinHaV7_d8wAA&utm_campaign=yelp_api_v3&utm_medium=api_v3_business_search&utm_source=gJ2vrem5KxinHaV7_d8wAA", "review_count": 331, "categories": [{"alias": "newamerican", "title": "American (New)"}, {"alias": "cocktailbars", "title": "Cocktail Bars"}], "rating": 4.0, "coordinates": {"latitude": 38.5015327927523, "longitude": -122.46401888524}, "transactions": [], "price": "$$$", "location": {"address1": "1050 Charter Oak Ave", "address2": "", "address3": null, "city": "St Helena", "zip_code": "94574", "country": "US", "state": "CA", "display_address": ["1050 Charter Oak Ave", "St Helena, CA 94574"]}, "phone": "+17073026996", "display_phone": "(707) 302-6996", "distance": 373.1394109374018}, {"id": "sW28bAw74fytM4OXoXieXg", "alias": "st-helena-bistro-saint-helena", "name": "St Helena Bistro", "image_url": "https://s3-media2.fl.yelpcdn.com/bphoto/txlwqDVwMk1pSt4yy5EfFg/o.jpg", "is_closed": false, "url": "https://www.yelp.com/biz/st-helena-bistro-saint-helena?adjust_creative=gJ2vrem5KxinHaV7_d8wAA&utm_campaign=yelp_api_v3&utm_medium=api_v3_business_search&utm_source=gJ2vrem5KxinHaV7_d8wAA", "review_count": 134, "categories": [{"alias": "italian", "title": "Italian"}, {"alias": "newamerican", "title": "American (New)"}], "rating": 4.0, "coordinates": {"latitude": 38.5035143, "longitude": -122.4673357}, "transactions": [], "price": "$$", "location": {"address1": "1146 Main St", "address2": "", "address3": "", "city": "Saint Helena", "zip_code": "94574", "country": "US", "state": "CA", "display_address": ["1146 Main St", "Saint Helena, CA 94574"]}, "phone": "+17079633371", "display_phone": "(707) 963-3371", "distance": 194.38785643622475}, {"id": "8LHtsnNENKsByoER0-gQcA", "alias": "clif-family-bruschetteria-saint-helena", "name": "Clif Family Bruschetteria", "image_url": "https://s3-media2.fl.yelpcdn.com/bphoto/e0EXbqvPm9e5dIpW1bM6pQ/o.jpg", "is_closed": false, "url": "https://www.yelp.com/biz/clif-family-bruschetteria-saint-helena?adjust_creative=gJ2vrem5KxinHaV7_d8wAA&utm_campaign=yelp_api_v3&utm_medium=api_v3_business_search&utm_source=gJ2vrem5KxinHaV7_d8wAA", "review_count": 81, "categories": [{"alias": "foodtrucks", "title": "Food Trucks"}, {"alias": "italian", "title": "Italian"}], "rating": 4.5, "coordinates": {"latitude": 38.5003887116099, "longitude": -122.4639954}, "transactions": [], "price": "$$", "location": {"address1": "709 Main St", "address2": null, "address3": "", "city": "Saint Helena", "zip_code": "94574", "country": "US", "state": "CA", "display_address": ["709 Main St", "Saint Helena, CA 94574"]}, "phone": "+17073017188", "display_phone": "(707) 301-7188", "distance": 493.94401985579407}, {"id": "-4Fwq4eyscXBtLJkFv6gig", "alias": "press-st-helena", "name": "PRESS", "image_url": "https://s3-media1.fl.yelpcdn.com/bphoto/xQsxo-GOqYXvTBRIBrZMVA/o.jpg", "is_closed": false, "url": "https://www.yelp.com/biz/press-st-helena?adjust_creative=gJ2vrem5KxinHaV7_d8wAA&utm_campaign=yelp_api_v3&utm_medium=api_v3_business_search&utm_source=gJ2vrem5KxinHaV7_d8wAA", "review_count": 492, "categories": [{"alias": "steak", "title": "Steakhouses"}, {"alias": "bars", "title": "Bars"}], "rating": 4.0, "coordinates": {"latitude": 38.488902, "longitude": -122.4499488}, "transactions": [], "price": "$$$$", "location": {"address1": "587 St Helena Hwy S", "address2": null, "address3": "", "city": "St. Helena", "zip_code": "94574", "country": "US", "state": "CA", "display_address": ["587 St Helena Hwy S", "St. Helena, CA 94574"]}, "phone": "+17079670550", "display_phone": "(707) 967-0550", "distance": 2219.4036272410094}, {"id": "GgKvZMaZ1GWZESErH_b7qw", "alias": "harvest-table-st-helena", "name": "Harvest Table", "image_url": "https://s3-media2.fl.yelpcdn.com/bphoto/tpCAI6aNaZuGQeON_FWI_w/o.jpg", "is_closed": false, "url": "https://www.yelp.com/biz/harvest-table-st-helena?adjust_creative=gJ2vrem5KxinHaV7_d8wAA&utm_campaign=yelp_api_v3&utm_medium=api_v3_business_search&utm_source=gJ2vrem5KxinHaV7_d8wAA", "review_count": 189, "categories": [{"alias": "newamerican", "title": "American (New)"}], "rating": 4.0, "coordinates": {"latitude": 38.4925346374512, "longitude": -122.455497741699}, "transactions": [], "price": "$$$", "location": {"address1": "1 Main St", "address2": "", "address3": "", "city": "St. Helena", "zip_code": "94574", "country": "US", "state": "CA", "display_address": ["1 Main St", "St. Helena, CA 94574"]}, "phone": "+17079674695", "display_phone": "(707) 967-4695", "distance": 1606.5340044556272}, {"id": "_YKgRWZuwkpQ6E2yjIMZIw", "alias": "houtskool-dumplings-at-carter-and-co-st-helena", "name": "Houtskool Dumplings at Carter & Co", "image_url": "https://s3-media3.fl.yelpcdn.com/bphoto/V1NaqQ_kAiXBrDVQ4kEjXQ/o.jpg", "is_closed": false, "url": "https://www.yelp.com/biz/houtskool-dumplings-at-carter-and-co-st-helena?adjust_creative=gJ2vrem5KxinHaV7_d8wAA&utm_campaign=yelp_api_v3&utm_medium=api_v3_business_search&utm_source=gJ2vrem5KxinHaV7_d8wAA", "review_count": 19, "categories": [{"alias": "popuprestaurants", "title": "Pop-Up Restaurants"}], "rating": 4.5, "coordinates": {"latitude": 38.5040743, "longitude": -122.4686391}, "transactions": [], "location": {"address1": "1231 Main St", "address2": null, "address3": null, "city": "St. Helena", "zip_code": "94574", "country": "US", "state": "CA", "display_address": ["1231 Main St", "St. Helena, CA 94574"]}, "phone": "+17079635878", "display_phone": "(707) 963-5878", "distance": 269.39995009739073}, {"id": "fu2olUUKVZL8huQ46a8nWg", "alias": "acacia-house-by-chris-cosentino-saint-helena", "name": "Acacia House by Chris Cosentino", "image_url": "https://s3-media3.fl.yelpcdn.com/bphoto/-GPnTVzyy9JZDx87p6a6tw/o.jpg", "is_closed": false, "url": "https://www.yelp.com/biz/acacia-house-by-chris-cosentino-saint-helena?adjust_creative=gJ2vrem5KxinHaV7_d8wAA&utm_campaign=yelp_api_v3&utm_medium=api_v3_business_search&utm_source=gJ2vrem5KxinHaV7_d8wAA", "review_count": 132, "categories": [{"alias": "newamerican", "title": "American (New)"}, {"alias": "lounges", "title": "Lounges"}], "rating": 4.0, "coordinates": {"latitude": 38.509433, "longitude": -122.47842}, "transactions": [], "price": "$$$", "location": {"address1": "1915 Main St", "address2": null, "address3": "", "city": "Saint Helena", "zip_code": "94574", "country": "US", "state": "CA", "display_address": ["1915 Main St", "Saint Helena, CA 94574"]}, "phone": "+17079639004", "display_phone": "(707) 963-9004", "distance": 1233.8335693080603}, {"id": "E1tTNluMJj293QifiLLSmA", "alias": "the-restaurant-at-meadowood-st-helena", "name": "The Restaurant At Meadowood", "image_url": "https://s3-media3.fl.yelpcdn.com/bphoto/BC51Fb9NjLe5nH6pYI_xLA/o.jpg", "is_closed": false, "url": "https://www.yelp.com/biz/the-restaurant-at-meadowood-st-helena?adjust_creative=gJ2vrem5KxinHaV7_d8wAA&utm_campaign=yelp_api_v3&utm_medium=api_v3_business_search&utm_source=gJ2vrem5KxinHaV7_d8wAA", "review_count": 523, "categories": [{"alias": "newamerican", "title": "American (New)"}, {"alias": "diners", "title": "Diners"}, {"alias": "wine_bars", "title": "Wine Bars"}], "rating": 4.0, "coordinates": {"latitude": 38.522661, "longitude": -122.466564}, "transactions": [], "price": "$$$$", "location": {"address1": "900 Meadowood Ln", "address2": "", "address3": "", "city": "St. Helena", "zip_code": "94574", "country": "US", "state": "CA", "display_address": ["900 Meadowood Ln", "St. Helena, CA 94574"]}, "phone": "+17079671205", "display_phone": "(707) 967-1205", "distance": 1983.4439742048455}, {"id": "3zHiFrCi7SbSQg8VUwgpIg", "alias": "villa-corona-saint-helena", "name": "Villa Corona", "image_url": "https://s3-media4.fl.yelpcdn.com/bphoto/8ZqFbNzhAvoU3CT3mQTq6A/o.jpg", "is_closed": false, "url": "https://www.yelp.com/biz/villa-corona-saint-helena?adjust_creative=gJ2vrem5KxinHaV7_d8wAA&utm_campaign=yelp_api_v3&utm_medium=api_v3_business_search&utm_source=gJ2vrem5KxinHaV7_d8wAA", "review_count": 145, "categories": [{"alias": "mexican", "title": "Mexican"}], "rating": 4.0, "coordinates": {"latitude": 38.50376, "longitude": -122.46741}, "transactions": [], "price": "$$", "location": {"address1": "1138 Main St", "address2": "", "address3": "", "city": "Saint Helena", "zip_code": "94574", "country": "US", "state": "CA", "display_address": ["1138 Main St", "Saint Helena, CA 94574"]}, "phone": "+17079637812", "display_phone": "(707) 963-7812", "distance": 176.5780162738464}, {"id": "xg0QxzSY8P1H3GV2EWiK_g", "alias": "napa-valley-crust-st-helena", "name": "Napa Valley Crust", "image_url": "https://s3-media4.fl.yelpcdn.com/bphoto/_Oa2t_ccNnwdVXH9BuZv9Q/o.jpg", "is_closed": false, "url": "https://www.yelp.com/biz/napa-valley-crust-st-helena?adjust_creative=gJ2vrem5KxinHaV7_d8wAA&utm_campaign=yelp_api_v3&utm_medium=api_v3_business_search&utm_source=gJ2vrem5KxinHaV7_d8wAA", "review_count": 12, "categories": [{"alias": "foodtrucks", "title": "Food Trucks"}, {"alias": "pizza", "title": "Pizza"}], "rating": 4.5, "coordinates": {"latitude": 38.506296, "longitude": -122.469455}, "transactions": [], "location": {"address1": "1010 Adams St", "address2": null, "address3": "", "city": "St. Helena", "zip_code": "94574", "country": "US", "state": "CA", "display_address": ["1010 Adams St", "St. Helena, CA 94574"]}, "phone": "+17073961579", "display_phone": "(707) 396-1579", "distance": 380.2573584512623}, {"id": "xh6R8YLMGTdWj52lEQv5KQ", "alias": "giugni-w-f-and-son-grocery-saint-helena", "name": "Giugni W F & Son Grocery", "image_url": "https://s3-media3.fl.yelpcdn.com/bphoto/aTl0kxiudNsuh60J10-dxA/o.jpg", "is_closed": false, "url": "https://www.yelp.com/biz/giugni-w-f-and-son-grocery-saint-helena?adjust_creative=gJ2vrem5KxinHaV7_d8wAA&utm_campaign=yelp_api_v3&utm_medium=api_v3_business_search&utm_source=gJ2vrem5KxinHaV7_d8wAA", "review_count": 319, "categories": [{"alias": "delis", "title": "Delis"}, {"alias": "vegetarian", "title": "Vegetarian"}, {"alias": "sandwiches", "title": "Sandwiches"}], "rating": 4.5, "coordinates": {"latitude": 38.50389, "longitude": -122.46861}, "transactions": [], "price": "$", "location": {"address1": "1227 Main St", "address2": "", "address3": "", "city": "Saint Helena", "zip_code": "94574", "country": "US", "state": "CA", "display_address": ["1227 Main St", "Saint Helena, CA 94574"]}, "phone": "+17079633421", "display_phone": "(707) 963-3421", "distance": 268.08271078460206}, {"id": "Fbr7ddI52kudI9gWMKoFEg", "alias": "azteca-market-st-helena", "name": "Azteca Market", "image_url": "https://s3-media3.fl.yelpcdn.com/bphoto/6UleioZ-3yYk1Y16ZVJ66w/o.jpg", "is_closed": false, "url": "https://www.yelp.com/biz/azteca-market-st-helena?adjust_creative=gJ2vrem5KxinHaV7_d8wAA&utm_campaign=yelp_api_v3&utm_medium=api_v3_business_search&utm_source=gJ2vrem5KxinHaV7_d8wAA", "review_count": 132, "categories": [{"alias": "grocery", "title": "Grocery"}, {"alias": "mexican", "title": "Mexican"}], "rating": 4.5, "coordinates": {"latitude": 38.50011, "longitude": -122.46454}, "transactions": [], "price": "$", "location": {"address1": "789 Main St", "address2": "", "address3": "", "city": "St. Helena", "zip_code": "94574", "country": "US", "state": "CA", "display_address": ["789 Main St", "St. Helena, CA 94574"]}, "phone": "+17079634963", "display_phone": "(707) 963-4963", "distance": 470.1746654263398}, {"id": "zlmk32c5tFR9-MwxIWFx0Q", "alias": "the-grill-at-meadowood-saint-helena-2", "name": "The Grill at Meadowood", "image_url": "https://s3-media3.fl.yelpcdn.com/bphoto/2wHn8ukq25iUJ2FCIrJLIA/o.jpg", "is_closed": false, "url": "https://www.yelp.com/biz/the-grill-at-meadowood-saint-helena-2?adjust_creative=gJ2vrem5KxinHaV7_d8wAA&utm_campaign=yelp_api_v3&utm_medium=api_v3_business_search&utm_source=gJ2vrem5KxinHaV7_d8wAA", "review_count": 93, "categories": [{"alias": "newamerican", "title": "American (New)"}], "rating": 4.0, "coordinates": {"latitude": 38.5225775574758, "longitude": -122.467365764524}, "transactions": [], "price": "$$$", "location": {"address1": "900 Meadowood Ln", "address2": "", "address3": "", "city": "Saint Helena", "zip_code": "94574", "country": "US", "state": "CA", "display_address": ["900 Meadowood Ln", "Saint Helena, CA 94574"]}, "phone": "+17075314788", "display_phone": "(707) 531-4788", "distance": 1999.965925663969}, {"id": "oIZOnRAL9pBruhk1sQWmhw", "alias": "caffe-della-valle-saint-helena", "name": "Caffe Della Valle", "image_url": "https://s3-media2.fl.yelpcdn.com/bphoto/RNIThPwpQZo1o6rRcSpMoA/o.jpg", "is_closed": false, "url": "https://www.yelp.com/biz/caffe-della-valle-saint-helena?adjust_creative=gJ2vrem5KxinHaV7_d8wAA&utm_campaign=yelp_api_v3&utm_medium=api_v3_business_search&utm_source=gJ2vrem5KxinHaV7_d8wAA", "review_count": 23, "categories": [{"alias": "cafes", "title": "Cafes"}], "rating": 4.0, "coordinates": {"latitude": 38.5036429700167, "longitude": -122.467275948373}, "transactions": [], "price": "$$", "location": {"address1": "1142 Main St", "address2": "", "address3": null, "city": "Saint Helena", "zip_code": "94574", "country": "US", "state": "CA", "display_address": ["1142 Main St", "Saint Helena, CA 94574"]}, "phone": "+17079685257", "display_phone": "(707) 968-5257", "distance": 181.33906756620542}, {"id": "TT0DQI7-dE8N6kpUy1S_HA", "alias": "the-model-bakery-saint-helena", "name": "The Model Bakery", "image_url": "https://s3-media4.fl.yelpcdn.com/bphoto/gUZOkzuwx9_IVfgKh2Zyxw/o.jpg", "is_closed": false, "url": "https://www.yelp.com/biz/the-model-bakery-saint-helena?adjust_creative=gJ2vrem5KxinHaV7_d8wAA&utm_campaign=yelp_api_v3&utm_medium=api_v3_business_search&utm_source=gJ2vrem5KxinHaV7_d8wAA", "review_count": 402, "categories": [{"alias": "bakeries", "title": "Bakeries"}, {"alias": "breakfast_brunch", "title": "Breakfast & Brunch"}, {"alias": "coffee", "title": "Coffee & Tea"}], "rating": 4.0, "coordinates": {"latitude": 38.504771, "longitude": -122.4697654}, "transactions": [], "price": "$$", "location": {"address1": "1357 Main St", "address2": "", "address3": "", "city": "Saint Helena", "zip_code": "94574", "country": "US", "state": "CA", "display_address": ["1357 Main St", "Saint Helena, CA 94574"]}, "phone": "+17079638192", "display_phone": "(707) 963-8192", "distance": 377.5782900696657}, {"id": "aQBQ3XJOut5BXIoHclMu2g", "alias": "gillwoods-cafe-saint-helena", "name": "Gillwoods Cafe", "image_url": "https://s3-media2.fl.yelpcdn.com/bphoto/NcRDHG4eU6BrHtdrpBvV0Q/o.jpg", "is_closed": false, "url": "https://www.yelp.com/biz/gillwoods-cafe-saint-helena?adjust_creative=gJ2vrem5KxinHaV7_d8wAA&utm_campaign=yelp_api_v3&utm_medium=api_v3_business_search&utm_source=gJ2vrem5KxinHaV7_d8wAA", "review_count": 272, "categories": [{"alias": "breakfast_brunch", "title": "Breakfast & Brunch"}, {"alias": "newamerican", "title": "American (New)"}, {"alias": "coffee", "title": "Coffee & Tea"}], "rating": 4.0, "coordinates": {"latitude": 38.504303, "longitude": -122.4690018}, "transactions": ["pickup"], "price": "$$", "location": {"address1": "1313 Main St", "address2": "", "address3": "", "city": "Saint Helena", "zip_code": "94574", "country": "US", "state": "CA", "display_address": ["1313 Main St", "Saint Helena, CA 94574"]}, "phone": "+17079631788", "display_phone": "(707) 963-1788", "distance": 313.3284041762067}, {"id": "vL3mbSAc_cjX2XBpfIHwDg", "alias": "golden-harvest-restaurant-saint-helena-2", "name": "Golden Harvest Restaurant", "image_url": "https://s3-media4.fl.yelpcdn.com/bphoto/fiXJUXjdH8UKs-z3RT2j0Q/o.jpg", "is_closed": false, "url": "https://www.yelp.com/biz/golden-harvest-restaurant-saint-helena-2?adjust_creative=gJ2vrem5KxinHaV7_d8wAA&utm_campaign=yelp_api_v3&utm_medium=api_v3_business_search&utm_source=gJ2vrem5KxinHaV7_d8wAA", "review_count": 76, "categories": [{"alias": "chinese", "title": "Chinese"}], "rating": 3.5, "coordinates": {"latitude": 38.4942359924316, "longitude": -122.456764221191}, "transactions": [], "price": "$$", "location": {"address1": "61 Main St", "address2": "", "address3": "", "city": "Saint Helena", "zip_code": "94574", "country": "US", "state": "CA", "display_address": ["61 Main St", "Saint Helena, CA 94574"]}, "phone": "+17079679888", "display_phone": "(707) 967-9888", "distance": 1384.2944278304715}, {"id": "F_anZUGg6JdnWY650r3LTQ", "alias": "v-sattui-gelateria-saint-helena", "name": "V Sattui Gelateria", "image_url": "https://s3-media2.fl.yelpcdn.com/bphoto/siacKiXFOBVhgS-NcaoL0A/o.jpg", "is_closed": false, "url": "https://www.yelp.com/biz/v-sattui-gelateria-saint-helena?adjust_creative=gJ2vrem5KxinHaV7_d8wAA&utm_campaign=yelp_api_v3&utm_medium=api_v3_business_search&utm_source=gJ2vrem5KxinHaV7_d8wAA", "review_count": 1, "categories": [{"alias": "foodstands", "title": "Food Stands"}, {"alias": "gelato", "title": "Gelato"}], "rating": 5.0, "coordinates": {"latitude": 38.488830122975, "longitude": -122.448687162816}, "transactions": [], "price": "$$$", "location": {"address1": "1111 White Ln", "address2": "", "address3": null, "city": "Saint Helena", "zip_code": "94574", "country": "US", "state": "CA", "display_address": ["1111 White Ln", "Saint Helena, CA 94574"]}, "phone": "", "display_phone": "", "distance": 2294.670203114641}, {"id": "wr0uySjB2iH7qgM5fv9jPA", "alias": "la-prima-pizza-saint-helena", "name": "La Prima Pizza", "image_url": "https://s3-media1.fl.yelpcdn.com/bphoto/kH_sLf4mq4_9L1x6CwTn5A/o.jpg", "is_closed": false, "url": "https://www.yelp.com/biz/la-prima-pizza-saint-helena?adjust_creative=gJ2vrem5KxinHaV7_d8wAA&utm_campaign=yelp_api_v3&utm_medium=api_v3_business_search&utm_source=gJ2vrem5KxinHaV7_d8wAA", "review_count": 75, "categories": [{"alias": "pizza", "title": "Pizza"}, {"alias": "italian", "title": "Italian"}], "rating": 3.0, "coordinates": {"latitude": 38.5062942504883, "longitude": -122.469451904297}, "transactions": [], "price": "$$", "location": {"address1": "1010 Adams St", "address2": "", "address3": "", "city": "Saint Helena", "zip_code": "94574", "country": "US", "state": "CA", "display_address": ["1010 Adams St", "Saint Helena, CA 94574"]}, "phone": "+17079637909", "display_phone": "(707) 963-7909", "distance": 382.1533987255561}, {"id": "atSuuYUxG4Zedv4inBb9OA", "alias": "the-twelve-days-of-christmas-at-meadowood-napa-valley-st-helena", "name": "The Twelve Days of Christmas at Meadowood Napa Valley", "image_url": "https://s3-media2.fl.yelpcdn.com/bphoto/TrFtiK2R6MyB_mWP38NHpg/o.jpg", "is_closed": false, "url": "https://www.yelp.com/biz/the-twelve-days-of-christmas-at-meadowood-napa-valley-st-helena?adjust_creative=gJ2vrem5KxinHaV7_d8wAA&utm_campaign=yelp_api_v3&utm_medium=api_v3_business_search&utm_source=gJ2vrem5KxinHaV7_d8wAA", "review_count": 7, "categories": [{"alias": "newamerican", "title": "American (New)"}], "rating": 4.5, "coordinates": {"latitude": 38.52266, "longitude": -122.46656}, "transactions": [], "price": "$$$$", "location": {"address1": "900 Meadowood Ln", "address2": "", "address3": "", "city": "St. Helena", "zip_code": "94574", "country": "US", "state": "CA", "display_address": ["900 Meadowood Ln", "St. Helena, CA 94574"]}, "phone": "+17079633646", "display_phone": "(707) 963-3646", "distance": 1983.4439742048455}, {"id": "clJtLnufj3exhXS2mCTk4Q", "alias": "that-pizza-place-st-helena", "name": "That Pizza Place", "image_url": "https://s3-media4.fl.yelpcdn.com/bphoto/1XshUmDFMt_ZRVdv-xounA/o.jpg", "is_closed": false, "url": "https://www.yelp.com/biz/that-pizza-place-st-helena?adjust_creative=gJ2vrem5KxinHaV7_d8wAA&utm_campaign=yelp_api_v3&utm_medium=api_v3_business_search&utm_source=gJ2vrem5KxinHaV7_d8wAA", "review_count": 42, "categories": [{"alias": "pizza", "title": "Pizza"}], "rating": 3.5, "coordinates": {"latitude": 38.503632, "longitude": -122.467804}, "transactions": [], "price": "$", "location": {"address1": "1149 Main St", "address2": "", "address3": "", "city": "St. Helena", "zip_code": "94574", "country": "US", "state": "CA", "display_address": ["1149 Main St", "St. Helena, CA 94574"]}, "phone": "+17079689671", "display_phone": "(707) 968-9671", "distance": 220.0762595976454}, {"id": "9MZaUp_j47UqgLZIf1ezmw", "alias": "a-and-w-restaurant-saint-helena-2", "name": "A&W Restaurant", "image_url": "https://s3-media3.fl.yelpcdn.com/bphoto/LONMeKySc79lSisrC0Eixw/o.jpg", "is_closed": false, "url": "https://www.yelp.com/biz/a-and-w-restaurant-saint-helena-2?adjust_creative=gJ2vrem5KxinHaV7_d8wAA&utm_campaign=yelp_api_v3&utm_medium=api_v3_business_search&utm_source=gJ2vrem5KxinHaV7_d8wAA", "review_count": 48, "categories": [{"alias": "burgers", "title": "Burgers"}, {"alias": "hotdogs", "title": "Fast Food"}, {"alias": "hotdog", "title": "Hot Dogs"}], "rating": 3.5, "coordinates": {"latitude": 38.498659, "longitude": -122.461852}, "transactions": [], "price": "$", "location": {"address1": "501 Main St", "address2": "", "address3": "", "city": "Saint Helena", "zip_code": "94574", "country": "US", "state": "CA", "display_address": ["501 Main St", "Saint Helena, CA 94574"]}, "phone": "+17079634333", "display_phone": "(707) 963-4333", "distance": 742.140248550093}, {"id": "UaHYw71N_ssHGL0fP3KgrA", "alias": "cucina-di-rosa-saint-helena", "name": "Cucina di Rosa", "image_url": "https://s3-media2.fl.yelpcdn.com/bphoto/6XGMKR2plcrHBk2HpQCY-w/o.jpg", "is_closed": false, "url": "https://www.yelp.com/biz/cucina-di-rosa-saint-helena?adjust_creative=gJ2vrem5KxinHaV7_d8wAA&utm_campaign=yelp_api_v3&utm_medium=api_v3_business_search&utm_source=gJ2vrem5KxinHaV7_d8wAA", "review_count": 4, "categories": [{"alias": "cafes", "title": "Cafes"}], "rating": 4.0, "coordinates": {"latitude": 38.518711, "longitude": -122.481777}, "transactions": [], "location": {"address1": "2800 Main St", "address2": "", "address3": "", "city": "Saint Helena", "zip_code": "94574", "country": "US", "state": "CA", "display_address": ["2800 Main St", "Saint Helena, CA 94574"]}, "phone": "+17079672200", "display_phone": "(707) 967-2200", "distance": 2102.608723019991}, {"id": "ZC7CArYAKKRSFHnPYtKc-g", "alias": "verns-copper-chimney-st-helena", "name": "Vern's Copper Chimney", "image_url": "", "is_closed": false, "url": "https://www.yelp.com/biz/verns-copper-chimney-st-helena?adjust_creative=gJ2vrem5KxinHaV7_d8wAA&utm_campaign=yelp_api_v3&utm_medium=api_v3_business_search&utm_source=gJ2vrem5KxinHaV7_d8wAA", "review_count": 3, "categories": [{"alias": "diners", "title": "Diners"}], "rating": 3.5, "coordinates": {"latitude": 38.4993, "longitude": -122.46259}, "transactions": [], "price": "$", "location": {"address1": "641 Main St", "address2": "", "address3": "", "city": "St. Helena", "zip_code": "94574", "country": "US", "state": "CA", "display_address": ["641 Main St", "St. Helena, CA 94574"]}, "phone": "", "display_phone": "", "distance": 649.0239637927546}, {"id": "7L-Z-W6gpPh05Klul88few", "alias": "deep-smoke-napa-napa-2", "name": "Deep Smoke Napa", "image_url": "https://s3-media2.fl.yelpcdn.com/bphoto/r0Y93GK6EZrXzwbIAYehtw/o.jpg", "is_closed": false, "url": "https://www.yelp.com/biz/deep-smoke-napa-napa-2?adjust_creative=gJ2vrem5KxinHaV7_d8wAA&utm_campaign=yelp_api_v3&utm_medium=api_v3_business_search&utm_source=gJ2vrem5KxinHaV7_d8wAA", "review_count": 8, "categories": [{"alias": "foodtrucks", "title": "Food Trucks"}, {"alias": "catering", "title": "Caterers"}, {"alias": "bbq", "title": "Barbeque"}], "rating": 5.0, "coordinates": {"latitude": 38.2971305847168, "longitude": -122.286437988281}, "transactions": [], "location": {"address1": "", "address2": null, "address3": "", "city": "Napa", "zip_code": "94581", "country": "US", "state": "CA", "display_address": ["Napa, CA 94581"]}, "phone": "+17073660227", "display_phone": "(707) 366-0227", "distance": 27918.689231245007}, {"id": "dSFM8fqhtkBNsPq6znvDwQ", "alias": "la-condesa-restaurant-saint-helena", "name": "La Condesa Restaurant", "image_url": "", "is_closed": false, "url": "https://www.yelp.com/biz/la-condesa-restaurant-saint-helena?adjust_creative=gJ2vrem5KxinHaV7_d8wAA&utm_campaign=yelp_api_v3&utm_medium=api_v3_business_search&utm_source=gJ2vrem5KxinHaV7_d8wAA", "review_count": 1, "categories": [{"alias": "newamerican", "title": "American (New)"}], "rating": 2.0, "coordinates": {"latitude": 38.503109, "longitude": -122.4683304}, "transactions": [], "location": {"address1": "1245 Spring St", "address2": "", "address3": "", "city": "Saint Helena", "zip_code": "94574", "country": "US", "state": "CA", "display_address": ["1245 Spring St", "Saint Helena, CA 94574"]}, "phone": "", "display_phone": "", "distance": 293.82841272411656}, {"id": "4yKNDUi5AZXVCqXyo3PRxA", "alias": "napa-valley-wine-train-napa", "name": "Napa Valley Wine Train", "image_url": "https://s3-media3.fl.yelpcdn.com/bphoto/Kj0QBQz4lDBogzz1H5WBZA/o.jpg", "is_closed": false, "url": "https://www.yelp.com/biz/napa-valley-wine-train-napa?adjust_creative=gJ2vrem5KxinHaV7_d8wAA&utm_campaign=yelp_api_v3&utm_medium=api_v3_business_search&utm_source=gJ2vrem5KxinHaV7_d8wAA", "review_count": 1331, "categories": [{"alias": "newamerican", "title": "American (New)"}, {"alias": "winetours", "title": "Wine Tours"}], "rating": 4.0, "coordinates": {"latitude": 38.302398, "longitude": -122.283715}, "transactions": [], "price": "$$$$", "location": {"address1": "1275 McKinstry St", "address2": "", "address3": "", "city": "Napa", "zip_code": "94559", "country": "US", "state": "CA", "display_address": ["1275 McKinstry St", "Napa, CA 94559"]}, "phone": "+17072532160", "display_phone": "(707) 253-2160", "distance": 27513.86430779579}, {"id": "i6ZwMjYIbmFZ8EGYz6x5Bw", "alias": "phat-salads-and-wraps-napa", "name": "Phat Salads and Wraps", "image_url": "https://s3-media2.fl.yelpcdn.com/bphoto/FbrUwtrVIx2cLXiPdBhHkw/o.jpg", "is_closed": false, "url": "https://www.yelp.com/biz/phat-salads-and-wraps-napa?adjust_creative=gJ2vrem5KxinHaV7_d8wAA&utm_campaign=yelp_api_v3&utm_medium=api_v3_business_search&utm_source=gJ2vrem5KxinHaV7_d8wAA", "review_count": 48, "categories": [{"alias": "foodtrucks", "title": "Food Trucks"}, {"alias": "wraps", "title": "Wraps"}], "rating": 4.0, "coordinates": {"latitude": 38.3234491, "longitude": -122.3023962}, "transactions": [], "price": "$", "location": {"address1": "", "address2": "", "address3": "", "city": "Napa", "zip_code": "94558", "country": "US", "state": "CA", "display_address": ["Napa, CA 94558"]}, "phone": "+17073639658", "display_phone": "(707) 363-9658", "distance": 24661.57786051344}, {"id": "3zRfkzhTk7jzXNC0cKdWRg", "alias": "tortas-gigantes-metro-balderas-2-santa-rosa", "name": "Tortas Gigantes Metro Balderas 2", "image_url": "https://s3-media3.fl.yelpcdn.com/bphoto/1zH8mMORZDEuR8Eg1A4ilQ/o.jpg", "is_closed": false, "url": "https://www.yelp.com/biz/tortas-gigantes-metro-balderas-2-santa-rosa?adjust_creative=gJ2vrem5KxinHaV7_d8wAA&utm_campaign=yelp_api_v3&utm_medium=api_v3_business_search&utm_source=gJ2vrem5KxinHaV7_d8wAA", "review_count": 4, "categories": [{"alias": "foodtrucks", "title": "Food Trucks"}, {"alias": "mexican", "title": "Mexican"}], "rating": 4.0, "coordinates": {"latitude": 38.42913, "longitude": -122.73433}, "transactions": [], "price": "$", "location": {"address1": "1289 Sebastopol Rd", "address2": "", "address3": null, "city": "Santa Rosa", "zip_code": "95407", "country": "US", "state": "CA", "display_address": ["1289 Sebastopol Rd", "Santa Rosa, CA 95407"]}, "phone": "+17072604343", "display_phone": "(707) 260-4343", "distance": 24873.66353353092}]}