{"location": "Windsor, CA", "term": "restaurant", "radius": 2446, "businesses": [{"id": "OJ12w42gHUvpuOsl3C_qiA", "alias": "tisza-windsor", "name": "Tisza", "image_url": "https://s3-media3.fl.yelpcdn.com/bphoto/ULjif2woeLQoE_YlCwRE0Q/o.jpg", "is_closed": false, "url": "https://www.yelp.com/biz/tisza-windsor?adjust_creative=P6MImhcUyxgZvsglqHjFaw&utm_campaign=yelp_api_v3&utm_medium=api_v3_business_search&utm_source=P6MImhcUyxgZvsglqHjFaw", "review_count": 208, "categories": [{"alias": "tradamerican", "title": "American (Traditional)"}, {"alias": "bars", "title": "Bars"}, {"alias": "modern_european", "title": "Modern European"}], "rating": 4.5, "coordinates": {"latitude": 38.545956, "longitude": -122.806233}, "transactions": [], "price": "$$", "location": {"address1": "8757 Old Redwood Hwy", "address2": "", "address3": null, "city": "Windsor", "zip_code": "95492", "country": "US", "state": "CA", "display_address": ["8757 Old Redwood Hwy", "Windsor, CA 95492"]}, "phone": "+17078385100", "display_phone": "(707) 838-5100", "distance": 309.1426093657344}, {"id": "yl_0Jlu6PnvaQ00xnWPOAg", "alias": "kin-windsor-windsor", "name": "KIN Windsor", "image_url": "https://s3-media2.fl.yelpcdn.com/bphoto/SzYV1QuU3iUtqa4SIZbqOQ/o.jpg", "is_closed": false, "url": "https://www.yelp.com/biz/kin-windsor-windsor?adjust_creative=P6MImhcUyxgZvsglqHjFaw&utm_campaign=yelp_api_v3&utm_medium=api_v3_business_search&utm_source=P6MImhcUyxgZvsglqHjFaw", "review_count": 556, "categories": [{"alias": "newamerican", "title": "American (New)"}], "rating": 4.0, "coordinates": {"latitude": 38.548105, "longitude": -122.815237}, "transactions": ["pickup", "delivery"], "price": "$$", "location": {"address1": "740 McClelland Dr", "address2": "", "address3": "", "city": "Windsor", "zip_code": "95492", "country": "US", "state": "CA", "display_address": ["740 McClelland Dr", "Windsor, CA 95492"]}, "phone": "+17078377546", "display_phone": "(707) 837-7546", "distance": 871.3183815512685}, {"id": "SzeIpzaZIZ-1rPDJS7D8oQ", "alias": "sweet-ts-restaurant-bar-windsor-2", "name": "Sweet T's Restaurant + Bar", "image_url": "https://s3-media3.fl.yelpcdn.com/bphoto/rG7T26G7o2XQHSfs0Ya09Q/o.jpg", "is_closed": false, "url": "https://www.yelp.com/biz/sweet-ts-restaurant-bar-windsor-2?adjust_creative=P6MImhcUyxgZvsglqHjFaw&utm_campaign=yelp_api_v3&utm_medium=api_v3_business_search&utm_source=P6MImhcUyxgZvsglqHjFaw", "review_count": 218, "categories": [{"alias": "southern", "title": "Southern"}, {"alias": "bbq", "title": "Barbeque"}], "rating": 4.0, "coordinates": {"latitude": 38.55147833, "longitude": -122.80706}, "transactions": [], "price": "$$", "location": {"address1": "9098 Brooks Rd S", "address2": "", "address3": null, "city": "Windsor", "zip_code": "95492", "country": "US", "state": "CA", "display_address": ["9098 Brooks Rd S", "Windsor, CA 95492"]}, "phone": "+17076875185", "display_phone": "(707) 687-5185", "distance": 964.680223844762}, {"id": "k_oIDPZBbzyoQLPn7zscDA", "alias": "tomi-thai-restaurant-windsor", "name": "Tomi Thai Restaurant", "image_url": "https://s3-media3.fl.yelpcdn.com/bphoto/cnxrpk2fOA8qP8Lhoc1nNA/o.jpg", "is_closed": false, "url": "https://www.yelp.com/biz/tomi-thai-restaurant-windsor?adjust_creative=P6MImhcUyxgZvsglqHjFaw&utm_campaign=yelp_api_v3&utm_medium=api_v3_business_search&utm_source=P6MImhcUyxgZvsglqHjFaw", "review_count": 321, "categories": [{"alias": "thai", "title": "Thai"}], "rating": 4.5, "coordinates": {"latitude": 38.54882, "longitude": -122.817024}, "transactions": [], "price": "$$", "location": {"address1": "426 Emily Rose Cir", "address2": "", "address3": "", "city": "Windsor", "zip_code": "95492", "country": "US", "state": "CA", "display_address": ["426 Emily Rose Cir", "Windsor, CA 95492"]}, "phone": "+17078361422", "display_phone": "(707) 836-1422", "distance": 1042.1134910107642}, {"id": "HSm6e_BmMgGqZWpSOa58dw", "alias": "kcs-american-kitchen-windsor-2", "name": "KCs American Kitchen", "image_url": "https://s3-media2.fl.yelpcdn.com/bphoto/IyghOiGNtSpqVc1rk3ctDQ/o.jpg", "is_closed": false, "url": "https://www.yelp.com/biz/kcs-american-kitchen-windsor-2?adjust_creative=P6MImhcUyxgZvsglqHjFaw&utm_campaign=yelp_api_v3&utm_medium=api_v3_business_search&utm_source=P6MImhcUyxgZvsglqHjFaw", "review_count": 588, "categories": [{"alias": "tradamerican", "title": "American (Traditional)"}, {"alias": "breakfast_brunch", "title": "Breakfast & Brunch"}], "rating": 4.0, "coordinates": {"latitude": 38.548551, "longitude": -122.8162139}, "transactions": ["pickup", "delivery"], "price": "$$", "location": {"address1": "9501 Duvander Ln", "address2": "", "address3": "", "city": "Windsor", "zip_code": "95492", "country": "US", "state": "CA", "display_address": ["9501 Duvander Ln", "Windsor, CA 95492"]}, "phone": "+17078387800", "display_phone": "(707) 838-7800", "distance": 968.3786848773309}, {"id": "ctDFNkBsDchCbw-Yry__oQ", "alias": "himalayan-restaurant-windsor-3", "name": "Himalayan Restaurant", "image_url": "https://s3-media3.fl.yelpcdn.com/bphoto/fwTjT7qt3sG9Nkl4ShtbNQ/o.jpg", "is_closed": false, "url": "https://www.yelp.com/biz/himalayan-restaurant-windsor-3?adjust_creative=P6MImhcUyxgZvsglqHjFaw&utm_campaign=yelp_api_v3&utm_medium=api_v3_business_search&utm_source=P6MImhcUyxgZvsglqHjFaw", "review_count": 365, "categories": [{"alias": "himalayan", "title": "Himalayan/Nepalese"}, {"alias": "indpak", "title": "Indian"}, {"alias": "vegan", "title": "Vegan"}], "rating": 4.5, "coordinates": {"latitude": 38.54804, "longitude": -122.8157}, "transactions": ["pickup"], "price": "$$", "location": {"address1": "810 McClelland Dr", "address2": "", "address3": "", "city": "Windsor", "zip_code": "95492", "country": "US", "state": "CA", "display_address": ["810 McClelland Dr", "Windsor, CA 95492"]}, "phone": "+17078386746", "display_phone": "(707) 838-6746", "distance": 901.4523950420128}, {"id": "3dl72Xz8P9RPqbrDBur8RQ", "alias": "barley-and-bine-beer-cafe-windsor", "name": "Barley & Bine Beer Cafe", "image_url": "https://s3-media1.fl.yelpcdn.com/bphoto/y6v1HsG2XEMtkX_IHQ31Jw/o.jpg", "is_closed": false, "url": "https://www.yelp.com/biz/barley-and-bine-beer-cafe-windsor?adjust_creative=P6MImhcUyxgZvsglqHjFaw&utm_campaign=yelp_api_v3&utm_medium=api_v3_business_search&utm_source=P6MImhcUyxgZvsglqHjFaw", "review_count": 102, "categories": [{"alias": "beergardens", "title": "Beer Gardens"}, {"alias": "pizza", "title": "Pizza"}, {"alias": "sandwiches", "title": "Sandwiches"}], "rating": 4.5, "coordinates": {"latitude": 38.53625796206, "longitude": -122.805095038658}, "transactions": [], "price": "$$", "location": {"address1": "7765 Bell Rd", "address2": "", "address3": null, "city": "Windsor", "zip_code": "95492", "country": "US", "state": "CA", "display_address": ["7765 Bell Rd", "Windsor, CA 95492"]}, "phone": "+17076577774", "display_phone": "(707) 657-7774", "distance": 785.7807041160636}, {"id": "f8cItKralZBFx-thw-cDFA", "alias": "khum-koon-windsor", "name": "Khum Koon", "image_url": "https://s3-media3.fl.yelpcdn.com/bphoto/T5w9PlxXlFv2pc-dqFoBLA/o.jpg", "is_closed": false, "url": "https://www.yelp.com/biz/khum-koon-windsor?adjust_creative=P6MImhcUyxgZvsglqHjFaw&utm_campaign=yelp_api_v3&utm_medium=api_v3_business_search&utm_source=P6MImhcUyxgZvsglqHjFaw", "review_count": 45, "categories": [{"alias": "thai", "title": "Thai"}], "rating": 4.0, "coordinates": {"latitude": 38.5471690678879, "longitude": -122.812941048966}, "transactions": [], "price": "$$", "location": {"address1": "186 Windsor River Rd", "address2": "", "address3": null, "city": "Windsor", "zip_code": "95492", "country": "US", "state": "CA", "display_address": ["186 Windsor River Rd", "Windsor, CA 95492"]}, "phone": "+17078922997", "display_phone": "(707) 892-2997", "distance": 653.4518948455585}, {"id": "gD8FLXZCg2T4isVOlqK5lw", "alias": "tian-yuen-asian-cuisine-windsor", "name": "Tian Yuen Asian Cuisine", "image_url": "https://s3-media3.fl.yelpcdn.com/bphoto/rhSTHfq2GO5VySXlh2DYrw/o.jpg", "is_closed": false, "url": "https://www.yelp.com/biz/tian-yuen-asian-cuisine-windsor?adjust_creative=P6MImhcUyxgZvsglqHjFaw&utm_campaign=yelp_api_v3&utm_medium=api_v3_business_search&utm_source=P6MImhcUyxgZvsglqHjFaw", "review_count": 57, "categories": [{"alias": "asianfusion", "title": "Asian Fusion"}], "rating": 4.0, "coordinates": {"latitude": 38.5481323840392, "longitude": -122.813902013004}, "transactions": [], "location": {"address1": "610 McClelland Dr", "address2": "", "address3": null, "city": "Windsor", "zip_code": "95492", "country": "US", "state": "CA", "display_address": ["610 McClelland Dr", "Windsor, CA 95492"]}, "phone": "+17078922968", "display_phone": "(707) 892-2968", "distance": 788.3295074589723}, {"id": "qJ2C0WzmY2cVU3a13vuKrw", "alias": "ume-japanese-bistro-windsor", "name": "Ume Japanese Bistro", "image_url": "https://s3-media2.fl.yelpcdn.com/bphoto/nwSNRqLfNOizBIwF_-nnKw/o.jpg", "is_closed": false, "url": "https://www.yelp.com/biz/ume-japanese-bistro-windsor?adjust_creative=P6MImhcUyxgZvsglqHjFaw&utm_campaign=yelp_api_v3&utm_medium=api_v3_business_search&utm_source=P6MImhcUyxgZvsglqHjFaw", "review_count": 273, "categories": [{"alias": "japanese", "title": "Japanese"}, {"alias": "sushi", "title": "Sushi Bars"}], "rating": 4.0, "coordinates": {"latitude": 38.545938, "longitude": -122.8051133}, "transactions": [], "price": "$$", "location": {"address1": "8710 Old Redwood Hwy", "address2": null, "address3": "", "city": "Windsor", "zip_code": "95492", "country": "US", "state": "CA", "display_address": ["8710 Old Redwood Hwy", "Windsor, CA 95492"]}, "phone": "+17078386700", "display_phone": "(707) 838-6700", "distance": 385.9326889296746}, {"id": "BHPRf1P8RxF2JeSSNkN5eA", "alias": "qimura-sushi-and-ramen-windsor-3", "name": "Qimura Sushi & Ramen", "image_url": "https://s3-media2.fl.yelpcdn.com/bphoto/uas0rj4B_XrvRlmwX0WaeQ/o.jpg", "is_closed": false, "url": "https://www.yelp.com/biz/qimura-sushi-and-ramen-windsor-3?adjust_creative=P6MImhcUyxgZvsglqHjFaw&utm_campaign=yelp_api_v3&utm_medium=api_v3_business_search&utm_source=P6MImhcUyxgZvsglqHjFaw", "review_count": 122, "categories": [{"alias": "sushi", "title": "Sushi Bars"}, {"alias": "ramen", "title": "Ramen"}], "rating": 4.0, "coordinates": {"latitude": 38.5490910335127, "longitude": -122.807172685862}, "transactions": ["pickup", "delivery"], "price": "$$", "location": {"address1": "8960 Brooks Rd S", "address2": "", "address3": null, "city": "Windsor", "zip_code": "95492", "country": "US", "state": "CA", "display_address": ["8960 Brooks Rd S", "Windsor, CA 95492"]}, "phone": "+17078361699", "display_phone": "(707) 836-1699", "distance": 672.4026620450667}, {"id": "Mq6LSJ_FJs-d_ogcTXlPgA", "alias": "red-bee-bbq-windsor-3", "name": "Red Bee Bbq", "image_url": "https://s3-media1.fl.yelpcdn.com/bphoto/hfNG_rqnGwxTO2qraRxPxg/o.jpg", "is_closed": false, "url": "https://www.yelp.com/biz/red-bee-bbq-windsor-3?adjust_creative=P6MImhcUyxgZvsglqHjFaw&utm_campaign=yelp_api_v3&utm_medium=api_v3_business_search&utm_source=P6MImhcUyxgZvsglqHjFaw", "review_count": 110, "categories": [{"alias": "bbq", "title": "Barbeque"}, {"alias": "sandwiches", "title": "Sandwiches"}, {"alias": "asianfusion", "title": "Asian Fusion"}], "rating": 4.0, "coordinates": {"latitude": 38.5494788424012, "longitude": -122.806564830244}, "transactions": ["delivery"], "price": "$", "location": {"address1": "8970 Brooks Rd S", "address2": "", "address3": null, "city": "Windsor", "zip_code": "95492", "country": "US", "state": "CA", "display_address": ["8970 Brooks Rd S", "Windsor, CA 95492"]}, "phone": "+17078364099", "display_phone": "(707) 836-4099", "distance": 720.0184599496229}, {"id": "zaQ4PNIWVYG315PYHIhTTg", "alias": "skillets-cafe-windsor", "name": "Skillets Cafe", "image_url": "https://s3-media3.fl.yelpcdn.com/bphoto/yhW4Ryu92H51PphxJLTxXg/o.jpg", "is_closed": false, "url": "https://www.yelp.com/biz/skillets-cafe-windsor?adjust_creative=P6MImhcUyxgZvsglqHjFaw&utm_campaign=yelp_api_v3&utm_medium=api_v3_business_search&utm_source=P6MImhcUyxgZvsglqHjFaw", "review_count": 235, "categories": [{"alias": "breakfast_brunch", "title": "Breakfast & Brunch"}, {"alias": "cafes", "title": "Cafes"}], "rating": 4.5, "coordinates": {"latitude": 38.5479177985651, "longitude": -122.805699982323}, "transactions": [], "price": "$$", "location": {"address1": "8776 Lakewood Dr", "address2": "", "address3": "", "city": "Windsor", "zip_code": "95492", "country": "US", "state": "CA", "display_address": ["8776 Lakewood Dr", "Windsor, CA 95492"]}, "phone": "+17076577599", "display_phone": "(707) 657-7599", "distance": 565.1573455836902}, {"id": "nArXpNlLpL-aFKOp-_ZRcA", "alias": "el-gallo-negro-windsor", "name": "El Gallo Negro", "image_url": "https://s3-media4.fl.yelpcdn.com/bphoto/O3q-xWVD4RJEOYt5qGdkpA/o.jpg", "is_closed": false, "url": "https://www.yelp.com/biz/el-gallo-negro-windsor?adjust_creative=P6MImhcUyxgZvsglqHjFaw&utm_campaign=yelp_api_v3&utm_medium=api_v3_business_search&utm_source=P6MImhcUyxgZvsglqHjFaw", "review_count": 33, "categories": [{"alias": "mexican", "title": "Mexican"}, {"alias": "cocktailbars", "title": "Cocktail Bars"}], "rating": 3.5, "coordinates": {"latitude": 38.5432865667887, "longitude": -122.801240094846}, "transactions": [], "location": {"address1": "8465 Old Redwood Hwy", "address2": "Ste 101", "address3": null, "city": "Windsor", "zip_code": "95492", "country": "US", "state": "CA", "display_address": ["8465 Old Redwood Hwy", "Ste 101", "Windsor, CA 95492"]}, "phone": "+17078389511", "display_phone": "(707) 838-9511", "distance": 551.9116874409189}, {"id": "g3MwSfnL6PWWXNgTqvoZlQ", "alias": "jaded-toad-bbq-and-grill-windsor-windsor-2", "name": "Jaded Toad BBQ & Grill - Windsor", "image_url": "https://s3-media2.fl.yelpcdn.com/bphoto/lkhejmib5XJZeJ2fzS6oPw/o.jpg", "is_closed": false, "url": "https://www.yelp.com/biz/jaded-toad-bbq-and-grill-windsor-windsor-2?adjust_creative=P6MImhcUyxgZvsglqHjFaw&utm_campaign=yelp_api_v3&utm_medium=api_v3_business_search&utm_source=P6MImhcUyxgZvsglqHjFaw", "review_count": 406, "categories": [{"alias": "bbq", "title": "Barbeque"}, {"alias": "tradamerican", "title": "American (Traditional)"}, {"alias": "cajun", "title": "Cajun/Creole"}], "rating": 3.0, "coordinates": {"latitude": 38.54759, "longitude": -122.81466}, "transactions": [], "price": "$$", "location": {"address1": "275 Windsor River Rd", "address2": "", "address3": "", "city": "Windsor", "zip_code": "95492", "country": "US", "state": "CA", "display_address": ["275 Windsor River Rd", "Windsor, CA 95492"]}, "phone": "+17078388336", "display_phone": "(707) 838-8336", "distance": 795.3119733929589}, {"id": "2vDxljc9mq0sh86nqoPiQQ", "alias": "burtonz-bakery-windsor", "name": "BurtoNZ bakery", "image_url": "https://s3-media1.fl.yelpcdn.com/bphoto/rT-t-PgBSkZE7-Hzi2fSuQ/o.jpg", "is_closed": false, "url": "https://www.yelp.com/biz/burtonz-bakery-windsor?adjust_creative=P6MImhcUyxgZvsglqHjFaw&utm_campaign=yelp_api_v3&utm_medium=api_v3_business_search&utm_source=P6MImhcUyxgZvsglqHjFaw", "review_count": 200, "categories": [{"alias": "bakeries", "title": "Bakeries"}, {"alias": "cafes", "title": "Cafes"}], "rating": 4.5, "coordinates": {"latitude": 38.5515020819776, "longitude": -122.805688170347}, "transactions": [], "price": "$", "location": {"address1": "9076 Brooks Rd S", "address2": "", "address3": "", "city": "Windsor", "zip_code": "95492", "country": "US", "state": "CA", "display_address": ["9076 Brooks Rd S", "Windsor, CA 95492"]}, "phone": "+17076875455", "display_phone": "(707) 687-5455", "distance": 953.8505920077426}, {"id": "hYstotB2wr55fmN3WdZBYw", "alias": "mi-pueblo-windsor", "name": "Mi Pueblo", "image_url": "https://s3-media3.fl.yelpcdn.com/bphoto/enNaFrp7pe4s-bWgPZOu3A/o.jpg", "is_closed": false, "url": "https://www.yelp.com/biz/mi-pueblo-windsor?adjust_creative=P6MImhcUyxgZvsglqHjFaw&utm_campaign=yelp_api_v3&utm_medium=api_v3_business_search&utm_source=P6MImhcUyxgZvsglqHjFaw", "review_count": 121, "categories": [{"alias": "mexican", "title": "Mexican"}], "rating": 3.5, "coordinates": {"latitude": 38.548321542343, "longitude": -122.804852720743}, "transactions": ["pickup"], "price": "$$", "location": {"address1": "8832 Lakewood Dr", "address2": "", "address3": "", "city": "Windsor", "zip_code": "95492", "country": "US", "state": "CA", "display_address": ["8832 Lakewood Dr", "Windsor, CA 95492"]}, "phone": "+17078364360", "display_phone": "(707) 836-4360", "distance": 632.065240593183}, {"id": "YnyOJy9h3WLzLka56NGUrQ", "alias": "fruity-moto-windsor", "name": "Fruity Moto", "image_url": "https://s3-media4.fl.yelpcdn.com/bphoto/NfK5trQqWVBB7fS0Urqu5w/o.jpg", "is_closed": false, "url": "https://www.yelp.com/biz/fruity-moto-windsor?adjust_creative=P6MImhcUyxgZvsglqHjFaw&utm_campaign=yelp_api_v3&utm_medium=api_v3_business_search&utm_source=P6MImhcUyxgZvsglqHjFaw", "review_count": 5, "categories": [{"alias": "juicebars", "title": "Juice Bars & Smoothies"}, {"alias": "coffeeroasteries", "title": "Coffee Roasteries"}, {"alias": "cafes", "title": "Cafes"}], "rating": 4.5, "coordinates": {"latitude": 38.548075, "longitude": -122.8166189}, "transactions": [], "location": {"address1": "9054 Windsor Rd", "address2": "", "address3": null, "city": "Windsor", "zip_code": "95492", "country": "US", "state": "CA", "display_address": ["9054 Windsor Rd", "Windsor, CA 95492"]}, "phone": "+17076238670", "display_phone": "(707) 623-8670", "distance": 964.3538082110972}, {"id": "gHijPA35lHDQLK32UMmdyg", "alias": "superburger-windsor-2", "name": "Superburger", "image_url": "https://s3-media4.fl.yelpcdn.com/bphoto/KYqf1wbTreN-RWbDGvze9w/o.jpg", "is_closed": false, "url": "https://www.yelp.com/biz/superburger-windsor-2?adjust_creative=P6MImhcUyxgZvsglqHjFaw&utm_campaign=yelp_api_v3&utm_medium=api_v3_business_search&utm_source=P6MImhcUyxgZvsglqHjFaw", "review_count": 143, "categories": [{"alias": "tradamerican", "title": "American (Traditional)"}, {"alias": "burgers", "title": "Burgers"}, {"alias": "sandwiches", "title": "Sandwiches"}], "rating": 3.5, "coordinates": {"latitude": 38.5494292658223, "longitude": -122.812812807042}, "transactions": [], "price": "$$", "location": {"address1": "9238 Old Redwood Hwy", "address2": "", "address3": null, "city": "Windsor", "zip_code": "95492", "country": "US", "state": "CA", "display_address": ["9238 Old Redwood Hwy", "Windsor, CA 95492"]}, "phone": "+17076200745", "display_phone": "(707) 620-0745", "distance": 842.5968606081095}, {"id": "s5v4sqcfPcz7JYPjc-Uygw", "alias": "thumbs-up-burger-windsor", "name": "Thumbs Up Burger", "image_url": "https://s3-media3.fl.yelpcdn.com/bphoto/2JGTtpbh6wqOL2eaC6OhsQ/o.jpg", "is_closed": false, "url": "https://www.yelp.com/biz/thumbs-up-burger-windsor?adjust_creative=P6MImhcUyxgZvsglqHjFaw&utm_campaign=yelp_api_v3&utm_medium=api_v3_business_search&utm_source=P6MImhcUyxgZvsglqHjFaw", "review_count": 140, "categories": [{"alias": "burgers", "title": "Burgers"}, {"alias": "delis", "title": "Delis"}, {"alias": "breakfast_brunch", "title": "Breakfast & Brunch"}], "rating": 4.0, "coordinates": {"latitude": 38.5434399, "longitude": -122.80124}, "transactions": ["pickup"], "price": "$", "location": {"address1": "8465 Old Redwood Hwy", "address2": "", "address3": "", "city": "Windsor", "zip_code": "95492", "country": "US", "state": "CA", "display_address": ["8465 Old Redwood Hwy", "Windsor, CA 95492"]}, "phone": "+17078377443", "display_phone": "(707) 837-7443", "distance": 556.1776369833024}, {"id": "tiJwqSKfIgA1akrYE-N9JQ", "alias": "raleys-windsor", "name": "Raley's", "image_url": "https://s3-media2.fl.yelpcdn.com/bphoto/kWioACkbZG6gczu2JlZGeQ/o.jpg", "is_closed": false, "url": "https://www.yelp.com/biz/raleys-windsor?adjust_creative=P6MImhcUyxgZvsglqHjFaw&utm_campaign=yelp_api_v3&utm_medium=api_v3_business_search&utm_source=P6MImhcUyxgZvsglqHjFaw", "review_count": 47, "categories": [{"alias": "grocery", "title": "Grocery"}, {"alias": "delis", "title": "Delis"}, {"alias": "beer_and_wine", "title": "Beer, Wine & Spirits"}], "rating": 3.5, "coordinates": {"latitude": 38.5501406, "longitude": -122.8051853}, "transactions": [], "price": "$$", "location": {"address1": "8852 Lakewood Dr", "address2": "", "address3": "", "city": "Windsor", "zip_code": "95492", "country": "US", "state": "CA", "display_address": ["8852 Lakewood Dr", "Windsor, CA 95492"]}, "phone": "+17078386604", "display_phone": "(707) 838-6604", "distance": 815.2075316893846}, {"id": "ZCGjYHynxRbNYYwLruApPg", "alias": "marys-pizza-shack-windsor", "name": "Mary's Pizza Shack", "image_url": "https://s3-media3.fl.yelpcdn.com/bphoto/yj055eZnnREllaTGmXOR4A/o.jpg", "is_closed": false, "url": "https://www.yelp.com/biz/marys-pizza-shack-windsor?adjust_creative=P6MImhcUyxgZvsglqHjFaw&utm_campaign=yelp_api_v3&utm_medium=api_v3_business_search&utm_source=P6MImhcUyxgZvsglqHjFaw", "review_count": 163, "categories": [{"alias": "pizza", "title": "Pizza"}, {"alias": "italian", "title": "Italian"}], "rating": 3.0, "coordinates": {"latitude": 38.5502285070637, "longitude": -122.807125324081}, "transactions": [], "price": "$$", "location": {"address1": "9010 Brooks Rd", "address2": "", "address3": "", "city": "Windsor", "zip_code": "95492", "country": "US", "state": "CA", "display_address": ["9010 Brooks Rd", "Windsor, CA 95492"]}, "phone": "+17078360900", "display_phone": "(707) 836-0900", "distance": 798.9294844484606}, {"id": "EexAtonXez11ilTWJxtllg", "alias": "lupes-diner-windsor", "name": "Lupe's Diner", "image_url": "https://s3-media3.fl.yelpcdn.com/bphoto/w_iugmCaRsq1JaYBcmgr-w/o.jpg", "is_closed": false, "url": "https://www.yelp.com/biz/lupes-diner-windsor?adjust_creative=P6MImhcUyxgZvsglqHjFaw&utm_campaign=yelp_api_v3&utm_medium=api_v3_business_search&utm_source=P6MImhcUyxgZvsglqHjFaw", "review_count": 138, "categories": [{"alias": "mexican", "title": "Mexican"}, {"alias": "bars", "title": "Bars"}], "rating": 3.0, "coordinates": {"latitude": 38.54812, "longitude": -122.81479}, "transactions": [], "price": "$$", "location": {"address1": "710 McClelland Dr", "address2": "", "address3": "", "city": "Windsor", "zip_code": "95492", "country": "US", "state": "CA", "display_address": ["710 McClelland Dr", "Windsor, CA 95492"]}, "phone": "+17078360150", "display_phone": "(707) 836-0150", "distance": 844.3428224938218}, {"id": "vPIbbxIakIPV7EH64iCtvA", "alias": "charlies-windsor-3", "name": "Charlie's", "image_url": "https://s3-media4.fl.yelpcdn.com/bphoto/jxWlJoCwYh-npzecsMp_9w/o.jpg", "is_closed": false, "url": "https://www.yelp.com/biz/charlies-windsor-3?adjust_creative=P6MImhcUyxgZvsglqHjFaw&utm_campaign=yelp_api_v3&utm_medium=api_v3_business_search&utm_source=P6MImhcUyxgZvsglqHjFaw", "review_count": 134, "categories": [{"alias": "tradamerican", "title": "American (Traditional)"}, {"alias": "venues", "title": "Venues & Event Spaces"}, {"alias": "breakfast_brunch", "title": "Breakfast & Brunch"}], "rating": 3.0, "coordinates": {"latitude": 38.527924, "longitude": -122.804708}, "transactions": [], "price": "$$", "location": {"address1": "1320 19th Hole Dr", "address2": "", "address3": "", "city": "Windsor", "zip_code": "95492", "country": "US", "state": "CA", "display_address": ["1320 19th Hole Dr", "Windsor, CA 95492"]}, "phone": "+17078388802", "display_phone": "(707) 838-8802", "distance": 1661.3908234634855}, {"id": "BTAeyE_yOJ1bhUqjz9_ltQ", "alias": "omelette-express-windsor", "name": "Omelette Express", "image_url": "https://s3-media2.fl.yelpcdn.com/bphoto/y8Gy1-XWQ1fOc9TT7p-AWg/o.jpg", "is_closed": false, "url": "https://www.yelp.com/biz/omelette-express-windsor?adjust_creative=P6MImhcUyxgZvsglqHjFaw&utm_campaign=yelp_api_v3&utm_medium=api_v3_business_search&utm_source=P6MImhcUyxgZvsglqHjFaw", "review_count": 191, "categories": [{"alias": "breakfast_brunch", "title": "Breakfast & Brunch"}, {"alias": "tradamerican", "title": "American (Traditional)"}], "rating": 4.0, "coordinates": {"latitude": 38.5472055, "longitude": -122.8118048}, "transactions": [], "price": "$$", "location": {"address1": "150 Windsor River Rd", "address2": "", "address3": "", "city": "Windsor", "zip_code": "95492", "country": "US", "state": "CA", "display_address": ["150 Windsor River Rd", "Windsor, CA 95492"]}, "phone": "+17078386920", "display_phone": "(707) 838-6920", "distance": 607.2299868224878}, {"id": "MKA7aJJDE_IrYR2n3iGHZg", "alias": "pohleys-market-windsor", "name": "Pohleys Market", "image_url": "https://s3-media1.fl.yelpcdn.com/bphoto/vjNb0x46gue-NnrYtQnUqQ/o.jpg", "is_closed": false, "url": "https://www.yelp.com/biz/pohleys-market-windsor?adjust_creative=P6MImhcUyxgZvsglqHjFaw&utm_campaign=yelp_api_v3&utm_medium=api_v3_business_search&utm_source=P6MImhcUyxgZvsglqHjFaw", "review_count": 20, "categories": [{"alias": "grocery", "title": "Grocery"}, {"alias": "beer_and_wine", "title": "Beer, Wine & Spirits"}, {"alias": "sandwiches", "title": "Sandwiches"}], "rating": 4.5, "coordinates": {"latitude": 38.5473976, "longitude": -122.8157221}, "transactions": [], "price": "$", "location": {"address1": "341 Windsor River Rd", "address2": "", "address3": "", "city": "Windsor", "zip_code": "95492", "country": "US", "state": "CA", "display_address": ["341 Windsor River Rd", "Windsor, CA 95492"]}, "phone": "+17078382266", "display_phone": "(707) 838-2266", "distance": 880.6026137672194}, {"id": "H0q4Vvm-B0vWibxZ1IfCOA", "alias": "castanedas-marketplace-windsor", "name": "Castaneda's Marketplace", "image_url": "https://s3-media2.fl.yelpcdn.com/bphoto/eXglkA2JSH9lztbOlLCwdQ/o.jpg", "is_closed": false, "url": "https://www.yelp.com/biz/castanedas-marketplace-windsor?adjust_creative=P6MImhcUyxgZvsglqHjFaw&utm_campaign=yelp_api_v3&utm_medium=api_v3_business_search&utm_source=P6MImhcUyxgZvsglqHjFaw", "review_count": 54, "categories": [{"alias": "grocery", "title": "Grocery"}, {"alias": "mexican", "title": "Mexican"}, {"alias": "spanish", "title": "Spanish"}], "rating": 4.0, "coordinates": {"latitude": 38.5434424, "longitude": -122.8012333}, "transactions": [], "price": "$", "location": {"address1": "8465 Old Redwood Hwy", "address2": "Ste 601", "address3": "", "city": "Windsor", "zip_code": "95492", "country": "US", "state": "CA", "display_address": ["8465 Old Redwood Hwy", "Ste 601", "Windsor, CA 95492"]}, "phone": "+17078388820", "display_phone": "(707) 838-8820", "distance": 553.5889255491708}, {"id": "m8proezoEXiLdsrReW6WJw", "alias": "anas-cafe-and-espresso-windsor", "name": "Ana's Cafe and Espresso", "image_url": "https://s3-media3.fl.yelpcdn.com/bphoto/9atsNYtOSSOwRt9YAiEdRQ/o.jpg", "is_closed": false, "url": "https://www.yelp.com/biz/anas-cafe-and-espresso-windsor?adjust_creative=P6MImhcUyxgZvsglqHjFaw&utm_campaign=yelp_api_v3&utm_medium=api_v3_business_search&utm_source=P6MImhcUyxgZvsglqHjFaw", "review_count": 68, "categories": [{"alias": "breakfast_brunch", "title": "Breakfast & Brunch"}, {"alias": "cafes", "title": "Cafes"}, {"alias": "mexican", "title": "Mexican"}], "rating": 5.0, "coordinates": {"latitude": 38.5621949, "longitude": -122.825415}, "transactions": [], "price": "$", "location": {"address1": "10333 Old Redwood Hwy", "address2": "", "address3": "", "city": "Windsor", "zip_code": "95492", "country": "US", "state": "CA", "display_address": ["10333 Old Redwood Hwy", "Windsor, CA 95492"]}, "phone": "+17078370680", "display_phone": "(707) 837-0680", "distance": 2633.686292881458}, {"id": "WpPUdeShrWupIb64aeLxzQ", "alias": "martins-taqueria-windsor", "name": "Martin's Taqueria", "image_url": "https://s3-media4.fl.yelpcdn.com/bphoto/wlubu470vMctuWxBFKxhjQ/o.jpg", "is_closed": false, "url": "https://www.yelp.com/biz/martins-taqueria-windsor?adjust_creative=P6MImhcUyxgZvsglqHjFaw&utm_campaign=yelp_api_v3&utm_medium=api_v3_business_search&utm_source=P6MImhcUyxgZvsglqHjFaw", "review_count": 36, "categories": [{"alias": "mexican", "title": "Mexican"}], "rating": 4.0, "coordinates": {"latitude": 38.5621605, "longitude": -122.8253937}, "transactions": [], "price": "$", "location": {"address1": "10333 Old Redwood Hwy", "address2": "", "address3": "", "city": "Windsor", "zip_code": "95492", "country": "US", "state": "CA", "display_address": ["10333 Old Redwood Hwy", "Windsor, CA 95492"]}, "phone": "+17078388180", "display_phone": "(707) 838-8180", "distance": 2629.4748332326735}, {"id": "7gylu1oreDJY2QAyR-BOUg", "alias": "estrellas-market-windsor", "name": "Estrella's Market", "image_url": "https://s3-media2.fl.yelpcdn.com/bphoto/NzVvhCi9uV82cHHZHF3kAA/o.jpg", "is_closed": false, "url": "https://www.yelp.com/biz/estrellas-market-windsor?adjust_creative=P6MImhcUyxgZvsglqHjFaw&utm_campaign=yelp_api_v3&utm_medium=api_v3_business_search&utm_source=P6MImhcUyxgZvsglqHjFaw", "review_count": 70, "categories": [{"alias": "mexican", "title": "Mexican"}], "rating": 4.0, "coordinates": {"latitude": 38.5625228881836, "longitude": -122.825744628906}, "transactions": [], "price": "$", "location": {"address1": "10351 Old Redwood Hwy", "address2": "", "address3": "", "city": "Windsor", "zip_code": "95492", "country": "US", "state": "CA", "display_address": ["10351 Old Redwood Hwy", "Windsor, CA 95492"]}, "phone": "+17076200012", "display_phone": "(707) 620-0012", "distance": 2691.328419801137}, {"id": "FHLSRjT-eWLJe8cRbwCNsA", "alias": "dianas-restaurant-windsor-4", "name": "Diana's Restaurant", "image_url": "https://s3-media1.fl.yelpcdn.com/bphoto/iNo5YRMzaqJM2dGgadRUlQ/o.jpg", "is_closed": false, "url": "https://www.yelp.com/biz/dianas-restaurant-windsor-4?adjust_creative=P6MImhcUyxgZvsglqHjFaw&utm_campaign=yelp_api_v3&utm_medium=api_v3_business_search&utm_source=P6MImhcUyxgZvsglqHjFaw", "review_count": 89, "categories": [{"alias": "mexican", "title": "Mexican"}], "rating": 3.5, "coordinates": {"latitude": 38.543807762441, "longitude": -122.800938786288}, "transactions": ["pickup", "delivery"], "price": "$", "location": {"address1": "8430 Old Redwood Hwy", "address2": "", "address3": "", "city": "Windsor", "zip_code": "95492", "country": "US", "state": "CA", "display_address": ["8430 Old Redwood Hwy", "Windsor, CA 95492"]}, "phone": "+17078381733", "display_phone": "(707) 838-1733", "distance": 612.4835222372405}, {"id": "l0rulzIH781vlhA2LVBT-g", "alias": "mountain-mikes-pizza-windsor", "name": "Mountain Mike's Pizza", "image_url": "https://s3-media1.fl.yelpcdn.com/bphoto/zlJsSIgw_Z1p6Bs2yQ9hXA/o.jpg", "is_closed": false, "url": "https://www.yelp.com/biz/mountain-mikes-pizza-windsor?adjust_creative=P6MImhcUyxgZvsglqHjFaw&utm_campaign=yelp_api_v3&utm_medium=api_v3_business_search&utm_source=P6MImhcUyxgZvsglqHjFaw", "review_count": 65, "categories": [{"alias": "pizza", "title": "Pizza"}, {"alias": "sportsbars", "title": "Sports Bars"}, {"alias": "beergardens", "title": "Beer Gardens"}], "rating": 3.5, "coordinates": {"latitude": 38.5267853, "longitude": -122.7896072}, "transactions": ["pickup", "delivery"], "price": "$$", "location": {"address1": "6580 Hembree Lane", "address2": "", "address3": "", "city": "Windsor", "zip_code": "95492", "country": "US", "state": "CA", "display_address": ["6580 Hembree Lane", "Windsor, CA 95492"]}, "phone": "+17078361700", "display_phone": "(707) 836-1700", "distance": 2390.6774901964723}, {"id": "xdlAYHpt1b07zZcyjcf0BQ", "alias": "applebees-grill-bar-windsor", "name": "Applebee's Grill + Bar", "image_url": "https://s3-media3.fl.yelpcdn.com/bphoto/xwmXSfFtPEBxFfrmjnduhw/o.jpg", "is_closed": false, "url": "https://www.yelp.com/biz/applebees-grill-bar-windsor?adjust_creative=P6MImhcUyxgZvsglqHjFaw&utm_campaign=yelp_api_v3&utm_medium=api_v3_business_search&utm_source=P6MImhcUyxgZvsglqHjFaw", "review_count": 97, "categories": [{"alias": "tradamerican", "title": "American (Traditional)"}, {"alias": "burgers", "title": "Burgers"}, {"alias": "sportsbars", "title": "Sports Bars"}], "rating": 2.0, "coordinates": {"latitude": 38.548399, "longitude": -122.807388}, "transactions": ["pickup", "delivery"], "price": "$$", "location": {"address1": "8931 Brooks Rd S", "address2": "", "address3": "", "city": "Windsor", "zip_code": "95492", "country": "US", "state": "CA", "display_address": ["8931 Brooks Rd S", "Windsor, CA 95492"]}, "phone": "+17078360642", "display_phone": "(707) 836-0642", "distance": 594.754937180819}, {"id": "d8zLpY6Di5rsZnQBtiCfPw", "alias": "wingstop-windsor", "name": "Wingstop", "image_url": "https://s3-media1.fl.yelpcdn.com/bphoto/qg7uhFmZkhH41o4cbB20JA/o.jpg", "is_closed": false, "url": "https://www.yelp.com/biz/wingstop-windsor?adjust_creative=P6MImhcUyxgZvsglqHjFaw&utm_campaign=yelp_api_v3&utm_medium=api_v3_business_search&utm_source=P6MImhcUyxgZvsglqHjFaw", "review_count": 30, "categories": [{"alias": "chicken_wings", "title": "Chicken Wings"}], "rating": 2.5, "coordinates": {"latitude": 38.5269, "longitude": -122.78891}, "transactions": [], "location": {"address1": "6500 Hembree Ln", "address2": "Ste 205", "address3": null, "city": "Windsor", "zip_code": "95492", "country": "US", "state": "CA", "display_address": ["6500 Hembree Ln", "Ste 205", "Windsor, CA 95492"]}, "phone": "+17078369464", "display_phone": "(707) 836-9464", "distance": 2441.632040114224}, {"id": "noqlnoOOQg5CCXJGP3of-Q", "alias": "mendocino-bbq-catering-ukiah", "name": "Mendocino BBQ Catering", "image_url": "https://s3-media4.fl.yelpcdn.com/bphoto/OZUrirzQcPOLuDRcjkJh0Q/o.jpg", "is_closed": false, "url": "https://www.yelp.com/biz/mendocino-bbq-catering-ukiah?adjust_creative=P6MImhcUyxgZvsglqHjFaw&utm_campaign=yelp_api_v3&utm_medium=api_v3_business_search&utm_source=P6MImhcUyxgZvsglqHjFaw", "review_count": 7, "categories": [{"alias": "catering", "title": "Caterers"}, {"alias": "bbq", "title": "Barbeque"}, {"alias": "foodtrucks", "title": "Food Trucks"}], "rating": 5.0, "coordinates": {"latitude": 39.1549905, "longitude": -123.2078366}, "transactions": [], "location": {"address1": "585 N State St", "address2": null, "address3": "", "city": "Ukiah", "zip_code": "95482", "country": "US", "state": "CA", "display_address": ["585 N State St", "Ukiah, CA 95482"]}, "phone": "+17073917647", "display_phone": "(707) 391-7647", "distance": 76363.8415784886}, {"id": "wBdW6BZEOF6hifIQyJEbxw", "alias": "cafe-noto-windsor", "name": "Cafe Noto", "image_url": "https://s3-media4.fl.yelpcdn.com/bphoto/6Swbux0_tW4pVX_3LbfyIA/o.jpg", "is_closed": false, "url": "https://www.yelp.com/biz/cafe-noto-windsor?adjust_creative=P6MImhcUyxgZvsglqHjFaw&utm_campaign=yelp_api_v3&utm_medium=api_v3_business_search&utm_source=P6MImhcUyxgZvsglqHjFaw", "review_count": 108, "categories": [{"alias": "coffee", "title": "Coffee & Tea"}, {"alias": "cafes", "title": "Cafes"}], "rating": 3.5, "coordinates": {"latitude": 38.5481300354004, "longitude": -122.81428527832}, "transactions": [], "price": "$", "location": {"address1": "630 McClelland Dr", "address2": "", "address3": "", "city": "Windsor", "zip_code": "95492", "country": "US", "state": "CA", "display_address": ["630 McClelland Dr", "Windsor, CA 95492"]}, "phone": "+17078361830", "display_phone": "(707) 836-1830", "distance": 813.6165568180572}, {"id": "gDbC4twQiMXjKepwvyTqZQ", "alias": "pizza-guys-windsor", "name": "Pizza Guys", "image_url": "https://s3-media3.fl.yelpcdn.com/bphoto/O7kK9yAk-hXwcE6d6s7H_A/o.jpg", "is_closed": false, "url": "https://www.yelp.com/biz/pizza-guys-windsor?adjust_creative=P6MImhcUyxgZvsglqHjFaw&utm_campaign=yelp_api_v3&utm_medium=api_v3_business_search&utm_source=P6MImhcUyxgZvsglqHjFaw", "review_count": 90, "categories": [{"alias": "pizza", "title": "Pizza"}], "rating": 3.5, "coordinates": {"latitude": 38.527013, "longitude": -122.788641}, "transactions": ["pickup", "delivery"], "price": "$$", "location": {"address1": "6500 Hembree Ln", "address2": "Ste 202", "address3": "", "city": "Windsor", "zip_code": "95492", "country": "US", "state": "CA", "display_address": ["6500 Hembree Ln", "Ste 202", "Windsor, CA 95492"]}, "phone": "+17078369999", "display_phone": "(707) 836-9999", "distance": 2427.793080920461}, {"id": "uWA4Nx9kJwhxTck8m5c0iA", "alias": "tacos-el-angel-windsor", "name": "Tacos el Angel", "image_url": "https://s3-media1.fl.yelpcdn.com/bphoto/gm-TT8zXjvluIl4aZQ3ShA/o.jpg", "is_closed": false, "url": "https://www.yelp.com/biz/tacos-el-angel-windsor?adjust_creative=P6MImhcUyxgZvsglqHjFaw&utm_campaign=yelp_api_v3&utm_medium=api_v3_business_search&utm_source=P6MImhcUyxgZvsglqHjFaw", "review_count": 1, "categories": [{"alias": "foodtrucks", "title": "Food Trucks"}, {"alias": "mexican", "title": "Mexican"}], "rating": 5.0, "coordinates": {"latitude": 38.5111892142142, "longitude": -122.801143079996}, "transactions": [], "location": {"address1": null, "address2": null, "address3": "", "city": "Windsor", "zip_code": "95492", "country": "US", "state": "CA", "display_address": ["Windsor, CA 95492"]}, "phone": "+17077123492", "display_phone": "(707) 712-3492", "distance": 3586.973080638646}, {"id": "d2cs0dpwNeWURwLyTbdUQQ", "alias": "charlies-bbq-windsor", "name": "Charlie's BBQ", "image_url": "", "is_closed": false, "url": "https://www.yelp.com/biz/charlies-bbq-windsor?adjust_creative=P6MImhcUyxgZvsglqHjFaw&utm_campaign=yelp_api_v3&utm_medium=api_v3_business_search&utm_source=P6MImhcUyxgZvsglqHjFaw", "review_count": 5, "categories": [{"alias": "bbq", "title": "Barbeque"}], "rating": 4.0, "coordinates": {"latitude": 38.5491, "longitude": -122.81261}, "transactions": [], "price": "$$$", "location": {"address1": "", "address2": "", "address3": "", "city": "Windsor", "zip_code": "", "country": "US", "state": "CA", "display_address": ["Windsor, CA"]}, "phone": "", "display_phone": "", "distance": 889.7855150996496}, {"id": "RsAXPa4rK3-nLmeRoUzgbQ", "alias": "panda-express-windsor", "name": "Panda Express", "image_url": "https://s3-media2.fl.yelpcdn.com/bphoto/vR67AQ7Rc2L5nChHl6-yMg/o.jpg", "is_closed": false, "url": "https://www.yelp.com/biz/panda-express-windsor?adjust_creative=P6MImhcUyxgZvsglqHjFaw&utm_campaign=yelp_api_v3&utm_medium=api_v3_business_search&utm_source=P6MImhcUyxgZvsglqHjFaw", "review_count": 57, "categories": [{"alias": "chinese", "title": "Chinese"}, {"alias": "hotdogs", "title": "Fast Food"}], "rating": 2.5, "coordinates": {"latitude": 38.5275192260742, "longitude": -122.788856506348}, "transactions": [], "price": "$", "location": {"address1": "6560 Hembree Ln", "address2": "", "address3": "", "city": "Windsor", "zip_code": "95492", "country": "US", "state": "CA", "display_address": ["6560 Hembree Ln", "Windsor, CA 95492"]}, "phone": "+17078370139", "display_phone": "(707) 837-0139", "distance": 2377.0768226755495}, {"id": "ZlkxyVA8SXPyqJBm2VS3Wg", "alias": "round-table-pizza-windsor", "name": "Round Table Pizza", "image_url": "https://s3-media4.fl.yelpcdn.com/bphoto/zwxytMENF9IQ4mV7YowADw/o.jpg", "is_closed": false, "url": "https://www.yelp.com/biz/round-table-pizza-windsor?adjust_creative=P6MImhcUyxgZvsglqHjFaw&utm_campaign=yelp_api_v3&utm_medium=api_v3_business_search&utm_source=P6MImhcUyxgZvsglqHjFaw", "review_count": 70, "categories": [{"alias": "pizza", "title": "Pizza"}, {"alias": "buffets", "title": "Buffets"}], "rating": 2.5, "coordinates": {"latitude": 38.5435, "longitude": -122.80205}, "transactions": [], "price": "$$", "location": {"address1": "8499 Old Redwood Hwy", "address2": "", "address3": "", "city": "Windsor", "zip_code": "95492", "country": "US", "state": "CA", "display_address": ["8499 Old Redwood Hwy", "Windsor, CA 95492"]}, "phone": "+17078388558", "display_phone": "(707) 838-8558", "distance": 497.32310056773173}, {"id": "V46qgv3fXkZrWJ6EHLdyQA", "alias": "olivers-grill-central-station-windsor", "name": "Oliver's Grill Central Station", "image_url": "https://s3-media3.fl.yelpcdn.com/bphoto/jLRqqcNX_CcWZYU74PcaBw/o.jpg", "is_closed": false, "url": "https://www.yelp.com/biz/olivers-grill-central-station-windsor?adjust_creative=P6MImhcUyxgZvsglqHjFaw&utm_campaign=yelp_api_v3&utm_medium=api_v3_business_search&utm_source=P6MImhcUyxgZvsglqHjFaw", "review_count": 3, "categories": [{"alias": "bbq", "title": "Barbeque"}], "rating": 3.0, "coordinates": {"latitude": 38.54918, "longitude": -122.81126}, "transactions": [], "location": {"address1": "9230 Old Redwood Hwy", "address2": "", "address3": null, "city": "Windsor", "zip_code": "95492", "country": "US", "state": "CA", "display_address": ["9230 Old Redwood Hwy", "Windsor, CA 95492"]}, "phone": "+17076872050", "display_phone": "(707) 687-2050", "distance": 740.470483007475}, {"id": "Lh2RitxMhAHwIMFWVdYAtQ", "alias": "togo-s-sandwiches-windsor", "name": "Togo\u2019s Sandwiches", "image_url": "https://s3-media2.fl.yelpcdn.com/bphoto/3wzscECGR733kevysp6_sQ/o.jpg", "is_closed": false, "url": "https://www.yelp.com/biz/togo-s-sandwiches-windsor?adjust_creative=P6MImhcUyxgZvsglqHjFaw&utm_campaign=yelp_api_v3&utm_medium=api_v3_business_search&utm_source=P6MImhcUyxgZvsglqHjFaw", "review_count": 38, "categories": [{"alias": "sandwiches", "title": "Sandwiches"}, {"alias": "delis", "title": "Delis"}, {"alias": "hotdogs", "title": "Fast Food"}], "rating": 3.5, "coordinates": {"latitude": 38.5487817, "longitude": -122.8070442}, "transactions": ["pickup", "delivery"], "price": "$", "location": {"address1": "8936 Brooks Rd S", "address2": "", "address3": "", "city": "Windsor", "zip_code": "95492", "country": "US", "state": "CA", "display_address": ["8936 Brooks Rd S", "Windsor, CA 95492"]}, "phone": "+17078375747", "display_phone": "(707) 837-5747", "distance": 654.0054936831514}, {"id": "i6ZwMjYIbmFZ8EGYz6x5Bw", "alias": "phat-salads-and-wraps-napa", "name": "Phat Salads and Wraps", "image_url": "https://s3-media2.fl.yelpcdn.com/bphoto/FbrUwtrVIx2cLXiPdBhHkw/o.jpg", "is_closed": false, "url": "https://www.yelp.com/biz/phat-salads-and-wraps-napa?adjust_creative=P6MImhcUyxgZvsglqHjFaw&utm_campaign=yelp_api_v3&utm_medium=api_v3_business_search&utm_source=P6MImhcUyxgZvsglqHjFaw", "review_count": 48, "categories": [{"alias": "foodtrucks", "title": "Food Trucks"}, {"alias": "wraps", "title": "Wraps"}], "rating": 4.0, "coordinates": {"latitude": 38.3234491, "longitude": -122.3023962}, "transactions": [], "price": "$", "location": {"address1": "", "address2": "", "address3": "", "city": "Napa", "zip_code": "94558", "country": "US", "state": "CA", "display_address": ["Napa, CA 94558"]}, "phone": "+17073639658", "display_phone": "(707) 363-9658", "distance": 50323.96539415724}, {"id": "V_Dgoy0soQ8ds3LdLKJ8BQ", "alias": "taco-bell-windsor-2", "name": "Taco Bell", "image_url": "https://s3-media1.fl.yelpcdn.com/bphoto/uM-UNc6binq9vRIguOFn_g/o.jpg", "is_closed": false, "url": "https://www.yelp.com/biz/taco-bell-windsor-2?adjust_creative=P6MImhcUyxgZvsglqHjFaw&utm_campaign=yelp_api_v3&utm_medium=api_v3_business_search&utm_source=P6MImhcUyxgZvsglqHjFaw", "review_count": 74, "categories": [{"alias": "hotdogs", "title": "Fast Food"}, {"alias": "tacos", "title": "Tacos"}], "rating": 1.5, "coordinates": {"latitude": 38.550502, "longitude": -122.807453}, "transactions": ["delivery"], "price": "$", "location": {"address1": "8900 Brooks Rd", "address2": "", "address3": "", "city": "Windsor", "zip_code": "95492", "country": "US", "state": "CA", "display_address": ["8900 Brooks Rd", "Windsor, CA 95492"]}, "phone": "+17078384018", "display_phone": "(707) 838-4018", "distance": 828.438026845228}, {"id": "Lk1whleRzrT_Kz5zeRvhmw", "alias": "mcdonalds-windsor-7", "name": "McDonald's", "image_url": "https://s3-media3.fl.yelpcdn.com/bphoto/VeJ1GLhhGzWLTKy5Ie6W7w/o.jpg", "is_closed": false, "url": "https://www.yelp.com/biz/mcdonalds-windsor-7?adjust_creative=P6MImhcUyxgZvsglqHjFaw&utm_campaign=yelp_api_v3&utm_medium=api_v3_business_search&utm_source=P6MImhcUyxgZvsglqHjFaw", "review_count": 76, "categories": [{"alias": "hotdogs", "title": "Fast Food"}, {"alias": "burgers", "title": "Burgers"}, {"alias": "coffee", "title": "Coffee & Tea"}], "rating": 1.5, "coordinates": {"latitude": 38.547605331154, "longitude": -122.811488360167}, "transactions": [], "price": "$", "location": {"address1": "125 Windsor River Rd", "address2": null, "address3": null, "city": "Windsor", "zip_code": "95492", "country": "US", "state": "CA", "display_address": ["125 Windsor River Rd", "Windsor, CA 95492"]}, "phone": "+17078370446", "display_phone": "(707) 837-0446", "distance": 609.8347225882889}, {"id": "O_SLMdlli6GTWoP9TYMqdw", "alias": "aztec-grill-windsor-4", "name": "Aztec Grill", "image_url": "https://s3-media3.fl.yelpcdn.com/bphoto/H5HavLNH8gvmG6fNSFIFEQ/o.jpg", "is_closed": false, "url": "https://www.yelp.com/biz/aztec-grill-windsor-4?adjust_creative=P6MImhcUyxgZvsglqHjFaw&utm_campaign=yelp_api_v3&utm_medium=api_v3_business_search&utm_source=P6MImhcUyxgZvsglqHjFaw", "review_count": 8, "categories": [{"alias": "mexican", "title": "Mexican"}], "rating": 2.5, "coordinates": {"latitude": 38.54849, "longitude": -122.81049}, "transactions": ["pickup", "delivery"], "price": "$", "location": {"address1": "9120 Old Redwood Hwy", "address2": null, "address3": "Redwood Market", "city": "Windsor", "zip_code": "95492", "country": "US", "state": "CA", "display_address": ["9120 Old Redwood Hwy", "Redwood Market", "Windsor, CA 95492"]}, "phone": "+17078384951", "display_phone": "(707) 838-4951", "distance": 643.0066609392808}, {"id": "lwEZ6M5FtYNw_upKwyXxuQ", "alias": "papa-murphys-windsor-2", "name": "Papa Murphy's", "image_url": "https://s3-media3.fl.yelpcdn.com/bphoto/e4SZoWwWZSoK-mFM5hzMLg/o.jpg", "is_closed": false, "url": "https://www.yelp.com/biz/papa-murphys-windsor-2?adjust_creative=P6MImhcUyxgZvsglqHjFaw&utm_campaign=yelp_api_v3&utm_medium=api_v3_business_search&utm_source=P6MImhcUyxgZvsglqHjFaw", "review_count": 12, "categories": [{"alias": "pizza", "title": "Pizza"}], "rating": 2.5, "coordinates": {"latitude": 38.5484518, "longitude": -122.8058061}, "transactions": [], "price": "$", "location": {"address1": "8794 Lakewood Drive", "address2": "", "address3": "", "city": "Windsor", "zip_code": "95492", "country": "US", "state": "CA", "display_address": ["8794 Lakewood Drive", "Windsor, CA 95492"]}, "phone": "+17078377300", "display_phone": "(707) 837-7300", "distance": 573.3000109585769}, {"id": "oS7SCINHTOziW4Jd-x3Hjw", "alias": "little-caesars-windsor-2", "name": "Little Caesars", "image_url": "https://s3-media3.fl.yelpcdn.com/bphoto/KCfUopqQ4Swy6I3YDgZjuA/o.jpg", "is_closed": false, "url": "https://www.yelp.com/biz/little-caesars-windsor-2?adjust_creative=P6MImhcUyxgZvsglqHjFaw&utm_campaign=yelp_api_v3&utm_medium=api_v3_business_search&utm_source=P6MImhcUyxgZvsglqHjFaw", "review_count": 15, "categories": [{"alias": "pizza", "title": "Pizza"}], "rating": 2.5, "coordinates": {"latitude": 38.5489006, "longitude": -122.8059082}, "transactions": [], "price": "$", "location": {"address1": "8836 Lakewood Dr", "address2": "", "address3": "", "city": "Windsor", "zip_code": "95492", "country": "US", "state": "CA", "display_address": ["8836 Lakewood Dr", "Windsor, CA 95492"]}, "phone": "+17078381420", "display_phone": "(707) 838-1420", "distance": 803.6785982552019}, {"id": "jFkvNnsEtzfN7nvneucnQA", "alias": "kfc-windsor-17", "name": "KFC", "image_url": "https://s3-media2.fl.yelpcdn.com/bphoto/zImeT9M8y35Zyi9ZRZOgSg/o.jpg", "is_closed": false, "url": "https://www.yelp.com/biz/kfc-windsor-17?adjust_creative=P6MImhcUyxgZvsglqHjFaw&utm_campaign=yelp_api_v3&utm_medium=api_v3_business_search&utm_source=P6MImhcUyxgZvsglqHjFaw", "review_count": 32, "categories": [{"alias": "hotdogs", "title": "Fast Food"}, {"alias": "chicken_wings", "title": "Chicken Wings"}, {"alias": "chickenshop", "title": "Chicken Shop"}], "rating": 1.5, "coordinates": {"latitude": 38.5270007868348, "longitude": -122.790185107487}, "transactions": ["pickup", "delivery"], "price": "$", "location": {"address1": "6610 Hembree Ln", "address2": "", "address3": "", "city": "Windsor", "zip_code": "95492", "country": "US", "state": "CA", "display_address": ["6610 Hembree Ln", "Windsor, CA 95492"]}, "phone": "+17078378885", "display_phone": "(707) 837-8885", "distance": 2339.7863211065555}, {"id": "RU1a-dB7rvgXpH5BDNO4wg", "alias": "a-and-w-windsor-9", "name": "A&W", "image_url": "https://s3-media4.fl.yelpcdn.com/bphoto/jeSqTIqFALm1Fo33CWqhdA/o.jpg", "is_closed": false, "url": "https://www.yelp.com/biz/a-and-w-windsor-9?adjust_creative=P6MImhcUyxgZvsglqHjFaw&utm_campaign=yelp_api_v3&utm_medium=api_v3_business_search&utm_source=P6MImhcUyxgZvsglqHjFaw", "review_count": 15, "categories": [{"alias": "hotdogs", "title": "Fast Food"}, {"alias": "burgers", "title": "Burgers"}, {"alias": "hotdog", "title": "Hot Dogs"}], "rating": 1.5, "coordinates": {"latitude": 38.52713, "longitude": -122.790168}, "transactions": [], "location": {"address1": "6610 Hembree Lane", "address2": "", "address3": "", "city": "Windsor", "zip_code": "95492", "country": "US", "state": "CA", "display_address": ["6610 Hembree Lane", "Windsor, CA 95492"]}, "phone": "+17078378885", "display_phone": "(707) 837-8885", "distance": 2340.716114753309}, {"id": "xoIqifYSVabtgm1KWCQshg", "alias": "burger-king-windsor-9", "name": "Burger King", "image_url": "https://s3-media2.fl.yelpcdn.com/bphoto/umS7LWBtPdfME-B4zg7xfQ/o.jpg", "is_closed": false, "url": "https://www.yelp.com/biz/burger-king-windsor-9?adjust_creative=P6MImhcUyxgZvsglqHjFaw&utm_campaign=yelp_api_v3&utm_medium=api_v3_business_search&utm_source=P6MImhcUyxgZvsglqHjFaw", "review_count": 13, "categories": [{"alias": "burgers", "title": "Burgers"}, {"alias": "hotdogs", "title": "Fast Food"}], "rating": 2.5, "coordinates": {"latitude": 38.526114, "longitude": -122.786969}, "transactions": [], "price": "$", "location": {"address1": "6351 Hembree Lane", "address2": null, "address3": null, "city": "Windsor", "zip_code": "95492", "country": "US", "state": "CA", "display_address": ["6351 Hembree Lane", "Windsor, CA 95492"]}, "phone": "+17078388254", "display_phone": "(707) 838-8254", "distance": 2601.0015631553883}, {"id": "WS_tw-rT-iIR3Plh74k_hg", "alias": "quick-shop-and-deli-windsor-2", "name": "Quick Shop & Deli", "image_url": "https://s3-media2.fl.yelpcdn.com/bphoto/nfTl6cID27FEcC4j8KZmzA/o.jpg", "is_closed": false, "url": "https://www.yelp.com/biz/quick-shop-and-deli-windsor-2?adjust_creative=P6MImhcUyxgZvsglqHjFaw&utm_campaign=yelp_api_v3&utm_medium=api_v3_business_search&utm_source=P6MImhcUyxgZvsglqHjFaw", "review_count": 3, "categories": [{"alias": "delis", "title": "Delis"}, {"alias": "beer_and_wine", "title": "Beer, Wine & Spirits"}, {"alias": "convenience", "title": "Convenience Stores"}], "rating": 1.0, "coordinates": {"latitude": 38.5418984, "longitude": -122.7978482}, "transactions": [], "price": "$", "location": {"address1": "8197 Old Redwood Hwy", "address2": null, "address3": "", "city": "Windsor", "zip_code": "95492", "country": "US", "state": "CA", "display_address": ["8197 Old Redwood Hwy", "Windsor, CA 95492"]}, "phone": "+17078386614", "display_phone": "(707) 838-6614", "distance": 993.0942906945946}, {"id": "W9Th9tf58oqPto-G_TkkQg", "alias": "subway-restaurants-windsor-9", "name": "Subway Restaurants", "image_url": "https://s3-media1.fl.yelpcdn.com/bphoto/njDk5bOIb1zDP4F913wriw/o.jpg", "is_closed": false, "url": "https://www.yelp.com/biz/subway-restaurants-windsor-9?adjust_creative=P6MImhcUyxgZvsglqHjFaw&utm_campaign=yelp_api_v3&utm_medium=api_v3_business_search&utm_source=P6MImhcUyxgZvsglqHjFaw", "review_count": 14, "categories": [{"alias": "sandwiches", "title": "Sandwiches"}], "rating": 1.0, "coordinates": {"latitude": 38.527047, "longitude": -122.788048}, "transactions": [], "price": "$", "location": {"address1": "6400 Hembree Lane", "address2": "Suite 100", "address3": "", "city": "Windsor", "zip_code": "95492", "country": "US", "state": "CA", "display_address": ["6400 Hembree Lane", "Suite 100", "Windsor, CA 95492"]}, "phone": "+17078381340", "display_phone": "(707) 838-1340", "distance": 2477.0747087696377}]}